     2              OBSERVATION DATA    G (GPS)             RINEX VERSION / TYPE
RINEXDLL.DLL V2.60                      01 - APR - 09 12:10 PGM / RUN BY / DATE 
                                                            COMMENT             
????                                                        MARKER NAME         
                                                            MARKER NUMBER       
                                                            OBSERVER / AGENCY   
                    LOCUS               L_42      UNKNOWN   REC # / TYPE / VERS 
                                                            ANT # / TYPE        
 -2678883.9700 -4303701.1800  3857593.2400                  APPROX POSITION XYZ 
        0.0000        0.0000        0.0000                  ANTENNA: DELTA H/E/N
     1     0                                                WAVELENGTH FACT L1/2
     3    L1    C1    D1                                    # / TYPES OF OBSERV 
    10.0000                                                 INTERVAL            
                                                            LEAP SECONDS        
  1998     9    30    16     2   50.000000      GPS         TIME OF FIRST OBS   
  1998     9    30    19    32   30.000000      GPS         TIME OF LAST OBS    
                                                            END OF HEADER       
 98  9 30 16  2 50.0000000  0  7G21G17G03G23G01G06G22                0.000142820
     79368.521 7  21444079.324        -526.831
    375804.855 6  21193087.526       -3281.589
     -9312.670 7  21872731.279          81.342
    406892.622 7  20723221.929       -2522.054
   -193082.453 6  23622480.157        1628.262
    745223.646 6  24018678.513       -5720.097
    444809.921 5  24653678.807       -4296.384
 98  9 30 16  3  0.0000000  0  7G21G17G03G23G01G06G22                0.000155302
     84621.879 6  21445081.605        -524.118
    408606.459 6  21199324.538       -3278.798
    -10131.107 7  21872580.170          82.634
    432099.509 7  20728017.290       -2519.167
   -209388.650 6  23619382.276        1633.191
    802401.520 5  24029561.000       -5715.369
    487752.159 4  24661860.292       -4292.276
 98  9 30 16  3 10.0000000  0  7G21G17G03G23G01G06G22                0.000167749
     89851.661 6  21446074.443        -522.006
    441385.575 6  21205563.556       -3276.923
    -10956.617 7  21872423.127          82.756
    457280.986 7  20732811.794       -2517.148
   -225739.204 6  23616268.729        1637.296
    859539.222 5  24040428.180       -5712.106
    530653.002 5  24670031.689       -4288.284
 98  9 30 16  3 20.0000000  0  7G21G17G03G23G01G06G22                0.000180142
     95059.500 6  21447067.209        -519.872
    474144.039 7  21211801.429       -3275.085
    -11786.806 7  21872262.505          83.244
    482440.194 7  20737596.139       -2515.210
   -242132.307 6  23613149.744        1641.245
    916638.719 5  24051298.507       -5708.662
    573514.071 5  24678183.913       -4284.390
 98  9 30 16  3 30.0000000  0  7G21G17G03G23G01G06G22                0.000192457
    100248.299 7  21448053.536        -517.438
    506885.219 6  21218029.070       -3273.070
    -12619.004 7  21872103.886          83.875
    507579.463 7  20742381.627       -2512.532
   -258565.651 6  23610022.674        1645.758
    973702.547 5  24062151.231       -5704.320
    616337.290 5  24686321.468       -4279.976
 98  9 30 16  3 40.0000000  0  7G21G17G03G23G01G06G22                0.000204813
    105416.809 7  21449036.073        -516.095
    539607.934 6  21224254.567       -3271.616
    -13453.956 7  21871943.409          83.636
    532697.841 7  20747159.249       -2511.208
   -275039.315 6  23606890.526        1649.396
   1030729.391 5  24073005.747       -5700.952
    659121.017 5  24694473.263       -4276.547
 98  9 30 16  3 50.0000000  0  7G21G17G03G23G01G06G22                0.000217122
    110570.686 7  21450016.034        -514.334
    572317.034 6  21230481.208       -3270.000
    -14286.664 7  21871782.717          83.409
    557801.181 7  20751932.576       -2509.448
   -291546.734 6  23603751.582        1652.702
   1087724.008 5  24083854.825       -5697.508
    701870.715 5  24702608.818       -4273.320
 98  9 30 16  4  0.0000000  0  7G21G17G03G23G01G06G22                0.000229361
    115709.163 6  21450992.348        -513.376
    605011.752 6  21236701.411       -3269.017
    -15118.085 6  21871629.038          83.006
    582887.524 7  20756708.122       -2507.811
   -308088.689 6  23600605.698        1655.913
   1144684.803 5  24094694.459       -5694.434
    744585.719 5  24710724.269       -4270.412
 98  9 30 16  4 10.0000000  0  6G21G17G03G23G01G06                   0.000241485
    120833.699 6  21451969.448        -511.963
    637693.613 6  21242922.473       -3267.867
    -15946.872 6  21871466.414          82.808
    607957.871 7  20761478.231       -2506.393
   -324664.471 6  23597443.000        1659.152
   1201611.185 6  24105531.160       -5691.048
 98  9 30 16  4 20.0000000  0  6G21G17G03G23G01G06                   0.000253706
    125947.925 6  21452944.617        -511.104
    670367.357 6  21249141.746       -3266.907
    -16767.407 6  21871311.735          81.485
    633016.439 7  20766244.263       -2505.513
   -341269.205 6  23594284.741        1661.743
   1258507.015 6  24116360.779       -5688.235
 98  9 30 16  4 30.0000000  0  6G21G17G03G23G01G06                   0.000265880
    131052.692 7  21453910.413        -510.117
    703032.776 6  21255356.871       -3266.246
    -17577.483 7  21871157.341          80.426
    658063.554 7  20771015.875       -2504.401
   -357902.329 6  23591120.827        1664.992
   1315372.403 5  24127181.954       -5684.921
 98  9 30 16  4 40.0000000  0  6G21G17G03G23G01G06                   0.000278049
    136150.492 6  21454881.004        -509.181
    735690.177 6  21261567.844       -3265.118
    -18374.930 7  21871006.811          79.346
    683102.387 7  20775780.332       -2503.404
   -374560.731 6  23587949.976        1667.261
   1372208.943 5  24138003.632       -5682.231
 98  9 30 16  4 50.0000000  0  6G21G17G03G23G01G06                   0.000290174
    141242.313 7  21455850.022        -509.206
    768340.837 6  21267778.606       -3264.888
    -19158.635 7  21870856.212          77.396
    708135.400 7  20780542.860       -2503.178
   -391241.912 5  23584774.119        1668.842
   1429017.989 5  24148817.369       -5680.093
 98  9 30 16  5  0.0000000  0  6G21G17G03G23G01G06                   0.000302280
    146329.758 7  21456821.400        -508.611
    800986.797 6  21273998.166       -3264.340
    -19926.372 7  21870711.836          76.042
    733164.679 7  20785303.957       -2502.834
   -407945.091 6  23581598.974        1671.558
   1485801.070 5  24159621.303       -5676.944
 98  9 30 16  5 10.0000000  0  6G21G17G03G23G01G06                   0.000314311
    151410.892 7  21457792.205        -507.735
    833626.600 6  21280207.996       -3263.721
    -20678.283 7  21870567.388          74.527
    758188.704 7  20790068.559       -2502.194
   -424671.645 5  23578412.381        1674.417
   1542556.847 6  24170415.650       -5674.455
 98  9 30 16  5 20.0000000  0  6G21G17G03G23G01G06                   0.000326386
    156487.873 7  21458753.496        -507.387
    866263.698 6  21286421.762       -3263.419
    -21411.430 7  21870427.520          72.710
    783209.424 7  20794832.159       -2501.817
   -441418.326 6  23575215.632        1676.093
   1599288.811 6  24181213.861       -5671.693
 98  9 30 16  5 30.0000000  0  6G21G17G03G23G01G06                   0.000338426
    161562.174 7  21459716.576        -507.353
    898898.936 6  21292627.873       -3263.332
    -22124.180 7  21870291.588          70.421
    808229.809 7  20799592.328       -2502.106
   -458182.943 6  23572028.113        1677.283
   1655998.342 6  24192006.994       -5670.061
 98  9 30 16  5 40.0000000  0  6G21G17G03G23G01G06                   0.000350395
    166631.663 7  21460688.169        -506.940
    931529.998 6  21298838.849       -3262.935
    -22818.308 7  21870160.807          68.575
    833247.759 7  20804351.708       -2501.926
   -474967.632 6  23568839.232        1679.575
   1712683.055 6  24202783.240       -5667.203
 98  9 30 16  5 50.0000000  0  6G21G17G03G23G01G06                   0.000362414
    171699.038 7  21461648.100        -506.474
    964159.782 6  21305047.250       -3263.072
    -23490.850 7  21870035.106          66.435
    858265.166 7  20809113.019       -2501.666
   -491769.377 6  23565646.562        1680.986
   1769345.047 5  24213568.717       -5665.190
 98  9 30 16  6  0.0000000  0  7G21G17G03G23G01G06G22                0.000374492
    176765.705 7  21462613.041        -506.696
    996790.101 6  21311259.872       -3263.281
    -24139.979 7  21869906.044          63.817
    883284.199 7  20813870.111       -2502.242
   -508587.336 6  23562448.525        1682.472
   1825986.221 5  24224344.822       -5663.304
     37758.31915  24807871.876       -4240.300
 98  9 30 16  6 10.0000000  0  7G21G17G03G23G01G06G22                0.000386419
    181832.407 7  21463575.119        -506.566
   1029422.662 6  21317470.420       -3263.448
    -24763.355 7  21869792.292          61.110
    908305.696 7  20818638.578       -2502.289
   -525421.221 6  23559245.551        1684.567
   1882607.805 5  24235115.130       -5661.018
     80151.652 5  24815932.525       -4238.377
 98  9 30 16  6 20.0000000  0  7G21G17G03G23G01G06G22                0.000398354
    186897.731 7  21464539.415        -506.279
   1062056.656 6  21323680.895       -3263.306
    -25360.473 7  21869679.184          58.688
    933329.431 7  20823401.393       -2502.443
   -542271.400 6  23556039.644        1686.235
   1939209.457 5  24245885.154       -5659.360
    122527.583 5  24824000.544       -4236.476
 98  9 30 16  6 30.0000000  0  7G21G17G03G23G01G06G22                0.000410238
    191964.858 7  21465508.793        -506.882
   1094693.994 6  21329886.794       -3264.117
    -25928.055 7  21869572.016          55.432
    958359.990 7  20828163.137       -2503.418
   -559133.126 6  23552829.733        1686.848
   1995795.319 5  24256654.249       -5658.191
    164890.934 5  24832059.408       -4235.875
 98  9 30 16  6 40.0000000  0  7G21G17G03G23G01G06G22                0.000422190
    197036.419 7  21466467.581        -507.274
   1127335.853 6  21336103.566       -3264.337
    -26464.423 7  21869466.494          52.388
    983400.049 7  20832924.738       -2504.514
   -576003.814 6  23549613.453        1687.708
   2052368.474 6  24267429.068       -5656.741
    207244.536 4  24840119.774       -4235.002
 98  9 30 16  6 50.0000000  0  7G21G17G03G23G01G06G22                0.000434085
    202112.176 7  21467435.456        -507.867
   1159981.619 6  21342313.542       -3264.731
    -26971.849 7  21869374.420          49.718
   1008448.936 7  20837691.704       -2505.188
   -592885.020 5  23546402.253        1688.768
   2108927.138 6  24278194.799       -5655.328
    249587.199 4  24848181.570       -4233.711
 98  9 30 16  7  0.0000000  0  7G21G17G03G23G01G06G22                0.000445936
    207192.201 7  21468404.118        -508.231
   1192632.228 6  21348521.730       -3265.559
    -27450.729 7  21869280.704          46.271
   1033506.380 7  20842462.679       -2506.856
   -609778.439 5  23543185.043        1689.957
   2165471.510 6  24288961.104       -5654.124
    291919.385 4  24856236.498       -4232.957
 98  9 30 16  7 10.0000000  0  7G21G17G03G23G01G06G22                0.000457783
    212276.344 7  21469373.853        -508.772
   1225288.321 6  21354740.935       -3265.984
    -27899.927 7  21869193.640          43.253
   1058571.931 7  20847231.147       -2507.220
   -626684.914 5  23539968.762        1691.455
   2222001.982 6  24299717.104       -5652.164
    334241.461 5  24864288.564       -4231.718
 98  9 30 16  7 20.0000000  0  7G21G17G03G23G01G06G22                0.000469686
    217372.063 7  21470332.573        -510.202
   1257958.339 6  21360958.570       -3267.685
    -28311.482 7  21869115.593          39.282
   1083653.846 7  20852003.267       -2508.958
   -643595.436 6  23536749.409        1691.176
   2278527.126 6  24310476.473       -5652.582
    376561.681 4  24872347.286       -4231.458
 98  9 30 16  7 30.0000000  0  7G21G17G03G23G01G06G22                0.000481504
    222478.981 7  21471310.609        -511.295
   1290642.052 6  21367178.064       -3269.151
    -28686.492 7  21869043.770          35.776
   1108751.211 7  20856778.749       -2510.480
   -660510.350 5  23533534.060        1691.913
   2335047.298 6  24321233.978       -5651.591
    418880.29115  24880401.216       -4231.985
 98  9 30 16  7 40.0000000  0  6G21G17G03G23G01G06                   0.000493315
    227595.410 7  21472285.282        -512.206
   1323336.273 6  21373398.486       -3269.928
    -29027.461 6  21868980.245          32.442
   1133862.458 7  20861562.029       -2512.082
   -677432.431 5  23530310.771        1692.346
   2391560.666 5  24331986.835       -5651.524
 98  9 30 16  7 50.0000000  0  6G21G17G03G23G01G06                   0.000505131
    232722.416 7  21473262.246        -513.921
   1356041.233 7  21379623.847       -3271.648
    -29332.682 7  21868920.586          28.357
   1158988.158 7  20866339.158       -2513.869
   -694360.456 5  23527092.918        1693.063
   2448067.922 5  24342738.046       -5651.096
 98  9 30 16  8  0.0000000  0  6G21G17G03G23G01G06                   0.000516979
    237866.142 7  21474237.207        -515.579
   1388763.298 6  21385847.850       -3273.387
    -29597.053 7  21868875.093          24.234
   1184132.718 7  20871126.804       -2515.849
   -711288.902 5  23523874.709        1692.894
   2504573.590 5  24353491.976       -5650.876
 98  9 30 16  8 10.0000000  0  6G21G17G03G23G01G06                   0.000528736
    243029.405 7  21475221.540        -517.107
   1421505.401 6  21392079.578       -3274.966
    -29818.461 7  21868827.023          20.508
   1209299.334 7  20875916.165       -2517.322
   -728215.868 5  23520649.774        1693.449
   2561080.676 5  24364239.036       -5650.232
 98  9 30 16  8 20.0000000  0  6G21G17G03G23G01G06                   0.000540512
    248208.153 7  21476209.451        -519.125
   1454262.350 7  21398316.387       -3276.759
    -30001.640 7  21868792.548          16.293
   1234484.045 7  20880705.673       -2519.824
   -745146.259 5  23517423.911        1693.074
   2617585.007 5  24374979.661       -5651.001
 98  9 30 16  8 30.0000000  0  6G21G17G03G23G01G06                   0.000552321
    253410.440 7  21477193.643        -521.275
   1487040.563 6  21404551.695       -3279.037
    -30139.441 7  21868765.158          11.542
   1259693.800 7  20885498.328       -2522.220
   -762072.223 5  23514206.276        1692.355
   2674094.063 5  24385731.875       -5651.408
 98  9 30 16  8 40.0000000  0  6G21G17G03G23G01G06                   0.000564064
    258634.775 7  21478189.497        -523.567
   1519837.287 6  21410789.147       -3280.618
    -30235.264 7  21868750.071           7.661
   1284925.766 7  20890302.144       -2524.275
   -778996.386 5  23510988.210        1692.433
   2730604.916 5  24396471.352       -5650.908
 98  9 30 16  8 50.0000000  0  6G21G17G03G23G01G06                   0.000575812
    263882.649 7  21479189.000        -526.102
   1552654.434 6  21417035.902       -3282.693
    -30288.135 7  21868741.783           3.287
   1310179.596 7  20895110.896       -2526.450
   -795919.051 5  23507765.493        1692.474
   2787117.621 5  24407214.409       -5651.599
 98  9 30 16  9  0.0000000  0  6G21G17G03G23G01G06                   0.000587612
    269154.182 7  21480196.660        -528.703
   1585493.864 6  21423286.592       -3285.138
    -30296.977 7  21868740.078          -1.614
   1335454.560 7  20899920.508       -2528.851
   -812840.931 5  23504546.284        1691.978
   2843631.766 5  24417980.287       -5651.526
 98  9 30 16  9 10.0000000  0  6G21G17G03G23G01G06                   0.000599402
    274452.648 7  21481204.104        -530.818
   1618359.151 6  21429542.864       -3287.691
    -30257.778 7  21868746.672          -6.487
   1360753.089 7  20904731.048       -2530.779
   -829757.933 5  23501327.146        1691.663
   2900151.617 5  24428738.082       -5652.031
 98  9 30 16  9 20.0000000  0  6G21G17G03G23G01G06                   0.000611217
    279775.588 7  21482211.049        -533.794
   1651247.999 6  21435796.130       -3290.356
    -30171.224 7  21868760.922         -11.266
   1386072.671 7  20909551.392       -2533.243
   -846669.915 6  23498110.513        1690.741
   2956675.970 5  24439509.830       -5653.058
 98  9 30 16  9 30.0000000  0  6G21G17G03G23G01G06                   0.000623005
    285129.648 7  21483231.874        -536.642
   1684166.677 6  21442062.131       -3292.749
    -30031.359 6  21868786.905         -16.292
   1411419.588 7  20914374.597       -2535.600
   -863568.932 6  23494890.948        1689.713
   3013211.386 5  24450273.134       -5653.642
 98  9 30 16  9 40.0000000  0  6G21G17G03G23G01G06                   0.000634754
    290508.094 7  21484255.776        -539.632
   1717107.008 6  21448326.703       -3295.584
    -29846.682 7  21868825.481         -21.223
   1436784.331 7  20919203.168       -2537.941
   -880462.836 6  23491675.102        1688.852
   3069749.296 5  24461022.201       -5654.547
 98  9 30 16  9 50.0000000  0  7G21G17G03G26G23G01G06                0.000646454
    295916.767 7  21485281.823        -542.303
   1750073.066 6  21454604.437       -3297.856
    -29612.777 7  21868870.280         -25.877
     63788.009 6  24046214.993       -4915.482
   1462172.074 7  20924033.742       -2539.958
   -897347.488 6  23488466.840        1688.005
   3126292.478 5  24471794.948       -5654.308
 98  9 30 16 10  0.0000000  0  7G21G17G03G26G23G01G06                0.000658170
    301356.025 7  21486325.115        -545.906
   1783064.819 6  21460883.318       -3300.652
    -29329.207 6  21868919.803         -31.319
    112956.650 6  24055566.988       -4918.672
   1487582.846 7  20928869.326       -2542.726
   -914221.532 6  23485258.150        1686.659
   3182839.536 5  24482553.031       -5655.501
 98  9 30 16 10 10.0000000  0  7G21G17G03G26G23G01G06                0.000669931
    306828.938 7  21487362.681        -548.557
   1816086.539 6  21467164.559       -3303.442
    -28993.819 6  21868988.070         -35.931
    162158.834 6  24064932.147       -4921.617
   1513019.175 7  20933706.696       -2544.585
   -931082.265 6  23482047.956        1685.851
   3239392.368 6  24493317.907       -5655.457
 98  9 30 16 10 20.0000000  0  7G21G17G03G26G23G01G06                0.000681651
    312331.322 7  21488410.337        -551.898
   1849135.059 6  21473454.172       -3306.465
    -28609.238 7  21869057.553         -41.078
    211391.565 6  24074297.307       -4925.162
   1538478.388 7  20938550.078       -2547.362
   -947933.306 6  23478842.343        1684.676
   3295948.845 6  24504079.781       -5656.152
 98  9 30 16 10 30.0000000  0  7G21G17G03G26G23G01G06                0.000693401
    317864.007 7  21489464.072        -554.410
   1882210.918 6  21479749.435       -3308.572
    -28173.061 6  21869141.489         -45.927
    260656.524 6  24083678.563       -4927.663
   1563962.494 7  20943400.612       -2549.152
   -964771.733 6  23475641.522        1683.636
   3352510.359 6  24514843.155       -5656.003
 98  9 30 16 10 40.0000000  0  7G21G17G03G26G23G01G06                0.000705130
    323429.566 7  21490522.748        -558.672
   1915316.296 7  21486048.494       -3312.471
    -27682.352 7  21869237.090         -52.412
    309955.693 6  24093057.963       -4932.092
   1589472.388 7  20948255.302       -2552.954
   -981593.345 6  23472436.055        1680.984
   3409078.200 6  24525608.108       -5657.729
 98  9 30 16 10 50.0000000  0  7G21G17G03G26G23G01G06                0.000716834
    329030.023 7  21491585.856        -561.383
   1948453.783 6  21492354.990       -3314.995
    -27135.049 7  21869336.265         -57.285
    359292.601 6  24102439.077       -4935.310
   1615010.172 7  20953118.929       -2554.912
   -998395.156 6  23469244.035        1679.626
   3465653.928 6  24536371.839       -5657.561
 98  9 30 16 11  0.0000000  0  7G21G17G03G26G23G01G06                0.000728572
    334661.820 7  21492661.774        -565.329
   1981620.821 6  21498664.066       -3318.724
    -26534.078 6  21869452.972         -63.391
    408664.420 6  24111837.652       -4939.778
   1640573.798 7  20957984.135       -2558.340
  -1015179.162 6  23466040.786        1677.094
   3522234.820 5  24547134.716       -5658.983
 98  9 30 16 11 10.0000000  0  7G21G17G03G26G23G01G06                0.000740317
    340324.769 7  21493737.117        -568.098
   2014818.404 7  21504983.011       -3321.385
    -25878.932 7  21869582.411         -68.428
    458072.400 6  24121237.868       -4942.638
   1666165.604 7  20962850.983       -2560.782
  -1031942.985 6  23462849.984        1675.166
   3578822.513 5  24557904.960       -5659.244
 98  9 30 16 11 20.0000000  0  7G21G17G03G26G23G01G06                0.000752033
    346018.769 7  21494817.755        -571.144
   2048045.935 6  21511307.969       -3324.678
    -25170.034 6  21869713.926         -74.051
    507515.846 6  24130639.374       -4946.375
   1691786.114 7  20967725.560       -2563.968
  -1048685.911 6  23459668.482        1673.314
   3635417.351 5  24568674.132       -5660.103
 98  9 30 16 11 30.0000000  0  7G21G17G03G26G23G01G06                0.000763761
    351746.506 7  21495912.345        -574.602
   2081305.770 6  21517638.435       -3328.058
    -24404.319 6  21869858.391         -79.628
    556996.240 6  24140055.047       -4950.179
   1717439.784 7  20972610.083       -2567.365
  -1065404.699 6  23456485.910        1670.601
   3692022.691 5  24579442.946       -5660.983
 98  9 30 16 11 40.0000000  0  7G21G17G03G26G23G01G06                0.000775506
    357506.316 7  21497009.796        -577.562
   2114596.458 6  21523974.194       -3330.701
    -23583.954 6  21870015.304         -84.785
    606511.245 5  24149478.158       -4953.023
   1743125.908 7  20977494.604       -2570.215
  -1082101.219 6  23453305.411        1668.735
   3748636.141 5  24590216.909       -5661.079
 98  9 30 16 11 50.0000000  0  7G21G17G03G26G23G01G06                0.000787270
    363299.737 7  21498108.250        -581.497
   2147919.323 6  21530306.593       -3334.151
    -22707.907 7  21870186.600         -90.913
    656062.617 6  24158912.647       -4956.932
   1768846.732 7  20982388.931       -2574.394
  -1098774.144 6  23450136.074        1666.156
   3805258.116 5  24600980.217       -5663.080
 98  9 30 16 12  0.0000000  0  7G21G17G03G26G23G01G06                0.000799022
    369126.741 7  21499220.512        -584.618
   2181275.404 6  21536655.161       -3337.709
    -21774.205 7  21870361.616         -96.532
    705650.719 6  24168351.645       -4961.081
   1794605.109 7  20987293.344       -2578.152
  -1115422.772 6  23446968.812        1663.603
   3861889.695 5  24611767.132       -5663.817
 98  9 30 16 12 10.0000000  0  7G21G17G03G26G23G01G06                0.000810755
    374985.699 7  21500332.916        -587.555
   2214665.422 7  21543009.379       -3340.614
    -20781.720 7  21870547.650        -102.328
    755275.064 5  24177795.147       -4964.322
   1820402.142 7  20992204.339       -2581.543
  -1132046.907 6  23443803.911        1661.259
   3918531.621 5  24622545.389       -5664.612
 98  9 30 16 12 20.0000000  0  7G21G17G03G26G23G01G06                0.000822475
    380876.672 7  21501457.697        -590.433
   2248091.749 6  21549373.044       -3344.341
    -19728.505 7  21870746.490        -108.083
    804937.463 5  24187235.431       -4967.891
   1846238.571 7  20997121.345       -2585.422
  -1148645.171 6  23440645.235        1658.636
   3975186.603 6  24633333.450       -5665.887
 98  9 30 16 12 30.0000000  0  7G21G17G03G26G23G01G06                0.000834239
    386799.566 7  21502580.477        -594.162
   2281555.229 6  21555745.224       -3348.483
    -18613.308 7  21870960.931        -115.100
    854639.629 5  24196696.966       -4972.446
   1872115.245 7  21002040.642       -2590.056
  -1165217.738 6  23437490.351        1655.640
   4031856.020 6  24644120.583       -5667.792
 98  9 30 16 12 40.0000000  0  6G21G17G03G26G23G01                   0.000845954
    392753.314 7  21503715.060        -596.979
   2315053.777 6  21562117.044       -3351.703
    -17437.865 7  21871184.812        -120.604
    904380.757 5  24206153.134       -4976.242
   1898031.332 7  21006974.174       -2593.672
  -1181765.239 6  23434340.045        1653.656
 98  9 30 16 12 50.0000000  0  6G21G17G03G26G23G01                   0.000857744
    398742.267 7  21504852.150        -601.183
   2348590.865 6  21568496.379       -3356.119
    -16199.822 7  21871423.578        -127.577
    954162.660 5  24215632.484       -4980.911
   1923989.437 7  21011913.648       -2598.544
  -1198284.176 6  23431198.328        1649.863
 98  9 30 16 13  0.0000000  0  6G21G17G03G26G23G01                   0.000869529
    404767.087 7  21506002.044        -604.210
   2382168.138 6  21574885.728       -3359.547
    -14898.532 7  21871667.993        -133.260
   1003986.301 5  24225122.994       -4984.634
   1949991.330 7  21016863.707       -2602.290
  -1214774.593 6  23428060.971        1647.868
 98  9 30 16 13 10.0000000  0  6G21G17G03G26G23G01                   0.000881287
    410822.308 7  21507149.792        -607.249
   2415780.674 6  21581285.523       -3363.324
    -13538.437 7  21871927.505        -139.293
   1053846.386 5  24234613.073       -4988.242
   1976033.219 7  21021818.704       -2606.340
  -1231241.984 6  23424922.327        1645.543
 98  9 30 16 13 20.0000000  0  6G21G17G03G26G23G01                   0.000893059
    416912.865 7  21508316.071        -610.838
   2449434.115 6  21587690.828       -3367.183
    -12114.696 6  21872197.463        -145.638
   1103746.787 5  24244108.807       -4992.294
   2002119.450 7  21026781.716       -2610.934
  -1247681.843 6  23421797.206        1642.645
 98  9 30 16 13 30.0000000  0  6G21G17G03G26G23G01                   0.000904832
    423038.510 7  21509479.846        -614.000
   2483127.349 6  21594099.925       -3371.068
    -10627.293 6  21872481.802        -151.526
   1153686.187 5  24253611.121       -4995.863
   2028248.198 7  21031754.742       -2614.561
  -1264095.789 6  23418675.518        1640.511
 98  9 30 16 13 40.0000000  0  6G21G17G03G26G23G01                   0.000916593
    429197.541 7  21510649.130        -617.383
   2516858.086 6  21600516.891       -3374.716
     -9077.955 6  21872772.795        -158.105
   1203662.526 4  24263123.237       -4999.765
   2054416.455 7  21036734.494       -2618.805
  -1280486.823 6  23415551.112        1638.045
 98  9 30 16 13 50.0000000  0  6G21G17G03G26G23G01                   0.000928359
    435391.851 7  21511830.506        -621.230
   2550628.660 6  21606944.305       -3379.089
     -7464.649 6  21873080.602        -164.648
   1253678.347 5  24272637.144       -5004.301
   2080625.013 7  21041723.046       -2622.913
  -1296852.789 6  23412440.156        1635.757
 98  9 30 16 14  0.0000000  0  6G21G17G03G26G23G01                   0.000940195
    441620.200 7  21513013.742        -624.585
   2584437.854 6  21613380.661       -3383.012
     -5788.770 6  21873398.782        -170.746
   1303733.001 5  24282182.243       -5008.070
   2106871.794 7  21046716.821       -2626.698
  -1313195.673 6  23409332.563        1633.432
 98  9 30 16 14 10.0000000  0  5G21G17G03G23G01                      0.000951997
    447883.844 7  21514207.710        -628.192
   2618287.336 6  21619817.232       -3387.189
     -4048.051 6  21873732.990        -177.423
   2133157.810 7  21051718.823       -2630.490
  -1329515.072 6  23406226.545        1631.000
 98  9 30 16 14 20.0000000  0  5G21G17G03G23G01                      0.000963805
    454184.694 7  21515403.897        -632.542
   2652178.536 6  21626266.825       -3391.531
     -2240.862 6  21874076.857        -184.271
   2159483.044 7  21056726.979       -2634.612
  -1345809.327 6  23403127.467        1627.953
 98  9 30 16 14 30.0000000  0  5G21G17G03G23G01                      0.000975632
    460523.193 7  21516608.811        -635.713
   2686110.652 6  21632726.360       -3394.975
      -368.529 7  21874435.532        -190.370
   2185844.504 7  21061744.362       -2637.773
  -1362078.055 6  23400034.182        1626.045
 98  9 30 16 14 40.0000000  0  6G21G17G03G23G01G22                   0.000987310
    466899.226 7  21517823.957        -639.790
   2720082.021 6  21639187.472       -3399.338
      1566.420 7  21874802.793        -196.919
   2212241.199 7  21066768.258       -2641.849
  -1378322.510 6  23396940.757        1622.986
     39662.59015  25227854.690       -4273.285
 98  9 30 16 14 50.0000000  0  6G21G17G03G23G01G22                   0.000999077
    473317.559 7  21519046.331        -644.034
   2754096.137 6  21645657.169       -3403.482
      3567.233 7  21875185.938        -203.419
   2238676.728 7  21071797.089       -2645.470
  -1394537.792 6  23393856.060        1620.293
     82403.331 5  25235980.240       -4274.585
 98  9 30 16 15  0.0000000  0  6G21G17G03G23G01G22                   0.000010893
  -1095640.619 7  21220483.649        -647.891
   1212736.651 6  21352342.595       -3407.613
  -1569785.629 7  21575783.205        -209.866
    689733.794 7  20777040.373       -2649.268
  -2986144.706 6  23090979.242        1617.445
  -1450256.575 5  24944328.473       -4275.792
 98  9 30 16 15 10.0000000  0  5G21G17G03G23G01                      0.000022793
  -1089133.638 7  21221722.185        -653.052
   1246840.397 6  21358838.615       -3413.130
  -1567647.783 7  21576191.023        -217.448
    716250.841 7  20782089.518       -2654.091
  -3002296.521 6  23087901.910        1613.577
 98  9 30 16 15 20.0000000  0  5G21G17G03G23G01                      0.000034602
  -1082583.854 7  21222966.230        -657.387
   1280988.149 6  21365338.640       -3417.285
  -1565441.499 7  21576606.209        -224.353
    742807.509 7  20787143.170       -2657.845
  -3018417.970 6  23084837.027        1610.361
 98  9 30 16 15 30.0000000  0  5G21G17G03G23G01                      0.000046492
  -1075986.860 7  21224223.367        -662.100
   1315184.723 6  21371848.539       -3422.177
  -1563163.124 7  21577045.865        -231.538
    769406.721 7  20792204.120       -2662.146
  -3034505.146 6  23081778.082        1607.130
 98  9 30 16 15 40.0000000  0  5G21G17G03G23G01                      0.000058310
  -1069343.197 7  21225487.373        -666.730
   1349428.999 6  21378365.235       -3426.845
  -1560812.878 7  21577489.598        -238.632
    796047.887 7  20797274.585       -2666.042
  -3050558.111 6  23078725.218        1603.758
 98  9 30 16 15 50.0000000  0  6G21G17G03G23G01G31                   0.000070171
  -1062652.080 7  21226759.107        -671.962
   1383721.772 6  21384885.508       -3432.030
  -1558389.998 7  21577952.006        -246.263
    822731.439 7  20802349.702       -2670.801
  -3066575.828 6  23075673.857        1600.151
    -17815.853 5  24185458.481        1288.460
 98  9 30 16 16  0.0000000  0  6G21G17G03G23G01G31                   0.000082035
  -1055914.999 7  21228044.433        -676.180
   1418061.914 6  21391423.239       -3436.545
  -1555896.074 7  21578425.144        -253.012
    849456.728 7  20807433.188       -2674.805
  -3082559.204 6  23072635.875        1596.544
    -30679.751 5  24183020.413        1284.102
 98  9 30 16 16 10.0000000  0  6G21G17G03G23G01G31                   0.000093953
  -1049134.019 7  21229332.336        -680.717
   1452446.607 6  21397969.125       -3440.958
  -1553333.675 7  21578915.311        -259.894
    876221.486 7  20812527.693       -2678.484
  -3098510.703 6  23069604.690        1593.752
    -43501.734 5  24180568.750        1279.814
 98  9 30 16 16 20.0000000  0  6G21G17G03G23G01G31                   0.000105676
  -1042305.350 7  21230631.972        -685.518
   1486879.487 6  21404517.159       -3446.190
  -1550699.313 7  21579416.210        -267.412
    903029.647 7  20817630.569       -2683.145
  -3114426.984 6  23066573.720        1589.799
    -56277.267 5  24178137.980        1275.027
 98  9 30 16 16 30.0000000  0  6G21G17G03G23G01G31                   0.000117544
  -1035426.135 7  21231943.341        -690.179
   1521363.594 6  21411082.506       -3450.842
  -1547990.661 7  21579929.987        -274.455
    929883.549 7  20822743.104       -2687.685
  -3130304.212 6  23063548.831        1585.916
    -69005.357 5  24175707.209        1270.760
 98  9 30 16 16 40.0000000  0  6G21G17G03G23G01G31                   0.000129457
  -1028496.885 7  21233261.436        -695.499
   1555898.874 6  21417654.793       -3456.099
  -1545207.539 7  21580464.727        -282.146
    956784.274 7  20827862.293       -2692.572
  -3146141.205 6  23060540.183        1581.798
    -81685.537 5  24173291.535        1265.640
 98  9 30 16 16 50.0000000  0  6G21G17G03G23G01G31                   0.000141394
  -1021517.406 7  21234584.182        -700.491
   1590485.126 6  21424232.160       -3461.345
  -1542349.393 7  21581004.046        -289.769
    983733.550 7  20832990.424       -2697.310
  -3161938.490 5  23057528.316        1577.895
    -94316.698 5  24170894.678        1260.936
 98  9 30 16 17  0.0000000  0  6G21G17G03G23G01G31                   0.000153352
  -1014488.138 7  21235923.884        -705.550
   1625122.253 6  21430827.700       -3466.309
  -1539414.528 7  21581563.470        -297.517
   1010732.032 7  20838127.571       -2702.348
  -3177696.331 6  23054527.467        1573.544
   -106899.636 5  24168507.765        1256.039
 98  9 30 16 17 10.0000000  0  6G21G17G03G23G01G31                   0.000165253
  -1007407.048 7  21237273.602        -710.747
   1659811.494 6  21437423.240       -3471.515
  -1536399.397 7  21582133.125        -305.730
   1037782.060 7  20843275.665       -2707.741
  -3193412.539 5  23051529.909        1569.601
   -119432.070 5  24166114.914        1250.905
 98  9 30 16 17 20.0000000  0  6G21G17G03G23G01G31                   0.000177218
  -1000274.237 7  21238629.545        -716.002
   1694553.540 6  21444035.307       -3476.898
  -1533303.080 7  21582722.599        -313.977
   1064883.728 7  20848430.269       -2712.823
  -3209086.996 5  23048551.812        1565.364
   -131913.123 5  24163736.015        1245.688
 98  9 30 16 17 30.0000000  0  6G21G17G03G23G01G31                   0.000189212
   -993087.154 7  21239994.504        -722.086
   1729350.897 6  21450662.543       -3483.200
  -1530122.819 7  21583330.174        -322.620
   1092038.844 7  20853598.825       -2718.655
  -3224717.288 6  23045578.079        1560.139
   -144340.968 5  24161373.643        1239.890
 98  9 30 16 17 40.0000000  0  6G21G17G03G23G01G31                   0.000201198
   -985845.227 7  21241376.418        -726.717
   1764204.333 6  21457289.563       -3487.880
  -1526858.647 7  21583950.412        -330.553
   1119248.138 7  20858777.255       -2723.824
  -3240301.967 6  23042613.003        1556.560
   -156716.055 5  24159021.860        1235.219
 98  9 30 16 17 50.0000000  0  6G21G17G03G23G01G31                   0.000213204
   -978550.514 7  21242764.700        -732.195
   1799110.778 6  21463933.897       -3493.620
  -1523512.036 7  21584590.754        -338.898
   1146509.965 7  20863964.841       -2728.949
  -3255841.587 6  23039659.017        1551.747
   -169039.996 5  24156675.729        1229.660
 98  9 30 16 18  0.0000000  0  6G21G17G03G23G01G31                   0.000225226
   -971199.925 7  21244161.353        -737.994
   1834073.208 6  21470586.674       -3499.098
  -1520079.748 7  21585244.405        -347.675
   1173827.036 7  20869162.874       -2734.409
  -3271333.520 6  23036708.894        1546.873
   -181309.297 5  24154343.120        1224.278
 98  9 30 16 18 10.0000000  0  6G21G17G03G23G01G31                   0.000237277
   -963794.863 7  21245571.385        -743.471
   1869090.411 6  21477250.398       -3504.457
  -1516563.266 7  21585911.291        -355.937
   1201198.090 7  20874372.569       -2739.880
  -3286779.183 6  23033774.798        1542.154
   -193524.751 5  24152021.887        1218.945
 98  9 30 16 18 20.0000000  0  6G21G17G03G23G01G31                   0.000249328
   -956333.971 7  21246993.723        -749.020
   1904164.233 6  21483929.647       -3510.492
  -1512960.810 7  21586597.066        -364.697
   1228624.796 7  20879589.705       -2745.641
  -3302176.144 5  23030841.990        1536.974
   -205684.483 5  24149709.168        1213.216
 98  9 30 16 18 30.0000000  0  6G21G17G03G23G01G31                   0.000261375
   -948817.312 7  21248421.284        -754.826
   1939295.122 6  21490608.395       -3516.451
  -1509272.110 7  21587298.294        -373.524
   1256107.250 7  20884822.080       -2751.407
  -3317524.157 5  23027919.341        1532.399
   -217789.342 5  24147404.319        1207.391
 98  9 30 16 18 40.0000000  0  6G21G17G03G23G01G31                   0.000273444
   -941239.684 7  21249864.657        -760.945
   1974488.445 6  21497306.104       -3522.557
  -1505490.947 7  21588016.265        -382.913
   1283650.676 7  20890057.746       -2757.146
  -3332817.029 5  23025012.361        1526.987
   -229834.326 5  24145103.692        1201.616
 98  9 30 16 18 50.0000000  0  6G21G17G03G23G01G31                   0.000285566
   -933604.267 7  21251319.405        -766.522
   2009739.719 6  21504018.120       -3527.956
  -1501620.043 7  21588746.899        -391.370
   1311251.214 7  20895312.014       -2762.682
  -3348057.532 6  23022114.253        1521.634
   -241821.711 5  24142827.461        1196.284
 98  9 30 16 19  0.0000000  0  6G21G17G03G23G01G31                   0.000297682
   -925910.881 7  21252780.736        -772.574
   2045048.347 6  21510732.570       -3534.085
  -1497660.496 7  21589510.946        -400.739
   1338907.680 7  20900575.512       -2768.855
  -3363246.625 6  23019227.378        1516.080
   -253750.644 5  24140558.314        1189.584
 98  9 30 16 19 10.0000000  0  6G21G17G03G23G01G31                   0.000309821
   -918156.525 7  21254254.015        -778.674
   2080418.065 6  21517466.553       -3540.163
  -1493610.609 7  21590279.857        -409.468
   1366621.489 7  20905853.247       -2774.197
  -3378382.871 6  23016345.081        1511.301
   -265619.323 5  24138300.471        1184.065
 98  9 30 16 19 20.0000000  0  6G21G17G03G23G01G31                   0.000321984
   -910339.819 7  21255745.037        -784.795
   2115850.669 6  21524214.200       -3546.202
  -1489469.518 7  21591070.446        -418.570
   1394393.972 7  20911136.420       -2780.078
  -3393463.984 6  23013468.151        1505.258
   -277425.450 6  24136060.300        1177.612
 98  9 30 16 19 30.0000000  0  6G21G17G03G23G01G31                   0.000334170
   -902461.514 7  21257243.215        -791.331
   2151347.225 6  21530968.001       -3553.224
  -1485238.951 7  21591869.694        -428.070
   1422224.401 7  20916431.112       -2786.581
  -3408490.762 6  23010612.469        1499.731
   -289169.042 6  24133824.780        1171.080
 98  9 30 16 19 40.0000000  0  6G21G17G03G23G01G31                   0.000346345
   -894518.701 7  21258756.703        -797.444
   2186910.915 6  21537734.250       -3559.497
  -1480916.909 7  21592693.480        -436.581
   1450115.492 7  20921738.539       -2791.949
  -3423459.800 6  23007763.370        1494.519
   -300847.371 5  24131597.058        1165.045
 98  9 30 16 19 50.0000000  0  6G21G17G03G23G01G31                   0.000358558
   -886514.054 6  21260277.846        -803.822
   2222538.027 6  21544510.588       -3565.936
  -1476506.857 7  21593534.081        -445.543
   1478064.603 7  20927059.488       -2797.685
  -3438374.310 6  23004923.715        1488.661
   -312463.980 6  24129387.295        1158.504
 98  9 30 16 20  0.0000000  0  6G21G17G03G23G01G31                   0.000370792
   -878449.441 6  21261813.012        -809.601
   2258226.703 6  21551303.452       -3572.041
  -1472009.756 7  21594389.205        -454.321
   1506070.036 7  20932387.878       -2803.596
  -3453236.671 6  23002093.290        1483.412
   -324019.674 6  24127187.762        1152.525
 98  9 30 16 20 10.0000000  0  6G21G17G03G23G01G31                   0.000383050
   -870320.674 7  21263359.125        -816.130
   2293980.203 6  21558109.696       -3578.549
  -1467422.141 7  21595265.578        -463.531
   1534134.121 7  20937729.504       -2809.622
  -3468045.055 6  22999277.244        1478.360
   -335509.782 6  24124998.961        1145.767
 98  9 30 16 20 20.0000000  0  6G21G17G03G23G01G31                   0.000395332
   -862127.996 7  21264918.761        -822.630
   2329797.566 6  21564920.089       -3584.715
  -1462744.824 7  21596151.252        -472.079
   1562256.488 7  20943075.351       -2815.295
  -3482800.563 6  22996464.848        1473.126
   -346935.043 6  24122828.620        1139.194
 98  9 30 16 20 30.0000000  0  6G21G17G03G23G01G31                   0.000407618
   -853874.078 7  21266485.550        -828.928
   2365676.086 6  21571749.586       -3591.780
  -1457979.990 7  21597058.820        -481.422
   1590435.010 7  20948441.302       -2821.104
  -3497504.928 6  22993666.332        1467.650
   -358298.435 6  24120661.497        1133.032
 98  9 30 16 20 40.0000000  0  6G21G17G03G23G01G31                   0.000419918
   -845555.384 7  21268073.518        -835.124
   2401619.118 6  21578591.816       -3597.444
  -1453124.359 7  21597985.132        -489.856
   1618673.350 7  20953817.342       -2826.563
  -3512154.553 6  22990875.328        1462.637
   -369596.693 6  24118510.330        1126.854
 98  9 30 16 20 50.0000000  0  6G21G17G03G23G01G31                   0.000432261
   -837173.080 7  21269664.347        -841.283
   2437624.780 6  21585437.195       -3603.464
  -1448179.601 7  21598924.108        -498.694
   1646969.501 7  20959199.534       -2832.352
  -3526751.052 6  22988106.145        1457.431
   -380830.049 6  24116368.534        1120.702
 98  9 30 16 21  0.0000000  0  6G21G17G03G23G01G31                   0.000444637
   -828728.087 6  21271269.271        -848.073
   2473691.936 6  21592302.966       -3610.263
  -1443147.556 7  21599879.325        -507.983
   1675322.838 7  20964595.893       -2838.666
  -3541295.018 6  22985337.393        1451.889
   -391998.659 6  24114247.274        1113.594
 98  9 30 16 21 10.0000000  0  7G21G17G03G23G01G29G31                0.000457009
   -820219.177 7  21272890.078        -854.060
   2509823.362 6  21599178.322       -3616.359
  -1438027.349 7  21600858.009        -516.577
   1703735.728 7  20970001.338       -2844.229
  -3555784.845 6  22982576.152        1446.397
    -16433.37515  24371575.179        1705.725
   -403100.438 6  24112136.315        1107.054
 98  9 30 16 21 20.0000000  0  7G21G17G03G23G01G29G31                0.000469414
   -811647.539 7  21274527.555        -860.448
   2546019.982 6  21606069.491       -3623.018
  -1432818.617 7  21601846.351        -525.505
   1732208.903 7  20975421.736       -2850.380
  -3570221.456 6  22979830.437        1441.183
    -33469.202 6  24368330.144        1701.331
   -414136.126 6  24110038.664        1100.322
 98  9 30 16 21 30.0000000  0  7G21G17G03G23G01G29G31                0.000481841
   -803012.907 7  21276167.179        -866.980
   2582281.916 6  21612968.173       -3629.701
  -1427519.763 7  21602853.439        -534.595
   1760743.383 7  20980846.356       -2856.938
  -3584603.822 6  22977093.021        1435.289
    -50464.342 6  24365093.765        1697.282
   -425105.495 6  24107950.243        1093.390
 98  9 30 16 21 40.0000000  0  7G21G17G03G23G01G29G31                0.000494229
   -794314.593 7  21277816.819        -873.299
   2618609.019 6  21619881.735       -3636.134
  -1422130.169 7  21603882.062        -543.874
   1789340.874 7  20986291.938       -2862.988
  -3598930.947 6  22974362.116        1430.202
    -67418.616 6  24361865.257        1693.668
   -436007.626 6  24105872.839        1086.922
 98  9 30 16 21 50.0000000  0  8G21G17G03G26G23G01G29G31             0.000506688
   -785552.696 7  21279490.426        -879.037
   2654999.726 6  21626804.598       -3641.899
  -1416649.397 7  21604924.565        -552.240
     25580.48415  24440712.267       -5260.187
   1818001.007 7  20991746.750       -2868.788
  -3613202.917 6  22971649.383        1425.107
    -84332.769 6  24358644.689        1689.993
   -446843.119 6  24103807.813        1080.852
 98  9 30 16 22  0.0000000  0  8G21G17G03G26G23G01G29G31             0.000519190
   -776729.297 7  21281170.259        -885.550
   2691450.842 6  21633744.490       -3648.398
  -1411079.066 7  21605984.168        -561.711
     78216.352 5  24450721.123       -5266.716
   1846720.842 7  20997209.646       -2875.134
  -3627422.473 6  22968949.815        1419.504
   -101209.323 6  24355436.715        1685.983
   -457613.579 6  24101769.903        1073.723
 98  9 30 16 22 10.0000000  0  8G21G17G03G26G23G01G29G31             0.000531691
   -767843.428 7  21282860.251        -891.962
   2727964.050 6  21640690.320       -3654.735
  -1405417.577 7  21607063.016        -570.901
    130912.621 6  24460741.425       -5272.694
   1875500.916 7  21002685.922       -2881.305
  -3641587.959 6  22966255.255        1414.003
   -118047.782 6  24352231.960        1681.892
   -468317.362 6  24099734.998        1067.212
 98  9 30 16 22 20.0000000  0  8G21G17G03G26G23G01G29G31             0.000544211
   -758894.916 7  21284561.046        -897.987
   2764539.759 6  21647650.173       -3661.020
  -1399665.489 7  21608157.963        -579.877
    183668.733 5  24470779.471       -5279.053
   1904340.944 7  21008176.292       -2887.189
  -3655698.370 6  22963570.569        1408.597
   -134848.998 6  24349036.076        1678.520
   -478953.634 6  24097704.242        1060.315
 98  9 30 16 22 30.0000000  0  8G21G17G03G26G23G01G29G31             0.000556768
   -749882.659 7  21286276.723        -904.572
   2801180.558 6  21654622.188       -3667.445
  -1393821.114 7  21609267.576        -589.287
    236486.822 5  24480836.477       -5285.034
   1933243.607 7  21013676.035       -2893.726
  -3669750.650 6  22960888.601        1402.330
   -151611.187 6  24345844.485        1674.490
   -489520.887 6  24095696.597        1053.136
 98  9 30 16 22 40.0000000  0  8G21G17G03G26G23G01G29G31             0.000569343
   -740810.263 7  21288001.773        -910.509
   2837883.823 6  21661607.440       -3673.517
  -1387887.758 7  21610398.510        -597.806
    289363.856 6  24490898.204       -5290.654
   1962206.470 7  21019183.933       -2899.313
  -3683747.067 6  22958228.956        1396.944
   -168337.033 6  24342661.480        1670.677
   -500023.243 6  24093698.823        1047.215
 98  9 30 16 22 50.0000000  0  8G21G17G03G26G23G01G29G31             0.000581917
   -731675.590 7  21289744.351        -916.592
   2874652.896 6  21668605.570       -3680.646
  -1381863.563 7  21611538.673        -607.167
    342301.269 5  24500971.594       -5297.006
   1991231.808 7  21024711.579       -2906.009
  -3697685.466 6  22955575.249        1390.927
   -185024.229 6  24339482.767        1666.821
   -510457.350 6  24091707.776        1039.975
 98  9 30 16 23  0.0000000  0  8G21G17G03G26G23G01G29G31             0.000594533
   -722478.015 7  21291493.797        -922.873
   2911488.496 6  21675612.572       -3686.896
  -1375747.009 7  21612708.600        -616.284
    395300.030 5  24511057.147       -5303.006
   2020319.991 7  21030244.305       -2911.743
  -3711565.771 6  22952936.710        1385.286
   -201673.037 6  24336318.006        1663.029
   -520822.282 6  24089732.397        1033.273
 98  9 30 16 23 10.0000000  0  8G21G17G03G26G23G01G29G31             0.000607174
   -713218.668 7  21293253.403        -929.234
   2948390.320 6  21682632.452       -3693.907
  -1369538.116 7  21613891.977        -625.856
    448359.289 6  24521150.069       -5309.212
   2049470.165 7  21035792.985       -2918.608
  -3725389.572 6  22950300.961        1379.396
   -218284.858 6  24333162.617        1659.120
   -531119.570 6  24087780.700        1026.227
 98  9 30 16 23 20.0000000  0  8G21G17G03G26G23G01G29G31             0.000619831
   -703898.716 6  21295024.886        -935.010
   2985357.431 6  21689673.652       -3699.850
  -1363236.668 7  21615088.876        -634.636
    501477.074 5  24531259.660       -5314.532
   2078681.151 7  21041349.535       -2924.126
  -3739158.566 6  22947683.599        1374.475
   -234861.701 5  24330004.724        1656.212
   -541350.941 6  24085836.014        1020.193
 98  9 30 16 23 30.0000000  0  8G21G17G03G26G23G01G29G31             0.000632507
   -694518.485 7  21296811.035        -941.061
   3022388.702 6  21696721.507       -3706.274
  -1356841.962 7  21616306.882        -644.164
    554650.443 5  24541382.488       -5320.253
   2107951.677 7  21046918.892       -2930.013
  -3752873.649 6  22945079.974        1368.929
   -251404.430 5  24326857.205        1653.006
   -551517.551 6  24083899.199        1013.647
 98  9 30 16 23 40.0000000  0  8G21G17G03G26G23G01G29G31             0.000645194
   -685075.679 7  21298608.274        -947.063
   3059484.868 6  21703777.303       -3712.395
  -1350351.803 7  21617542.631        -653.708
    607879.805 5  24551514.258       -5325.250
   2137283.197 7  21052501.699       -2935.768
  -3766532.758 6  22942479.712        1363.889
   -267911.608 5  24323720.633        1649.345
   -561618.416 6  24081970.753        1007.410
 98  9 30 16 23 50.0000000  0  8G21G17G03G26G23G01G29G31             0.000657886
   -675569.113 7  21300422.399        -953.848
   3096645.962 6  21710841.184       -3719.745
  -1343766.018 7  21618792.189        -663.620
    661166.560 5  24561652.254       -5331.871
   2166675.925 7  21058094.952       -2942.360
  -3780133.473 6  22939888.609        1357.022
   -284383.047 5  24320584.347        1645.471
   -571652.678 6  24080059.409        1000.142
 98  9 30 16 24  0.0000000  0  8G21G17G03G26G23G01G29G31             0.000670609
   -666001.340 7  21302238.598        -960.153
   3133871.351 6  21717928.890       -3726.155
  -1337085.925 7  21620065.356        -673.105
    714509.612 5  24571801.983       -5337.318
   2196126.907 7  21063697.578       -2948.326
  -3793676.544 6  22937313.030        1351.506
   -300819.591 5  24317449.635        1641.574
   -581622.569 6  24078167.524         993.707
 98  9 30 16 24 10.0000000  0  8G21G17G03G26G23G01G29G31             0.000683353
   -656373.142 7  21304065.743        -965.805
   3171161.715 6  21725029.187       -3732.402
  -1330311.533 7  21621348.039        -682.091
    767907.806 5  24581964.161       -5342.552
   2225634.305 7  21069314.656       -2953.610
  -3807162.706 6  22934747.825        1345.906
   -317220.797 5  24314327.515        1638.939
   -591528.899 6  24076282.292         987.857
 98  9 30 16 24 20.0000000  0  8G21G17G03G26G23G01G29G31             0.000696117
   -646685.613 7  21305910.632        -971.481
   3208517.392 6  21732134.207       -3739.015
  -1323444.262 7  21622661.415        -691.194
    821360.507 5  24592137.356       -5347.144
   2255197.751 7  21074943.037       -2959.131
  -3820592.554 6  22932190.848        1340.703
   -333586.061 5  24311216.055        1634.804
   -601373.417 6  24074412.658         981.786
 98  9 30 16 24 30.0000000  0  8G21G17G03G26G23G01G29G31             0.000708888
   -636937.519 7  21307771.833        -977.792
   3245940.865 6  21739258.330       -3745.897
  -1316482.816 7  21623982.233        -700.938
    874870.291 5  24602321.857       -5354.088
   2284820.828 7  21080578.288       -2965.616
  -3833964.340 6  22929645.390        1334.656
   -349911.861 5  24308104.954        1630.217
   -611155.236 6  24072550.393         974.847
 98  9 30 16 24 40.0000000  0  8G21G17G03G26G23G01G29G31             0.000721694
   -627132.489 7  21309635.395        -983.507
   3283428.634 6  21746395.259       -3752.110
  -1309429.960 7  21625328.806        -710.292
    928435.696 5  24612515.945       -5359.634
   2314501.099 7  21086223.555       -2971.129
  -3847282.138 6  22927113.383        1329.053
   -366200.556 5  24305013.528        1626.698
   -620878.676 6  24070696.284         969.536
 98  9 30 16 24 50.0000000  0  8G21G17G03G26G23G01G29G31             0.000734498
   -617267.596 7  21311512.336        -989.711
   3320982.757 6  21753538.913       -3758.739
  -1302283.651 7  21626685.253        -719.699
    982059.316 5  24622716.973       -5365.759
   2344241.380 7  21091884.848       -2977.130
  -3860544.075 6  22924589.389        1323.445
   -382449.079 5  24301920.313        1622.562
   -630541.848 6  24068856.627         962.927
 98  9 30 16 25  0.0000000  0  8G21G17G03G26G23G01G29G31             0.000747337
   -607342.981 7  21313396.432        -995.531
   3358602.038 6  21760699.023       -3765.297
  -1295044.998 7  21628066.312        -728.680
   1035740.226 5  24632941.109       -5371.487
   2374040.134 7  21097558.376       -2982.875
  -3873751.089 6  22922067.899        1317.972
   -398657.925 5  24298836.399        1618.430
   -640144.632 6  24067028.203         957.182
 98  9 30 16 25 10.0000000  0  8G21G17G03G26G23G01G29G31             0.000760159
   -597359.595 7  21315302.850       -1001.216
   3396285.094 6  21767866.002       -3771.846
  -1287713.256 7  21629456.457        -737.999
   1089478.633 5  24643148.218       -5376.637
   2403897.061 7  21103238.057       -2988.741
  -3886903.919 6  22919567.229        1312.370
   -414827.360 5  24295758.065        1614.740
   -649686.968 6  24065216.521         951.352
 98  9 30 16 25 20.0000000  0  8G21G17G03G26G23G01G29G31             0.000773034
   -587319.554 7  21317211.486       -1006.732
   3434029.562 6  21775050.508       -3777.495
  -1280290.315 7  21630872.573        -746.841
   1143271.309 5  24653389.453       -5381.467
   2433809.904 7  21108931.259       -2993.983
  -3900003.597 6  22917077.075        1307.324
   -430958.012 5  24292688.674        1611.334
   -659172.218 6  24063411.134         945.811
 98  9 30 16 25 30.0000000  0  8G21G17G03G26G23G01G29G31             0.000785890
   -577220.951 7  21319135.648       -1012.924
   3471837.436 6  21782243.673       -3784.319
  -1272775.130 7  21632301.281        -756.224
   1197119.877 5  24663627.471       -5388.098
   2463781.538 7  21114635.409       -3000.342
  -3913047.242 5  22914589.140        1301.620
   -447046.055 5  24289622.934        1606.326
   -668598.211 6  24061614.977         939.818
 98  9 30 16 25 40.0000000  0  8G21G17G03G26G23G01G29G31             0.000798819
   -567063.140 7  21321068.538       -1019.159
   3509709.026 6  21789448.213       -3790.544
  -1265167.971 6  21633748.949        -765.468
   1251024.839 5  24673890.028       -5393.626
   2493812.141 7  21120346.712       -3006.171
  -3926033.360 5  22912120.523        1295.364
   -463089.844 5  24286574.435        1601.892
   -677964.412 6  24059837.995         933.427
 98  9 30 16 25 50.0000000  0  8G21G17G03G26G23G01G29G31             0.000811739
   -556846.346 7  21323007.366       -1024.623
   3547644.199 6  21796668.779       -3797.108
  -1257470.867 7  21635216.793        -774.040
   1304986.707 5  24684157.235       -5398.637
   2523901.793 7  21126072.111       -3011.855
  -3938961.376 5  22909664.211        1290.279
   -479088.860 5  24283527.582        1597.826
   -687270.311 6  24058064.661         927.623
 98  9 30 16 26  0.0000000  0  8G21G17G03G26G23G01G29G31             0.000824691
   -546571.634 7  21324965.512       -1030.266
   3585641.734 6  21803902.009       -3802.844
  -1249686.401 6  21636695.440        -782.755
   1359005.596 5  24694435.532       -5404.433
   2554048.191 7  21131808.885       -3017.331
  -3951832.189 6  22907217.630        1284.148
   -495044.826 5  24280498.472        1593.639
   -696516.931 6  24056305.422         921.716
 98  9 30 16 26 10.0000000  0  8G21G17G03G26G23G01G29G31             0.000837671
   -536240.341 7  21326931.886       -1036.189
   3623700.910 6  21811148.546       -3809.059
  -1241815.388 6  21638190.185        -791.669
   1413081.031 5  24704740.158       -5410.608
   2584250.242 7  21137561.614       -3023.206
  -3964647.339 6  22904777.202        1278.830
   -510957.909 5  24277466.501        1589.238
   -705704.129 6  24054560.707         915.883
 98  9 30 16 26 20.0000000  0  8G21G17G03G26G23G01G29G31             0.000850635
   -525849.064 7  21328909.635       -1042.258
   3661823.834 6  21818401.666       -3815.524
  -1233855.158 6  21639705.106        -800.523
    418638.03214  24715028.543       -5416.327
   2614511.488 7  21143316.274       -3029.073
  -3977406.188 6  22902348.292        1273.195
   -526825.814 5  24274452.846        1584.453
   -714828.422 6  24052817.638         909.380
 98  9 30 16 26 30.0000000  0  8G21G17G03G26G23G01G29G31             0.000863633
   -515398.692 7  21330896.042       -1048.083
   3700006.888 6  21825666.662       -3821.396
  -1225809.107 6  21641241.419        -808.995
    472826.68114  24725334.529       -5422.012
   2644830.843 7  21149087.104       -3034.845
  -3990110.590 6  22899928.039        1267.711
   -542651.902 4  24271447.059        1580.852
   -723890.737 6  24051092.598         903.426
 98  9 30 16 26 40.0000000  0  7G21G17G03G26G23G01G31                0.000876698
   -504890.860 7  21332893.824       -1053.720
   3738247.891 6  21832944.107       -3827.164
  -1217678.614 6  21642781.380        -817.450
    527069.42614  24735655.180       -5426.691
   2675207.340 7  21154867.021       -3040.697
  -4002760.751 6  22897522.454        1262.349
   -732891.458 6  24049378.790         896.992
 98  9 30 16 26 50.0000000  0  7G21G17G03G26G23G01G31                0.000889727
   -494326.295 6  21334905.200       -1059.586
   3776545.256 6  21840226.989       -3832.910
  -1209463.290 6  21644347.600        -826.054
   -467212.01714  24745988.209       -5431.248
   2705638.527 7  21160658.742       -3046.095
  -4015357.678 6  22895124.523        1257.205
   -741829.790 6  24047680.080         890.604
 98  9 30 16 27  0.0000000  0  7G21G17G03G26G23G01G31                0.000902805
   -483703.705 7  21336928.238       -1065.414
   3814898.260 6  21847526.399       -3838.420
  -1201162.593 7  21645927.985        -834.386
   -412866.91014  24756334.618       -5436.937
   2736122.907 7  21166458.047       -3051.328
  -4027900.347 6  22892746.340        1251.726
   -750704.183 6  24045993.889         883.946
 98  9 30 16 27 10.0000000  0  6G21G17G03G23G01G31                   0.000915830
   -473024.699 7  21338962.294       -1071.027
   3853305.302 6  21854836.397       -3843.813
  -1192776.612 7  21647527.044        -843.187
   2766658.444 7  21172269.157       -3056.361
  -4040389.583 6  22890365.222        1246.420
   -759514.404 5  24044308.844         877.649
 98  9 30 16 27 20.0000000  0  7G21G17G03G26G23G01G31                0.000928931
   -462289.104 7  21341005.078       -1076.447
   3891767.614 6  21862160.203       -3848.947
  -1184303.200 7  21649140.125        -851.849
   -304031.61215  24777051.831       -5446.538
   2797245.311 7  21178089.854       -3061.476
  -4052823.967 6  22887997.056        1240.538
   -768259.245 5  24042647.265         871.173
 98  9 30 16 27 30.0000000  0  7G21G17G03G26G23G01G31                0.000942037
   -451494.824 7  21343059.955       -1082.498
   3930286.739 6  21869486.370       -3854.665
  -1175741.241 7  21650767.087        -860.620
   -249539.44314  24787430.865       -5451.537
   2827883.904 7  21183920.353       -3066.228
  -4065201.268 6  22885637.760        1235.178
   -776937.792 5  24040996.061         864.578
 98  9 30 16 27 40.0000000  0  7G21G17G03G26G23G01G31                0.000955132
   -440643.836 7  21345126.707       -1088.129
   3968860.347 6  21876824.629       -3859.998
  -1167094.405 7  21652410.075        -868.962
   -194999.09514  24797803.030       -5456.517
   2858570.798 7  21189760.725       -3071.007
  -4077523.990 6  22883292.917        1229.675
   -785551.115 5  24039351.009         858.517
 98  9 30 16 27 50.0000000  0  6G21G17G03G23G01G31                   0.000968220
   -429735.431 7  21347195.820       -1093.703
   4007488.882 6  21884166.394       -3865.773
  -1158361.779 7  21654074.169        -877.713
   2889305.498 7  21195608.108       -3075.999
  -4089792.173 6  22880956.445        1224.149
   -794097.495 6  24037731.071         851.706
 98  9 30 16 28  0.0000000  0  7G21G17G03G26G23G01G31                0.000981426
   -418768.822 7  21349287.972       -1099.518
   4046172.743 6  21891532.556       -3871.368
  -1149542.049 7  21655749.210        -886.325
    -85770.19914  24818585.779       -5466.100
   2920087.923 7  21201465.079       -3080.641
  -4102004.612 6  22878632.278        1218.564
   -802575.512 5  24036115.497         844.273
 98  9 30 16 28 10.0000000  0  7G21G17G03G26G23G01G31                0.000994609
   -407744.229 7  21351382.055       -1105.226
   4084912.719 6  21898906.516       -3876.454
  -1140633.874 7  21657448.361        -895.071
    -31081.12814  24828995.076       -5471.077
   2950917.976 7  21207334.570       -3084.976
  -4114162.402 6  22876320.632        1213.539
   -810985.297 6  24034515.377         837.730
 98  9 30 16 28 20.0000000  0  6G21G17G03G23G01G31                   0.000007772
  -1972081.212 7  21053701.850       -1111.128
   2548292.541 6  21606500.490       -3882.243
  -2707055.071 7  21359365.673        -904.332
   1406378.496 7  20913410.832       -3090.128
  -5701687.150 6  22574228.247        1207.466
  -2394748.138 5  23733140.956         830.937
 98  9 30 16 28 30.0000000  0  7G21G17G03G26G23G01G31                0.000021052
  -1960942.808 7  21055817.541       -1116.704
   2587145.404 6  21613890.406       -3887.964
  -2697966.950 7  21361098.096        -913.397
     78447.72314  24550050.946       -5481.438
   1437304.110 7  20919302.074       -3095.094
  -5713736.655 6  22571934.203        1202.261
  -2403022.388 6  23731569.885         824.382
 98  9 30 16 28 40.0000000  0  6G21G17G03G23G01G31                   0.000034225
  -1949747.442 7  21057952.692       -1122.601
   2626056.115 6  21621301.787       -3894.220
  -2688786.979 7  21362844.327        -922.903
   1468278.725 7  20925195.463       -3100.084
  -5725730.069 6  22569652.393        1196.429
  -2411228.077 5  23730009.832         816.953
 98  9 30 16 28 50.0000000  0  6G21G17G03G23G01G31                   0.000047484
  -1938498.085 7  21060091.063       -1127.406
   2665023.802 6  21628717.245       -3899.564
  -2679515.057 7  21364606.799        -931.914
   1499300.286 7  20931094.932       -3104.195
  -5737668.696 6  22567380.742        1191.396
  -2419367.601 6  23728460.152         810.841
 98  9 30 16 29  0.0000000  0  7G21G17G03G26G23G01G31                0.000060825
  -1927194.746 7  21062239.808       -1133.243
   2704049.624 6  21636138.069       -3905.710
  -2670149.346 7  21366395.242        -941.206
    243098.14115  24581388.020       -5496.294
   1530368.746 7  20937008.711       -3109.332
  -5749553.501 6  22565119.751        1186.072
  -2427441.092 6  23726923.710         803.836
 98  9 30 16 29 10.0000000  0  6G21G17G03G23G01G31                   0.000074030
  -1915835.690 7  21064401.074       -1138.644
   2743134.894 6  21643581.287       -3911.659
  -2660688.561 7  21368190.984        -951.010
   1561485.812 7  20942931.577       -3114.200
  -5761384.045 6  22562870.566        1180.334
  -2435448.359 6  23725395.064         797.691
 98  9 30 16 29 20.0000000  0  6G21G17G03G23G01G31                   0.000087323
  -1904422.630 7  21066575.861       -1143.962
   2782279.790 6  21651029.228       -3917.702
  -2651133.751 7  21370008.045        -960.207
   1592652.053 7  20948865.246       -3119.208
  -5773161.762 6  22560628.822        1175.348
  -2443390.899 6  23723882.947         790.999
 98  9 30 16 29 30.0000000  0  7G21G17G03G23G01G29G31                0.000100568
  -1892953.525 7  21068756.373       -1150.000
   2821487.948 6  21658488.830       -3924.248
  -2641482.411 7  21371847.072        -970.322
   1623870.887 7  20954804.711       -3124.748
  -5784884.081 6  22558397.953        1169.414
     -3796.56315  23918604.249        1515.063
  -2451266.722 6  23722387.213         784.459
 98  9 30 16 29 40.0000000  0  7G21G17G03G23G01G29G31                0.000113901
  -1881427.219 7  21070951.838       -1155.544
   2860760.185 6  21665961.239       -3930.379
  -2631735.490 7  21373703.269        -979.352
   1655142.724 7  20960751.830       -3129.701
  -5796550.986 6  22556173.450        1164.288
    -18928.729 5  23915730.681        1511.349
  -2459076.015 6  23720898.634         777.916
 98  9 30 16 29 50.0000000  0  7G21G17G03G23G01G29G31                0.000127252
  -1869844.754 7  21073155.887       -1160.567
   2900096.001 6  21673447.314       -3936.461
  -2621894.237 7  21375571.987        -988.515
   1686467.036 7  20966714.475       -3134.711
  -5808164.221 6  22553960.610        1159.322
    -34021.242 5  23912856.540        1507.645
  -2466820.089 6  23719423.505         771.840
 98  9 30 16 30  0.0000000  0  7G21G17G03G23G01G29G31                0.000140614
  -1858211.585 7  21075372.315       -1165.935
   2939491.490 6  21680944.907       -3942.372
  -2611962.379 7  21377461.381        -997.729
   1717840.503 7  20972685.849       -3139.604
  -5819728.940 6  22551766.587        1154.105
    -49078.844 5  23909997.495        1504.192
  -2474504.191 6  23717956.032         765.828
 98  9 30 16 30 10.0000000  0  7G21G17G03G23G01G29G31                0.000154018
  -1846526.185 7  21077592.606       -1171.147
   2978949.243 6  21688453.662       -3948.956
  -2601937.552 7  21379370.881       -1007.358
   1749266.158 7  20978669.386       -3145.375
  -5831242.948 6  22549575.282        1149.016
    -64098.856 5  23907137.807        1500.316
  -2482127.378 6  23716511.024         759.140
 98  9 30 16 30 20.0000000  0  7G21G17G03G23G01G29G31                0.000167423
  -1834787.308 7  21079827.277       -1176.530
   3018471.226 6  21695967.997       -3955.525
  -2591818.820 7  21381297.837       -1016.698
   1780746.738 7  20984657.502       -3150.922
  -5842704.820 6  22547394.494        1143.813
    -79078.639 5  23904286.632        1496.553
  -2489688.010 6  23715076.462         753.043
 98  9 30 16 30 30.0000000  0  7G21G17G03G23G01G29G31                0.000180865
  -1822997.414 7  21082074.684       -1181.902
   3058054.270 6  21703502.007       -3961.592
  -2581608.922 7  21383239.746       -1025.807
   1812279.962 7  20990659.355       -3156.163
  -5854116.874 6  22545223.437        1138.503
    -94020.166 6  23901447.550        1492.155
  -2497188.086 6  23713655.422         746.867
 98  9 30 16 30 40.0000000  0  7G21G17G03G23G01G29G31                0.000194312
  -1811155.569 7  21084323.808       -1186.844
   3097697.490 6  21711052.759       -3967.212
  -2571309.222 7  21385197.323       -1034.348
   1843866.599 7  20996667.432       -3161.218
  -5865478.588 6  22543063.898        1133.844
   -108922.976 6  23898610.827        1488.872
  -2504626.773 6  23712235.527         741.049
 98  9 30 16 30 50.0000000  0  7G21G17G03G23G01G29G31                0.000207755
  -1799262.205 7  21086588.099       -1192.157
   3137399.402 6  21718611.023       -3973.428
  -2560920.911 7  21387176.221       -1043.353
   1875504.904 7  21002685.883       -3166.592
  -5876791.205 6  22540903.143        1128.992
   -123787.867 6  23895783.407        1484.378
  -2512004.462 6  23710826.578         734.431
 98  9 30 16 31  0.0000000  0  7G21G17G03G23G01G29G31                0.000221195
  -1787315.629 7  21088861.048       -1197.450
   3177160.171 6  21726169.573       -3979.134
  -2550444.006 7  21389164.778       -1052.031
   1907194.819 7  21008717.355       -3171.461
  -5888054.603 6  22538755.696        1124.106
   -138614.427 6  23892958.203        1480.595
  -2519320.945 6  23709429.291         728.786
 98  9 30 16 31 10.0000000  0  7G21G17G03G23G01G29G31                0.000234646
  -1775312.092 7  21091146.231       -1203.142
   3216982.063 6  21733748.514       -3985.370
  -2539877.243 7  21391183.027       -1060.988
   1938939.725 7  21014757.915       -3177.127
  -5899265.679 6  22536624.919        1118.791
   -153400.707 6  23890143.088        1476.961
  -2526573.373 6  23708039.946         722.472
 98  9 30 16 31 20.0000000  0  7G21G17G03G23G01G29G31                0.000248180
  -1763248.252 7  21093436.495       -1209.499
   3256867.513 6  21741333.322       -3991.835
  -2529219.196 7  21393209.432       -1070.343
   1970741.987 7  21020810.780       -3183.221
  -5910421.086 6  22534506.520        1113.063
   -168144.717 6  23887338.133        1472.537
  -2533758.328 6  23706681.080         715.498
 98  9 30 16 31 30.0000000  0  7G21G17G03G23G01G29G31                0.000261715
  -1751127.165 7  21095745.861       -1215.004
   3296812.980 6  21748941.883       -3997.821
  -2518474.349 7  21395254.581       -1079.105
   2002597.881 7  21026869.297       -3188.564
  -5921524.001 6  22532396.993        1107.716
   -182850.636 6  23884540.904        1468.716
  -2540878.857 6  23705326.579         708.730
 98  9 30 16 31 40.0000000  0  7G21G17G03G23G01G29G31                0.000275261
  -1738949.050 7  21098065.601       -1221.051
   3336818.307 6  21756554.880       -4004.095
  -2507644.032 7  21397314.684       -1087.590
   2034506.654 7  21032949.421       -3193.834
  -5932572.730 6  22530292.760        1101.793
   -197518.601 6  23881750.544        1464.740
  -2547934.720 6  23703988.103         701.932
 98  9 30 16 31 50.0000000  0  7G21G17G03G23G01G29G31                0.000288833
  -1726709.183 7  21100392.926       -1227.237
   3376886.976 6  21764178.537       -4010.085
  -2496726.194 7  21399389.382       -1096.011
   2066470.918 7  21039028.544       -3199.289
  -5943562.758 6  22528199.116        1096.043
   -212144.916 6  23878971.845        1460.802
  -2554923.001 6  23702658.714         695.718
 98  9 30 16 32  0.0000000  0  7G21G17G03G23G01G29G31                0.000302429
  -1714411.300 7  21102731.625       -1232.713
   3417013.758 6  21771817.505       -4015.749
  -2485724.336 7  21401482.610       -1104.721
   2098487.075 7  21045119.113       -3204.396
  -5954497.530 6  22526122.714        1090.718
   -226733.023 6  23876192.861        1456.708
  -2561847.037 6  23701346.782         689.035
 98  9 30 16 32 10.0000000  0  7G21G17G03G23G01G29G31                0.000315985
  -1702055.088 7  21105085.350       -1238.603
   3457199.709 6  21779454.970       -4021.584
  -2474636.763 7  21403594.869       -1112.927
   2130556.999 7  21051223.348       -3209.535
  -5965374.531 6  22524054.254        1085.072
   -241281.413 6  23873423.320        1453.122
  -2568704.646 6  23700038.641         682.549
 98  9 30 16 32 20.0000000  0  7G21G17G03G23G01G29G31                0.000329590
  -1689640.775 7  21107448.447       -1244.516
   3497442.812 6  21787115.473       -4027.167
  -2463465.192 7  21405721.080       -1121.484
   2162679.907 7  21057337.242       -3215.170
  -5976194.035 6  22521993.951        1078.888
   -255791.729 5  23870664.798        1449.025
  -2575495.887 6  23698743.380         675.836
 98  9 30 16 32 30.0000000  0  7G21G17G03G23G01G29G31                0.000343244
  -1677168.082 7  21109818.055       -1249.989
   3537742.987 6  21794787.996       -4032.745
  -2452209.645 7  21407865.607       -1129.692
   2194854.958 7  21063457.002       -3220.132
  -5986955.870 6  22519944.809        1073.354
   -270264.347 5  23867904.415        1445.268
  -2582219.870 6  23697472.444         669.286
 98  9 30 16 32 40.0000000  0  7G21G17G03G23G01G29G31                0.000356870
  -1664634.861 7  21112207.768       -1256.648
   3578100.563 6  21802469.319       -4038.937
  -2440869.016 7  21410021.796       -1138.570
   2227082.185 7  21069590.284       -3225.558
  -5997659.293 6  22517904.825        1067.226
   -284699.204 5  23865159.558        1441.600
  -2588875.701 6  23696201.436         662.329
 98  9 30 16 32 50.0000000  0  7G21G17G03G23G01G29G31                0.000370524
  -1652038.952 7  21114602.703       -1262.709
   3618517.984 6  21810162.447       -4044.904
  -2429441.399 7  21412195.370       -1147.211
   2259364.123 7  21075737.018       -3231.035
  -6008301.856 6  22515879.221        1061.363
   -299094.431 5  23862419.494        1437.816
  -2595461.680 6  23694945.096         655.154
 98  9 30 16 33  0.0000000  0  7G21G17G03G23G01G29G31                0.000384193
  -1639382.296 7  21117010.373       -1268.661
   3658994.519 6  21817863.588       -4050.540
  -2417926.768 7  21414387.332       -1155.859
   2291699.882 7  21081889.045       -3236.191
  -6018884.287 6  22513866.567        1055.537
   -313452.169 5  23859689.304        1433.806
  -2601978.826 6  23693701.777         648.457
 98  9 30 16 33 10.0000000  0  7G21G17G03G23G01G29G31                0.000397868
  -1626666.509 7  21119435.644       -1274.686
   3699529.779 6  21825574.961       -4056.441
  -2406325.867 7  21416599.899       -1164.601
   2324089.169 7  21088054.166       -3242.021
  -6029407.132 6  22511861.783        1049.403
   -327773.941 5  23856965.481        1430.319
  -2608429.118 6  23692474.412         641.852
 98  9 30 16 33 20.0000000  0  7G21G17G03G23G01G29G31                0.000411583
  -1613890.663 7  21121862.131       -1280.420
   3740125.541 6  21833297.995       -4062.396
  -2394636.989 7  21418818.762       -1173.201
   2356534.885 7  21094226.441       -3247.368
  -6039867.378 6  22509866.802        1043.011
   -342058.077 5  23854245.951        1427.132
  -2614811.242 6  23691259.640         634.914
 98  9 30 16 33 30.0000000  0  7G21G17G03G23G01G29G31                0.000425315
  -1601061.374 7  21124302.855       -1286.111
   3780777.137 6  21841032.763       -4068.460
  -2382865.050 7  21421060.735       -1181.894
   2389030.300 7  21100407.659       -3252.357
  -6050270.713 5  22507889.778        1037.669
   -356310.410 5  23851533.719        1423.492
  -2621130.267 6  23690060.607         628.232
 98  9 30 16 33 40.0000000  0  8G21G17G03G09G23G01G29G31             0.000439068
  -1588176.608 7  21126754.669       -1291.354
   3821487.108 6  21848783.199       -4074.008
  -2371007.098 7  21423313.654       -1190.318
      4409.05515  24493310.731        -544.643
   2421577.059 7  21106603.401       -3257.330
  -6060614.994 5  22505924.988        1031.548
   -370528.289 5  23848825.779        1420.071
  -2627384.009 6  23688874.095         622.154
 98  9 30 16 33 50.0000000  0  8G21G17G03G09G23G01G29G31             0.000452813
  -1575237.326 7  21129216.212       -1296.747
   3862255.348 6  21856538.572       -4079.752
  -2359062.590 7  21425584.316       -1198.900
      9890.140 5  24494355.022        -551.559
   2454176.212 7  21112806.083       -3262.706
  -6070899.120 5  22503970.859        1025.565
   -384710.519 5  23846128.571        1416.261
  -2633572.456 6  23687693.450         615.504
 98  9 30 16 34  0.0000000  0  8G21G17G03G09G23G01G29G31             0.000466586
  -1562244.633 7  21131688.846       -1301.886
   3903079.542 6  21864309.399       -4085.158
  -2347031.216 7  21427879.304       -1207.735
     15436.692 5  24495409.759        -558.131
   2486826.257 7  21119021.214       -3267.607
  -6081124.660 5  22502024.528        1019.836
   -398857.920 5  23843437.087        1412.961
  -2639696.800 6  23686530.261         609.351
 98  9 30 16 34 10.0000000  0  8G21G17G03G09G23G01G29G31             0.000480265
  -1549198.377 7  21134171.424       -1307.547
   3943958.666 6  21872089.312       -4090.912
  -2334909.848 7  21430187.958       -1217.020
     21048.728 5  24496475.943        -564.575
   2519528.158 7  21125238.349       -3273.131
  -6091291.798 5  22500078.341        1013.727
   -412968.808 5  23840757.980        1409.323
  -2645756.065 6  23685374.514         602.501
 98  9 30 16 34 20.0000000  0  8G21G17G03G09G23G01G29G31             0.000494051
  -1536099.171 7  21136666.022       -1312.024
   3984893.175 6  21879870.656       -4095.949
  -2322698.223 7  21432509.561       -1225.110
     26725.767 5  24497551.643        -570.638
   2552282.322 7  21131473.369       -3277.551
  -6101401.025 6  22498158.553        1008.704
   -427043.019 5  23838075.796        1406.590
  -2651749.539 6  23684238.799         596.759
 98  9 30 16 34 30.0000000  0  8G21G17G03G09G23G01G29G31             0.000507873
  -1522947.663 7  21139170.064       -1317.853
   4025882.137 6  21887679.044       -4101.796
  -2310397.392 7  21434851.913       -1234.517
     32466.429 5  24498661.899        -577.274
   2585087.854 7  21137717.476       -3283.110
  -6111453.810 6  22496245.348        1002.739
   -441081.306 5  23835404.704        1402.101
  -2657678.433 6  23683106.305         589.857
 98  9 30 16 34 40.0000000  0  8G21G17G03G09G23G01G29G31             0.000521668
  -1509745.134 7  21141679.114       -1322.945
   4066925.365 6  21895480.564       -4107.091
  -2298007.388 7  21437205.927       -1243.654
     38270.433 5  24499755.485        -583.502
   2617943.062 7  21143966.234       -3287.997
  -6121451.372 6  22494349.672         996.597
   -455083.479 5  23832728.960        1398.244
  -2663544.404 6  23681990.766         583.670
 98  9 30 16 34 50.0000000  0  8G21G17G03G09G23G01G29G31             0.000535483
  -1496492.276 7  21144200.112       -1327.481
   4108021.635 6  21903307.339       -4111.852
  -2285528.174 7  21439580.760       -1252.199
     44138.344 5  24500871.894        -589.857
   2650846.714 7  21150231.375       -3292.613
  -6131393.412 6  22492455.211         991.975
   -469048.036 4  23830067.167        1395.511
  -2669348.272 6  23680881.523         577.885
 98  9 30 16 35  0.0000000  0  7G21G17G03G09G23G01G31                0.000549361
  -1483190.599 7  21146731.915       -1333.273
   4149169.578 6  21911134.760       -4118.294
  -2272959.929 7  21441971.478       -1261.931
     50070.891 6  24502000.396        -597.076
   2683799.072 7  21156503.171       -3298.308
  -6141279.515 6  22490575.418         985.464
  -2675090.327 6  23679788.522         570.369
 98  9 30 16 35 10.0000000  0  7G21G17G03G09G23G01G31                0.000563222
  -1469837.731 7  21149277.453       -1337.633
   4190372.077 6  21918976.988       -4122.815
  -2260299.283 7  21444385.232       -1270.363
     56071.796 5  24503138.340        -603.458
   2716801.849 7  21162781.476       -3302.559
  -6151107.201 5  22488703.209         980.383
  -2680767.260 6  23678707.754         564.908
 98  9 30 16 35 20.0000000  0  7G21G17G03G09G23G01G31                0.000577121
  -1456438.075 7  21151826.068       -1343.155
   4231624.127 6  21926833.026       -4128.340
  -2247551.330 6  21446804.997       -1279.782
     62136.545 5  24504292.884        -610.368
   2749848.663 7  21169070.871       -3307.452
  -6160882.439 5  22486846.525         974.146
  -2686384.603 6  23677643.228         558.311
 98  9 30 16 35 30.0000000  0  7G21G17G03G09G23G01G31                0.000591022
  -1442989.179 7  21154385.701       -1347.586
   4272928.258 6  21934694.143       -4133.411
  -2234713.735 7  21449252.592       -1288.458
     68266.991 5  24505459.518        -616.328
   2782940.453 7  21175366.061       -3311.407
  -6170603.329 6  22484995.993         969.514
  -2691940.067 6  23676584.068         552.319
 98  9 30 16 35 40.0000000  0  7G21G17G03G09G23G01G31                0.000604947
  -1429494.714 7  21156949.840       -1351.974
   4314280.327 6  21942562.915       -4137.827
  -2221790.305 6  21451709.632       -1296.907
     74458.298 6  24506640.891        -622.171
   2816071.088 7  21181673.843       -3315.244
  -6180274.385 6  22483155.764         964.638
  -2697436.680 6  23675540.217         546.753
 98  9 30 16 35 50.0000000  0  7G21G17G03G09G23G01G31                0.000618876
  -1415953.736 7  21159526.716       -1356.664
   4355680.497 6  21950435.909       -4142.665
  -2208780.205 7  21454189.423       -1305.653
     80708.946 5  24507827.701        -628.062
   2849241.348 7  21187985.560       -3319.298
  -6189895.628 6  22481323.477         959.444
  -2702874.377 6  23674506.741         540.941
 98  9 30 16 36  0.0000000  0  7G21G17G03G09G23G01G31                0.000632820
  -1402364.552 7  21162114.252       -1361.678
   4397130.659 6  21958329.222       -4147.939
  -2195681.427 7  21456679.875       -1314.514
     87020.371 5  24509031.754        -634.996
   2882454.993 7  21194306.435       -3323.773
  -6199464.467 6  22479504.355         954.193
  -2708251.963 6  23673482.281         534.689
 98  9 30 16 36 10.0000000  0  7G21G17G03G09G23G01G31                0.000646768
  -1388728.644 7  21164710.301       -1366.385
   4438629.315 6  21966224.109       -4153.035
  -2182495.844 7  21459187.283       -1323.204
     93390.673 5  24510239.384        -640.494
   2915709.865 7  21200635.180       -3327.844
  -6208982.208 6  22477695.105         948.930
  -2713571.489 6  23672470.126         528.729
 98  9 30 16 36 20.0000000  0  7G21G17G03G09G23G01G31                0.000660740
  -1375043.448 7  21167314.221       -1370.682
   4480180.020 6  21974128.011       -4157.568
  -2169221.237 7  21461712.720       -1331.639
     99821.959 5  24511468.262        -646.158
   2949008.277 7  21206969.291       -3331.833
  -6218446.207 6  22475890.077         944.200
  -2718829.552 6  23671467.343         523.309
 98  9 30 16 36 30.0000000  0  7G21G17G03G09G23G01G31                0.000674695
  -1361313.364 7  21169924.222       -1375.198
   4521780.013 6  21982041.213       -4162.732
  -2155863.667 7  21464253.396       -1339.775
    106309.986 5  24512690.630        -651.643
   2982346.540 7  21213310.843       -3335.991
  -6227860.264 6  22474104.509         938.924
  -2724030.210 5  23670471.643         517.216
 98  9 30 16 36 40.0000000  0  7G21G17G03G09G23G01G31                0.000688719
  -1347536.123 7  21172548.604       -1380.331
   4563431.563 6  21989971.659       -4167.773
  -2142421.938 7  21466815.394       -1348.546
    112857.607 5  24513950.346        -657.623
   3015726.240 7  21219664.199       -3339.917
  -6237222.609 6  22472320.588         933.496
  -2729171.401 5  23669498.624         511.343
 98  9 30 16 36 50.0000000  0  7G21G17G03G09G23G01G31                0.000702745
  -1333711.603 7  21175180.141       -1385.278
   4605135.317 6  21997905.110       -4173.438
  -2128895.723 7  21469391.057       -1357.056
    119465.409 5  24515213.782        -664.018
   3049146.231 7  21226020.132       -3344.330
  -6246534.080 6  22470546.181         928.632
  -2734253.607 5  23668534.405         505.167
 98  9 30 16 37  0.0000000  0  7G21G17G03G09G23G01G31                0.000716746
  -1319838.751 7  21177819.475       -1389.699
   4646891.458 6  22005851.438       -4178.233
  -2115284.783 7  21471980.027       -1365.308
    126133.019 5  24516478.005        -670.084
   3082606.058 7  21232391.375       -3348.227
  -6255793.837 6  22468787.801         923.392
  -2739276.359 6  23667576.124         499.452
 98  9 30 16 37 10.0000000  0  7G21G17G03G09G23G01G31                0.000730765
  -1305920.039 7  21180467.969       -1394.713
   4688698.054 6  22013805.065       -4183.859
  -2101592.368 7  21474584.380       -1373.956
    132858.134 6  24517758.898        -675.786
   3116104.634 7  21238767.126       -3352.332
  -6265005.505 6  22467032.712         918.291
  -2744242.645 6  23666628.861         493.835
 98  9 30 16 37 20.0000000  0  7G21G17G03G09G23G01G31                0.000744795
  -1291954.392 7  21183122.041       -1398.653
   4730557.452 6  22021775.003       -4188.280
  -2087818.013 7  21477203.398       -1381.375
    139640.407 5  24519046.515        -681.079
   3149643.285 7  21245150.746       -3355.618
  -6274169.136 6  22465286.135         914.484
  -2749151.340 6  23665696.693         488.623
 98  9 30 16 37 30.0000000  0  7G21G17G03G09G23G01G31                0.000758829
  -1277941.449 7  21185792.070       -1403.650
   4772470.018 6  22029749.521       -4193.915
  -2073961.312 6  21479837.156       -1389.662
    146479.785 5  24520344.150        -686.806
   3183222.377 7  21251538.874       -3359.961
  -6283284.077 6  22463544.210         909.413
  -2754003.001 6  23664776.403         482.584
 98  9 30 16 37 40.0000000  0  7G21G17G03G09G23G01G31                0.000772882
  -1263880.163 7  21188468.466       -1408.711
   4814437.377 6  22037732.983       -4199.870
  -2060021.786 7  21482490.374       -1398.225
    153377.040 5  24521650.871        -692.557
   3216844.286 7  21257938.736       -3364.589
  -6292347.565 6  22461827.328         903.586
  -2758795.538 6  23663865.200         476.379
 98  9 30 16 37 50.0000000  0  7G21G17G03G09G23G01G31                0.000786956
  -1249770.762 7  21191150.156       -1413.446
   4856458.485 6  22045729.393       -4204.913
  -2046000.633 7  21485164.985       -1406.233
    160331.264 5  24522981.774        -698.326
   3250509.467 7  21264342.104       -3368.796
  -6301359.331 6  22460113.592         898.900
  -2763528.874 6  23662958.003         470.399
 98  9 30 16 38  0.0000000  0  6G21G17G03G23G01G31                   0.000801007
  -1235614.884 7  21193841.934       -1417.815
   4898531.864 6  22053735.749       -4209.859
  -2031899.033 7  21487847.179       -1414.072
   3284217.984 7  21270757.920       -3372.911
  -6310320.151 6  22458406.939         894.005
  -2768204.524 6  23662067.404         465.137
 98  9 30 16 38 10.0000000  0  7G21G17G03G09G23G01G31                0.000815131
  -1221412.377 7  21196547.950       -1422.224
   4940657.429 6  22061759.633       -4214.862
  -2017717.062 7  21490543.968       -1422.029
    174406.20515  24525670.625        -709.079
   3317970.788 7  21277181.321       -3377.185
  -6319229.640 6  22456710.160         889.038
  -2772822.013 6  23661193.976         459.349
 98  9 30 16 38 20.0000000  0  7G21G17G03G09G23G01G31                0.000829211
  -1207165.686 7  21199257.400       -1427.083
   4982831.876 6  22069778.939       -4220.154
  -2003457.924 7  21493256.927       -1429.971
    181526.382 5  24527023.708        -715.208
   3351763.756 7  21283609.944       -3381.438
  -6328090.546 6  22455027.619         883.577
   -153387.37016  23660319.547         453.204
 98  9 30 16 38 30.0000000  0  7G21G17G03G09G23G01G31                0.000843309
  -1192873.937 7  21201979.155       -1431.496
   5025056.067 6  22077815.200       -4225.043
  -1989121.091 7  21495985.197       -1437.773
    188700.866 5  24528387.164        -720.605
   3385596.408 7  21290047.009       -3385.243
  -6336903.462 6  22453345.077         879.002
   -157889.676 6  23659467.869         447.574
 98  9 30 16 38 40.0000000  0  7G21G17G03G09G23G01G31                0.000857402
  -1178538.276 7  21204706.062       -1435.872
   5067328.276 6  22085859.975       -4229.346
  -1974708.820 7  21498725.700       -1445.108
    195928.491 5  24529755.986        -725.447
   3419467.245 7  21296493.447       -3389.102
  -6345671.280 6  22451679.491         874.727
   -162334.966 6  23658621.701         441.827
 98  9 30 16 38 50.0000000  0  7G21G17G03G09G23G01G31                0.000871518
  -1164152.939 7  21207446.922       -1441.498
   5109653.571 6  22093912.050       -4235.538
  -1960215.515 7  21501489.028       -1453.830
    203215.065 5  24531140.979        -731.754
   3453380.826 7  21302950.188       -3393.874
  -6354389.137 6  22450021.347         868.959
   -166719.294 6  23657791.917         435.242
 98  9 30 16 39  0.0000000  0  8G21G17G03G09G23G01G29G31             0.000885625
  -1149719.643 7  21210192.144       -1445.642
   5152030.594 6  22101976.214       -4240.205
  -1945642.273 7  21504260.296       -1461.203
    210558.502 5  24532547.292        -737.321
   3487334.806 7  21309408.502       -3397.386
  -6363058.298 6  22448378.083         864.803
     -1407.31016  23765942.466        1307.608
   -171044.737 6  23656963.921         429.807
 98  9 30 16 39 10.0000000  0  8G21G17G03G09G23G01G29G31             0.000899753
  -1135242.044 7  21212948.457       -1450.366
   5194455.564 6  22110050.181       -4245.186
  -1930993.157 7  21507045.517       -1469.095
    217954.429 5  24533951.100        -742.470
   3521325.445 7  21315876.118       -3401.331
  -6371681.672 6  22446735.321         859.698
    -14472.159 6  23763460.968        1304.956
   -175315.619 6  23656150.448         424.144
 98  9 30 16 39 20.0000000  0  8G21G17G03G09G23G01G29G31             0.000913904
  -1120718.102 7  21215708.060       -1454.701
   5236930.861 6  22118133.233       -4249.889
  -1916265.419 7  21509848.909       -1476.581
    225406.153 5  24535374.655        -748.036
   3555356.518 7  21322355.252       -3405.055
  -6380255.557 6  22445102.861         855.119
    -27508.074 6  23760978.683        1302.402
   -179528.705 6  23655351.285         418.552
 98  9 30 16 39 30.0000000  0  8G21G17G03G09G23G01G29G31             0.000928033
  -1106150.124 7  21218482.116       -1459.125
   5279453.338 6  22126228.305       -4254.759
  -1901461.340 7  21512667.040       -1484.236
    232910.958 5  24536796.922        -753.081
   3589425.267 7  21328836.103       -3408.688
  -6388782.313 6  22443475.768         850.229
    -40515.732 6  23758501.765        1299.300
   -183685.060 6  23654558.705         412.866
 98  9 30 16 39 40.0000000  0  8G21G17G03G09G23G01G29G31             0.000942191
  -1091537.151 7  21221265.115       -1463.423
   5322023.033 6  22134331.176       -4259.048
  -1886579.676 7  21515497.907       -1491.948
    240470.669 5  24538232.211        -758.846
   3623531.025 7  21335327.973       -3412.190
  -6397260.256 6  22441863.698         845.828
    -53492.778 6  23756033.933        1296.742
   -187783.253 6  23653784.583         407.297
 98  9 30 16 39 50.0000000  0  8G21G17G03G09G23G01G29G31             0.000956352
  -1076881.636 7  21224051.834       -1467.975
   5364636.727 6  22142430.899       -4263.908
  -1871623.451 7  21518344.012       -1499.811
    248082.665 5  24539680.807        -763.799
   3657670.115 7  21341824.922       -3415.810
  -6405692.471 6  22440262.433         840.608
    -66441.451 6  23753572.612        1293.370
   -191826.142 6  23653012.894         401.222
 98  9 30 16 40  0.0000000  0  8G21G17G03G09G23G01G29G31             0.000970535
  -1062179.390 7  21226841.702       -1472.398
   5407298.009 6  22150545.717       -4268.425
  -1856588.257 7  21521207.289       -1507.494
    255751.168 5  24541144.500        -769.380
   3691845.814 7  21348326.736       -3419.290
  -6414076.088 6  22438664.172         836.191
    -79358.697 6  23751112.650        1290.497
   -195809.723 6  23652254.655         395.619
 98  9 30 16 40 10.0000000  0  8G21G17G03G09G23G01G29G31             0.000984682
  -1047433.085 7  21229655.895       -1476.750
   5450003.741 6  22158675.418       -4272.995
  -1841475.577 7  21524083.086       -1515.323
    263474.426 5  24542606.761        -775.241
   3726055.196 7  21354842.144       -3422.720
  -6422414.508 6  22437074.211         831.537
    -92247.965 6  23748658.125        1287.355
   -199737.188 6  23651506.290         389.754
 98  9 30 16 40 20.0000000  0  8G21G17G03G09G23G01G29G31             0.000998866
  -1032642.081 7  21232467.727       -1481.389
   5492755.245 6  22166816.637       -4277.364
  -1826284.649 7  21526974.838       -1523.073
    271255.233 5  24544082.760        -781.244
   3760298.588 7  21361352.829       -3426.030
  -6430706.985 6  22435496.913         827.028
   -105109.585 5  23746208.823        1285.057
   -203607.324 6  23650771.232         384.438
 98  9 30 16 40 30.0000000  0  8G21G17G03G09G23G01G29G31             0.000013072
  -2593225.936 7  20935499.761       -1485.542
   3960137.528 6  21875172.580       -4281.921
  -3386434.828 7  21230086.157       -1530.434
  -1296325.445 5  24245793.638        -786.583
   2219158.112 7  21068083.657       -3429.085
  -8014374.938 6  22134136.229         822.867
  -1693364.862 5  23443970.397        1281.828
  -1782840.090 6  23350251.228         378.603
 98  9 30 16 40 40.0000000  0  8G21G17G03G09G23G01G29G31             0.000027261
  -2578349.839 7  20938331.698       -1489.940
   4002980.492 6  21883326.608       -4286.737
  -3371090.637 7  21233001.235       -1538.469
  -1288430.559 5  24247290.886        -792.149
   2253465.810 7  21074608.581       -3432.657
  -8022579.130 6  22132579.252         818.059
  -1706171.672 5  23441534.474        1279.660
  -1786596.511 6  23349532.698         373.019
 98  9 30 16 40 50.0000000  0  8G21G17G03G09G23G01G29G31             0.000041464
  -2563434.962 7  20941172.434       -1493.259
   4045865.965 6  21891481.993       -4290.627
  -3355672.564 7  21235937.918       -1545.364
  -1280480.449 5  24248801.085        -798.073
   2287803.513 7  21081146.096       -3435.155
  -8030741.899 6  22131019.626         814.233
  -1718951.405 5  23439094.975        1276.791
  -1790300.585 6  23348833.127         367.970
 98  9 30 16 41  0.0000000  0  8G21G17G03G09G23G01G29G31             0.000055665
  -2548482.059 7  20944014.531       -1497.566
   4088792.891 6  21899649.113       -4295.293
  -3340179.982 7  21238887.696       -1553.381
  -1272474.748 5  24250323.446        -803.453
   2322170.741 7  21087686.403       -3438.544
  -8038862.686 6  22129480.606         809.613
  -1731703.228 5  23436663.131        1273.674
  -1793952.834 6  23348133.844         362.285
 98  9 30 16 41 10.0000000  0  8G21G17G03G09G23G01G29G31             0.000069896
  -2533489.183 7  20946864.068       -1501.274
   4131764.739 6  21907825.533       -4299.174
  -3324608.808 7  21241851.496       -1561.040
  -1264410.337 5  24251854.036        -809.253
   2356571.013 7  21094232.719       -3441.821
  -8046937.531 6  22127943.374         805.353
  -1744422.644 5  23434254.826        1270.682
  -1797548.303 6  23347446.723         356.874
 98  9 30 16 41 20.0000000  0  8G21G17G03G09G23G01G29G31             0.000084146
  -2518460.666 7  20949725.981       -1504.451
   4174777.446 6  21916003.455       -4303.285
  -3308962.339 7  21244831.680       -1568.471
  -1256290.072 5  24253396.430        -815.065
   2391000.788 7  21100786.403       -3444.444
  -8054970.629 6  22126414.513         801.732
  -1757112.979 5  23431844.804        1267.958
  -1801089.580 6  23346779.849         351.598
 98  9 30 16 41 30.0000000  0  8G21G17G03G09G23G01G29G31             0.000098425
  -2503398.465 7  20952595.122       -1508.195
   4217828.445 6  21924207.063       -4307.536
  -3293242.004 7  21247822.238       -1576.335
  -1248115.117 6  24254965.511        -820.348
   2425458.793 7  21107339.588       -3447.664
  -8062964.092 6  22124894.595         797.508
  -1769777.795 5  23429437.786        1264.951
  -1804577.873 6  23346119.629         346.008
 98  9 30 16 41 40.0000000  0  8G21G17G03G09G23G01G29G31             0.000112685
  -2488300.528 7  20955468.483       -1511.845
   4260919.771 5  21932402.944       -4311.369
  -3277445.268 7  21250830.683       -1583.746
  -1239882.796 6  24256537.167        -826.077
   2459947.348 7  21113905.006       -3450.516
  -8070916.755 6  22123372.674         793.219
  -1782414.303 6  23427034.918        1262.128
  -1808009.901 6  23345464.775         340.332
 98  9 30 16 41 50.0000000  0  8G21G17G03G09G23G01G29G31             0.000126936
  -2473168.015 7  20958347.711       -1515.009
   4304051.804 6  21940607.124       -4315.385
  -3261572.783 7  21253846.711       -1591.132
  -1231593.989 6  24258112.473        -831.683
   2494464.810 7  21120473.429       -3453.151
  -8078829.993 6  22121871.144         789.316
  -1795023.475 6  23424632.694        1259.566
  -1811387.938 6  23344820.366         335.405
 98  9 30 16 42  0.0000000  0  8G21G17G03G09G23G01G29G31             0.000141195
  -2458000.921 7  20961231.089       -1519.067
   4347225.001 6  21948829.262       -4320.039
  -3245624.197 7  21256881.342       -1599.199
  -1223248.334 6  24259699.512        -837.614
   2529012.151 7  21127049.652       -3456.775
  -8086703.933 6  22120374.049         784.985
  -1807605.935 6  23422236.623        1256.595
  -1814712.126 6  23344184.974         329.305
 98  9 30 16 42 10.0000000  0  8G21G17G03G09G23G01G29G31             0.000155484
  -2442800.146 7  20964124.697       -1521.780
   4390439.026 6  21957057.338       -4323.575
  -3229600.178 7  21259930.210       -1606.233
  -1214846.972 5  24261299.572        -842.915
   2563590.837 7  21133629.451       -3459.479
  -8094538.814 6  22118878.742         781.721
  -1820163.247 5  23419848.565        1254.379
  -1817982.194 6  23343566.321         324.310
 98  9 30 16 42 20.0000000  0  8G21G17G03G09G23G01G29G31             0.000169774
  -2427568.322 7  20967023.314       -1524.638
   4433692.463 6  21965291.138       -4327.223
  -3213502.548 7  21262994.889       -1613.239
  -1206391.692 5  24262909.362        -848.230
   2598200.021 7  21140216.619       -3462.306
  -8102334.956 6  22117399.534         777.820
  -1832696.117 5  23417462.509        1252.223
  -1821199.154 6  23342957.614         319.539
 98  9 30 16 42 30.0000000  0  8G21G17G03G09G23G01G29G31             0.000184046
  -2412304.468 7  20969927.011       -1528.123
   4476987.533 6  21973526.798       -4331.636
  -3197329.889 7  21266070.158       -1621.043
  -1197881.175 6  24264526.737        -853.976
   2632841.032 7  21146807.223       -3465.898
  -8110089.681 6  22115922.902         773.227
  -1845202.272 5  23415082.751        1249.435
  -1824360.717 6  23342347.834         313.573
 98  9 30 16 42 40.0000000  0  8G21G17G03G09G23G01G29G31             0.000198326
  -2397012.399 7  20972836.716       -1530.899
   4520320.717 6  21981768.683       -4335.597
  -3181085.589 7  21269164.243       -1628.122
  -1189319.947 5  24266146.972        -858.669
   2667510.373 7  21153406.124       -3468.652
  -8117805.996 6  22114453.710         769.559
  -1857684.757 5  23412703.779        1246.968
  -1827470.336 5  23341757.729         308.411
 98  9 30 16 42 50.0000000  0  8G21G17G03G09G23G01G29G31             0.000212646
  -2381689.081 7  20975755.581       -1534.114
   4563692.301 6  21990018.509       -4339.233
  -3164767.035 7  21272268.559       -1635.739
  -1180707.447 6  24267793.179        -863.744
   2702210.183 7  21160006.457       -3471.532
  -8125481.549 6  22112991.601         765.623
  -1870141.670 5  23410331.675        1244.824
  -1830527.348 6  23341178.141         303.355
 98  9 30 16 43  0.0000000  0  8G21G17G03G09G23G01G29G31             0.000226945
  -2366334.211 7  20978673.515       -1537.315
   4607101.489 6  21998273.915       -4343.227
  -3148373.635 7  21275388.329       -1643.059
  -1172044.641 6  24269436.595        -868.834
   2736940.342 7  21166615.733       -3474.503
  -8133114.951 6  22111538.436         761.166
  -1882574.002 5  23407966.511        1242.307
  -1833532.935 6  23340604.706         297.917
 98  9 30 16 43 10.0000000  0  8G21G17G03G09G23G01G29G31             0.000241254
  -2350943.484 7  20981601.609       -1540.848
   4650551.575 6  22006543.774       -4347.035
  -3131902.226 7  21278522.695       -1651.030
  -1163328.413 5  24271093.391        -874.353
   2771703.183 7  21173229.589       -3477.989
  -8140702.105 6  22110091.997         756.586
  -1894979.269 5  23405607.573        1239.108
  -1836483.541 6  23340040.573         292.230
 98  9 30 16 43 20.0000000  0  8G21G17G03G09G23G01G29G31             0.000255601
  -2335518.773 7  20984539.933       -1544.008
   4694040.418 6  22014827.370       -4350.763
  -3115355.181 7  21281673.588       -1658.397
  -1154561.629 5  24272768.073        -878.954
   2806496.752 7  21179850.956       -3480.946
  -8148245.230 6  22108669.024         752.382
  -1907360.643 5  23403253.427        1237.480
  -1839380.573 6  23339498.189         287.337
 98  9 30 16 43 30.0000000  0  8G21G17G03G09G23G01G29G31             0.000269908
  -2320061.972 7  20987483.768       -1547.701
   4737565.622 6  22023111.753       -4354.738
  -3098735.645 7  21284830.777       -1665.961
  -1145746.353 6  24274446.762        -884.579
   2841319.263 7  21186478.763       -3484.221
  -8155745.854 6  22107239.470         747.615
  -1919721.107 5  23400901.142        1234.724
  -1842226.532 6  23338950.940         281.726
 98  9 30 16 43 40.0000000  0  8G21G17G03G09G23G01G29G31             0.000284248
  -2304569.979 7  20990428.675       -1550.952
   4781128.743 6  22031398.353       -4358.139
  -3082041.847 7  21288008.141       -1672.862
  -1136881.202 6  24276131.389        -888.986
   2876173.198 7  21193108.430       -3486.882
  -8163200.301 6  22105819.717         743.198
  -1932058.471 6  23398554.651        1232.536
  -1845020.138 6  23338425.226         277.010
 98  9 30 16 43 50.0000000  0  8G21G17G03G09G23G01G29G31             0.000298551
  -2289046.243 7  20993385.387       -1554.240
   4824725.735 6  22039696.257       -4361.469
  -3065278.851 7  21291201.388       -1679.965
  -1127970.320 6  24277824.314        -893.388
   2911055.083 7  21199746.038       -3489.789
  -8170612.166 6  22104399.963         739.119
  -1944375.787 5  23396204.726        1230.972
  -1847766.304 6  23337900.370         272.522
 98  9 30 16 44  0.0000000  0  8G21G17G03G09G23G01G29G31             0.000312889
  -2273489.575 7  20996345.676       -1557.268
   4868357.201 6  22048004.178       -4364.766
  -3048445.690 7  21294402.935       -1686.752
  -1119012.690 6  24279538.417        -897.804
   2945965.092 7  21206394.306       -3492.238
  -8177979.240 6  22102997.382         734.476
  -1956671.496 6  23393870.184        1228.693
  -1850464.252 6  23337384.458         267.499
 98  9 30 16 44 10.0000000  0  8G21G17G03G09G23G01G29G31             0.000327193
  -2257902.956 7  20999310.687       -1560.262
   4912018.773 6  22056299.363       -4367.525
  -3031545.912 7  21297620.006       -1693.419
  -1110011.173 6  24281246.153        -902.278
   2980900.144 7  21213036.636       -3494.763
  -8185303.202 6  22101607.033         730.568
  -1968949.070 5  23391528.844        1227.167
  -1853116.866 6  23336875.341         263.086
 98  9 30 16 44 20.0000000  0  8G21G17G03G09G23G01G29G31             0.000341513
  -2242281.802 7  21002282.639       -1563.795
   4955713.601 6  22064619.733       -4371.144
  -3014575.548 7  21300848.526       -1700.545
  -1100961.670 5  24282963.262        -907.419
   3015864.090 7  21219692.274       -3497.847
  -8192578.239 5  22100216.902         725.168
  -1981203.277 5  23389197.021        1224.715
  -1855718.899 6  23336383.111         257.782
 98  9 30 16 44 30.0000000  0  8G21G17G03G09G23G01G29G31             0.000355833
  -2226629.914 7  21005263.605       -1566.608
   4999437.507 6  22072941.962       -4373.900
  -2997538.280 7  21304090.138       -1707.083
  -1091867.333 5  24284700.617        -911.684
   3050851.428 7  21226348.770       -3499.847
  -8199808.044 6  22098845.943         720.844
  -1993436.523 5  23386871.708        1222.430
  -1858274.991 6  23335888.233         253.264
 98  9 30 16 44 40.0000000  0  8G21G17G03G09G23G01G29G31             0.000370181
  -2210945.286 7  21008247.862       -1570.036
   5043192.383 6  22081268.413       -4377.061
  -2980432.015 7  21307345.630       -1713.945
  -1082726.591 6  24286442.123        -916.446
   3085861.961 7  21233011.919       -3502.122
  -8206992.228 6  22097478.132         716.411
  -2005647.139 5  23384550.403        1219.920
  -1860783.788 6  23335418.181         248.766
 98  9 30 16 44 50.0000000  0  8G21G17G03G09G23G01G29G31             0.000384516
  -2195228.422 7  21011234.838       -1573.029
   5086976.254 6  22089599.156       -4379.431
  -2963259.132 7  21310613.141       -1720.229
  -1073541.004 6  24288186.418        -920.592
   3120893.858 7  21239681.078       -3504.024
  -8214133.737 6  22096125.561         712.256
  -2017837.244 5  23382230.741        1218.488
  -1863247.192 6  23334957.001         244.612
 98  9 30 16 45  0.0000000  0  8G21G17G03G09G23G01G29G31             0.000398817
  -2179479.290 7  21014234.693       -1576.941
   5130787.814 6  22097934.551       -4383.127
  -2946020.925 7  21313890.813       -1727.347
  -1064310.914 5  24289931.144        -925.632
   3155946.886 7  21246347.304       -3506.712
  -8221233.701 6  22094772.703         707.539
  -2030007.471 5  23379916.017        1216.025
  -1865665.842 6  23334495.392         239.429
 98  9 30 16 45 10.0000000  0  8G21G17G03G09G23G01G29G31             0.000413144
  -2163697.996 7  21017234.690       -1579.890
   5174628.679 6  22106272.234       -4385.759
  -2928717.544 7  21317188.731       -1733.684
  -1055035.397 6  24291704.344        -930.086
   3191021.684 7  21253020.828       -3508.670
  -8228292.199 6  22093427.358         703.531
  -2042157.019 5  23377601.150        1214.017
  -1868038.158 6  23334038.577         234.712
 98  9 30 16 45 20.0000000  0  8G21G17G03G09G23G01G29G31             0.000427449
  -2147884.856 7  21020245.419       -1583.008
   5218500.509 6  22114624.441       -4388.622
  -2911349.967 7  21320487.723       -1740.022
  -1045713.572 5  24293479.476        -934.645
   3226117.806 7  21259703.080       -3510.841
  -8235310.120 6  22092088.594         700.024
  -2054284.164 5  23375295.441        1211.583
  -1870362.338 6  23333587.842         229.883
 98  9 30 16 45 30.0000000  0  8G21G17G03G09G23G01G29G31             0.000441778
  -2132042.442 7  21023262.372       -1585.736
   5262400.793 6  22122979.153       -4391.504
  -2893921.185 7  21323809.752       -1746.191
  -1036348.206 5  24295262.693        -939.220
   3261232.487 7  21266386.119       -3512.617
  -8242290.829 6  22090762.136         696.248
  -2066391.796 6  23372991.377        1210.046
  -1872641.121 6  23333157.427         225.356
 98  9 30 16 45 40.0000000  0  8G21G17G03G09G23G01G29G31             0.000456091
  -2116170.524 7  21026280.399       -1588.617
   5306331.434 6  22131340.089       -4394.524
  -2876429.708 7  21327139.865       -1752.173
  -1026937.774 5  24297048.770        -942.992
   3296367.578 7  21273072.878       -3514.417
  -8249232.997 6  22089443.476         692.598
  -2078478.222 5  23370685.596        1207.642
  -1874873.501 6  23332734.953         221.376
 98  9 30 16 45 50.0000000  0  8G21G17G03G09G23G01G29G31             0.000470423
  -2100271.149 7  21029307.584       -1591.776
   5350291.117 6  22139708.609       -4397.896
  -2858876.783 7  21330474.845       -1758.786
  -1017483.581 6  24298851.019        -948.027
   3331520.755 7  21279764.001       -3516.537
  -8256138.751 6  22088130.469         688.744
  -2090544.210 6  23368391.764        1205.618
  -1877061.529 6  23332319.992         216.736
 98  9 30 16 46  0.0000000  0  8G21G17G03G09G23G01G29G31             0.000484763
  -2084342.798 7  21032338.774       -1594.301
   5394282.131 6  22148078.488       -4400.526
  -2841260.453 7  21333834.078       -1764.915
  -1007983.197 6  24300666.503        -952.695
   3366692.490 7  21286452.191       -3518.129
  -8263008.201 6  22086827.765         685.176
  -2102588.701 6  23366101.079        1203.566
  -1879203.333 6  23331910.897         211.937
 98  9 30 16 46 10.0000000  0  8G21G17G03G09G23G01G29G31             0.000499089
  -2068387.754 7  21035369.249       -1596.915
   5438304.067 6  22156451.516       -4404.037
  -2823581.635 7  21337192.667       -1771.227
   -998438.247 6  24302483.632        -956.755
   3401880.200 7  21293149.968       -3519.603
  -8269843.320 6  22085521.125         681.693
  -2114614.286 6  23363807.317        1201.746
  -1881299.013 6  23331513.035         207.330
 98  9 30 16 46 20.0000000  0  8G21G17G03G09G23G01G29G31             0.000513404
  -2052403.418 7  21038416.252       -1599.831
   5482360.613 6  22164835.061       -4407.500
  -2805837.326 7  21340570.144       -1777.513
   -988846.561 5  24304305.984        -961.320
   3437086.130 7  21299846.386       -3521.449
  -8276641.864 6  22084227.649         678.300
  -2126618.331 6  23361523.716        1199.759
  -1883345.199 6  23331121.255         202.472
 98  9 30 16 46 30.0000000  0  8G21G17G03G09G23G01G29G31             0.000527723
  -2036390.645 7  21041464.185       -1603.133
   5526452.548 6  22173220.896       -4411.365
  -2788028.431 7  21343957.925       -1784.349
   -979209.175 6  24306138.210        -966.251
   3472310.335 7  21306552.177       -3523.505
  -8283405.472 6  22082941.973         674.414
  -2138601.695 6  23359241.617        1197.214
  -1885343.146 6  23330740.994         197.348
 98  9 30 16 46 40.0000000  0  8G21G17G03G09G23G01G29G31             0.000542059
  -2020349.753 7  21044517.126       -1605.559
   5570581.316 6  22181623.973       -4414.774
  -2770154.657 7  21347360.658       -1790.675
   -969526.750 6  24307980.452        -970.668
   3507552.984 7  21313261.687       -3525.290
  -8290135.675 6  22081660.015         671.538
  -2150565.081 6  23356972.754        1195.503
  -1887294.203 6  23330370.677         192.905
 98  9 30 16 46 50.0000000  0  8G21G17G03G09G23G01G29G31             0.000556391
  -2004282.175 7  21047574.931       -1607.962
   5614747.053 6  22190023.831       -4418.658
  -2752216.467 7  21350776.556       -1796.835
   -959801.532 6  24309824.411        -974.594
   3542813.605 7  21319965.832       -3526.938
  -8296833.991 6  22080385.499         668.811
  -2162510.073 6  23354702.173        1193.568
  -1889198.659 6  23330012.094         188.445
 98  9 30 16 47  0.0000000  0  8G21G17G03G09G23G01G29G31             0.000570704
  -1988187.002 7  21050635.456       -1610.936
   5658950.943 6  22198439.786       -4422.240
  -2734212.902 7  21354199.251       -1803.876
   -950032.671 6  24311680.605        -979.237
   3578094.333 7  21326683.642       -3529.138
  -8303497.918 6  22079119.712         664.651
  -2174436.015 6  23352431.164        1191.640
  -1891055.695 6  23329657.518         183.353
 98  9 30 16 47 10.0000000  0  8G21G17G03G09G23G01G29G31             0.000585029
  -1972065.061 7  21053701.204       -1613.748
   5703193.175 6  22206858.032       -4426.295
  -2716143.781 7  21357638.544       -1810.403
   -940220.203 5  24313550.320        -983.621
   3613395.762 7  21333398.448       -3531.451
  -8310126.087 6  22077859.506         661.179
  -2186342.498 6  23350159.367        1189.615
  -1892865.452 6  23329312.672         178.716
 98  9 30 16 47 20.0000000  0  8G21G17G03G09G23G01G29G31             0.000599373
  -1955915.114 7  21056775.895       -1616.371
   5747476.099 6  22215281.071       -4430.661
  -2698007.047 7  21361092.648       -1817.200
   -930362.701 5  24315429.695        -987.909
   3648718.255 7  21340121.409       -3533.224
  -8316716.233 6  22076602.448         657.135
  -2198227.525 5  23347899.876        1187.518
  -1894626.397 6  23328982.422         173.730
 98  9 30 16 47 30.0000000  0  8G21G17G03G09G23G01G29G31             0.000613703
  -1939739.354 7  21059854.950       -1619.177
   5791797.940 6  22223717.632       -4434.409
  -2679804.328 7  21364554.049       -1823.898
   -920460.875 6  24317316.152        -992.159
   3684059.668 7  21346843.870       -3535.307
  -8323269.300 6  22075358.053         653.288
  -2210092.249 5  23345646.181        1185.480
  -1896340.861 6  23328653.602         168.858
 98  9 30 16 47 40.0000000  0  8G21G17G03G09G23G01G29G31             0.000628023
  -1923537.634 7  21062940.086       -1621.611
   5836157.990 6  22232163.565       -4438.194
  -2661534.893 7  21368033.336       -1830.336
   -910514.254 6  24319210.265        -996.938
   3719419.797 7  21353575.990       -3537.080
  -8329784.005 6  22074115.519         649.612
  -2221937.288 6  23343392.986        1183.710
  -1898009.374 6  23328334.869         164.690
 98  9 30 16 47 50.0000000  0  8G21G17G03G09G23G01G29G31             0.000642357
  -1907311.320 7  21066022.933       -1624.301
   5880554.759 5  22240610.071       -4441.953
  -2643198.845 7  21371519.064       -1837.256
   -900523.063 6  24321110.173       -1001.733
   3754798.901 7  21360303.888       -3539.032
  -8336260.191 6  22072877.921         645.804
  -2233763.024 6  23341140.293        1181.252
  -1899632.359 6  23328029.016         160.133
 98  9 30 16 48  0.0000000  0  8G21G17G03G09G23G01G29G31             0.000656649
  -1891058.602 7  21069120.804       -1626.730
   5924989.945 6  22249058.509       -4445.529
  -2624794.510 7  21375018.527       -1843.965
   -890485.762 6  24323014.160       -1006.354
   3790198.827 7  21367044.736       -3541.183
  -8342696.921 6  22071654.847         641.882
  -2245567.631 6  23338892.750        1179.468
  -1901207.688 6  23327725.810         155.142
 98  9 30 16 48 10.0000000  0  8G21G17G03G09G23G01G29G31             0.000670985
  -1874778.507 7  21072217.031       -1629.773
   5969463.502 6  22257528.625       -4449.759
  -2606321.032 7  21378536.594       -1851.288
   -880401.563 6  24324935.961       -1011.169
   3825620.227 7  21373784.297       -3543.631
  -8349093.813 6  22070437.641         637.206
  -2257351.100 6  23336648.785        1176.772
  -1902734.736 6  23327438.558         149.899
 98  9 30 16 48 20.0000000  0  8G21G17G03G09G23G01G29G31             0.000685305
  -1858469.576 7  21075319.410       -1632.198
   6013975.412 6  22266000.028       -4452.931
  -2587777.571 7  21382063.459       -1857.768
   -870270.734 6  24326867.421       -1015.260
   3861064.819 7  21380530.368       -3545.439
  -8355449.153 6  22069227.803         633.694
  -2269112.234 6  23334408.540        1175.140
  -1904212.315 6  23327154.311         145.499
 98  9 30 16 48 30.0000000  0  8G21G17G03G09G23G01G29G31             0.000699615
  -1842136.296 7  21078428.299       -1634.964
   6058519.912 6  22274474.723       -4456.253
  -2569168.429 7  21385609.142       -1864.597
   -860098.021 5  24328795.661       -1019.933
   3896527.996 7  21387273.362       -3547.568
  -8361766.581 6  22068030.629         629.787
  -2280853.391 6  23332176.666        1173.183
  -1905645.475 6  23326880.295         141.150
 98  9 30 16 48 40.0000000  0  8G21G17G03G09G23G01G29G31             0.000713936
  -1825776.198 7  21081542.340       -1637.221
   6103098.157 6  22282958.718       -4459.219
  -2550491.494 7  21389163.266       -1870.947
   -849880.142 5  24330749.586       -1023.643
   3932013.596 7  21394028.305       -3549.684
  -8368043.950 6  22066833.240         625.908
  -2292571.337 6  23329951.518        1171.036
  -1907032.632 6  23326607.853         136.650
 98  9 30 16 48 50.0000000  0  8G21G17G03G09G23G01G29G31             0.000728237
  -1809391.975 7  21084658.527       -1639.781
   6147705.543 6  22291443.070       -4462.196
  -2531749.547 7  21392730.699       -1877.673
   -839619.727 5  24332691.778       -1028.146
   3967518.237 7  21400789.901       -3551.463
  -8374284.146 6  22065641.074         622.124
  -2304268.898 6  23327721.433        1168.695
  -1908376.082 6  23326357.734         132.216
 98  9 30 16 49  0.0000000  0  8G21G17G03G09G23G01G29G31             0.000742579
  -1792981.631 7  21087781.225       -1642.610
   6192343.270 6  22299939.586       -4465.173
  -2512939.935 7  21396308.792       -1884.627
   -829314.255 5  24334660.370       -1032.832
   4003043.771 7  21407545.488       -3553.738
  -8380484.410 6  22064462.932         618.057
  -2315942.658 5  23325498.145        1166.254
  -1909672.016 6  23326115.127         127.213
 98  9 30 16 49 10.0000000  0  8G21G17G03G09G23G01G29G31             0.000756898
  -1776545.357 7  21090907.357       -1644.885
   6237009.229 5  22308440.680       -4467.838
  -2494064.088 7  21399900.620       -1890.833
   -818962.946 6  24336630.036       -1037.512
   4038589.219 7  21414310.662       -3555.637
  -8386644.949 6  22063288.008         614.172
  -2327593.077 5  23323275.644        1163.916
  -1910920.934 6  23325881.463         122.472
 98  9 30 16 49 20.0000000  0  8G21G17G03G09G23G01G29G31             0.000771175
  -1760082.330 7  21094040.287       -1647.861
   6281703.178 5  22316941.631       -4470.714
  -2475122.902 7  21403503.468       -1897.513
   -808563.608 5  24338600.775       -1042.725
   4074154.955 7  21421080.700       -3557.704
  -8392765.903 6  22062130.113         610.210
  -2339220.349 5  23321064.375        1161.505
  -1912122.385 6  23325643.650         117.889
 98  9 30 16 49 30.0000000  0  8G21G17G03G09G23G01G29G31             0.000785499
  -1743592.070 7  21097178.868       -1650.349
   6326425.535 6  22325460.040       -4473.643
  -2456115.802 7  21407116.761       -1904.100
   -798114.225 5  24340586.109       -1047.493
   4109741.412 7  21427850.596       -3559.767
  -8398847.911 6  22060975.151         606.230
  -2350824.285 5  23318861.049        1159.286
  -1913274.842 6  23325425.870         112.929
 98  9 30 16 49 40.0000000  0  8G21G17G03G09G23G01G29G31             0.000799850
  -1727074.826 7  21100323.745       -1653.296
   6371175.143 6  22333980.237       -4476.622
  -2437042.571 7  21410748.871       -1911.061
   -787614.582 5  24342594.697       -1052.669
   4145349.484 7  21434627.075       -3562.300
  -8404891.529 6  22059825.340         602.321
  -2362405.787 5  23316655.075        1156.830
  -1914378.706 6  23325222.828         107.864
 98  9 30 16 49 50.0000000  0  8G21G17G03G09G23G01G29G31             0.000814165
  -1710533.677 7  21103473.201       -1655.411
   6415948.213 6  22342496.355       -4478.423
  -2417905.529 7  21414391.069       -1917.067
   -777068.379 5  24344596.629       -1057.178
   4180977.094 7  21441401.120       -3563.889
  -8410901.078 6  22058679.177         599.347
  -2373968.056 5  23314453.822        1155.443
  -1915437.059 6  23325022.504         103.491
 98  9 30 16 50  0.0000000  0  8G21G17G03G09G23G01G29G31             0.000828486
  -1693967.617 7  21106623.587       -1657.921
   6460745.673 6  22351014.906       -4481.177
  -2398704.090 7  21418044.427       -1923.418
   -766475.651 5  24346611.512       -1061.835
   4216625.348 7  21448190.476       -3565.755
  -8416876.796 6  22057540.670         595.993
  -2385510.278 5  23312262.228        1153.261
  -1916449.374 6  23324830.552          99.132
 98  9 30 16 50 10.0000000  0  8G21G17G03G09G23G01G29G31             0.000842797
  -1677376.759 7  21109784.061       -1660.451
   6505567.881 6  22359547.123       -4483.612
  -2379438.489 7  21421708.804       -1929.840
   -755835.880 5  24348640.990       -1066.415
   4252294.480 7  21454978.115       -3568.140
  -8422819.237 6  22056412.752         592.426
  -2397032.198 5  23310067.701        1151.192
  -1917415.348 6  23324643.393          94.370
 98  9 30 16 50 20.0000000  0  8G21G17G03G09G23G01G29G31             0.000857116
  -1660759.227 7  21112943.749       -1663.046
   6550416.173 6  22368082.916       -4485.870
  -2360106.634 7  21425392.212       -1936.435
   -745146.483 6  24350671.685       -1071.349
   4287985.402 7  21461768.974       -3570.099
  -8428725.154 6  22055290.844         588.904
  -2408531.945 6  23307884.765        1149.503
  -1918332.881 6  23324468.039          89.706
 98  9 30 16 50 30.0000000  0  8G21G17G03G09G23G01G29G31             0.000871454
  -1644116.846 7  21116108.373       -1665.628
   6595288.332 6  22376622.215       -4488.199
  -2340710.905 7  21429082.417       -1942.853
   -734409.997 5  24352717.046       -1075.900
   4323694.999 7  21468563.124       -3571.904
  -8434596.003 6  22054172.656         585.365
  -2420010.287 6  23305699.897        1146.716
  -1919203.127 6  23324308.068          84.818
 98  9 30 16 50 40.0000000  0  8G21G17G03G09G23G01G29G31             0.000885780
  -1627449.143 7  21119279.149       -1668.118
   6640186.593 5  22385154.003       -4491.463
  -2321250.595 7  21432785.572       -1949.289
   -723624.172 6  24354769.633       -1080.887
   4359424.345 7  21475362.282       -3573.996
  -8440430.047 6  22053066.631         581.886
  -2431465.859 6  23303523.901        1144.525
  -1920023.975 6  23324152.461          79.662
 98  9 30 16 50 50.0000000  0  8G21G17G03G09G23G01G29G31             0.000900084
  -1610754.850 7  21122459.012       -1670.633
   6685113.516 5  22393715.840       -4494.217
  -2301725.022 7  21436503.680       -1955.881
   -712786.813 5  24356830.449       -1085.924
   4395175.298 7  21482167.021       -3576.152
  -8446226.501 6  22051962.395         578.178
  -2442899.046 5  23301347.833        1142.642
  -1920793.891 6  23324002.363          74.855
 98  9 30 16 51  0.0000000  0  8G21G17G03G09G23G01G29G31             0.000914383
  -1594033.503 7  21125642.310       -1673.715
   6730069.288 6  22402270.594       -4497.227
  -2282134.536 7  21440226.081       -1962.523
   -701898.487 5  24358896.774       -1091.312
   4430947.029 7  21488971.903       -3578.262
  -8451984.966 6  22050860.593         573.750
  -2454311.669 5  23299167.759        1140.059
  -1921513.033 6  23323864.643          69.366
 98  9 30 16 51 10.0000000  0  8G21G17G03G09G23G01G29G31             0.000928711
  -1577284.508 7  21128830.830       -1675.929
   6775056.110 6  22410828.782       -4500.089
  -2262477.412 7  21443968.872       -1968.907
   -690958.284 5  24360982.416       -1096.129
   4466739.621 7  21495785.155       -3580.078
  -8457703.655 6  22049771.667         570.271
  -2465702.428 5  23297002.064        1138.307
  -1922180.414 6  23323735.938          64.702
 98  9 30 16 51 20.0000000  0  8G21G17G03G09G23G01G29G31             0.000943027
  -1560510.867 7  21132020.567       -1678.818
   6820071.122 6  22419394.698       -4503.264
  -2242755.961 7  21447718.746       -1975.555
   -679968.312 5  24363072.709       -1101.347
   4502550.298 7  21502598.837       -3582.228
  -8463385.406 6  22048693.116         566.270
  -2477074.987 5  23294830.575        1136.206
  -1922799.573 6  23323618.823          59.407
 98  9 30 16 51 30.0000000  0  8G21G17G03G09G23G01G29G31             0.000957355
  -1543708.316 7  21135217.172       -1681.837
   6865119.701 5  22427962.401       -4506.416
  -2222966.079 7  21451485.578       -1982.442
   -668924.147 5  24365176.953       -1106.989
   4538383.544 7  21509420.533       -3584.674
  -8469025.922 6  22047620.575         562.073
  -2488425.541 5  23292669.961        1134.021
  -1923366.905 6  23323510.508          54.207
 98  9 30 16 51 40.0000000  0  8G21G17G03G09G23G01G29G31             0.000971708
  -1526878.157 7  21138417.927       -1684.177
   6910201.201 6  22436551.498       -4509.683
  -2203107.910 7  21455265.072       -1989.026
   -657828.363 6  24367299.585       -1111.940
   4574237.581 7  21516240.224       -3586.203
  -8474626.271 6  22046551.683         558.365
  -2499754.895 5  23290516.072        1132.091
  -1923883.687 6  23323409.562          49.622
 98  9 30 16 51 50.0000000  0  8G21G17G03G09G23G01G29G31             0.000986041
  -1510022.867 7  21141626.623       -1686.662
   6955313.367 6  22445123.351       -4512.619
  -2183182.833 7  21459059.663       -1995.778
   -646685.406 6  24369414.274       -1116.672
   4610109.749 7  21523065.711       -3588.112
  -8480187.697 6  22045497.601         554.361
  -2511064.073 5  23288368.980        1130.019
  -1924352.236 6  23323325.215          44.629
 98  9 30 16 52  0.0000000  0  8G21G17G03G09G23G01G29G31             0.000000371
  -3068559.155 7  20845043.755       -1689.561
   5425041.339 6  22153928.504       -4515.965
  -3738608.727 7  21163069.761       -2002.647
  -2210913.973 5  24071746.449       -1121.642
   3070583.124 7  21230102.714       -3589.941
 -10061130.100 6  21744652.387         550.163
  -4097771.955 5  22986429.073        1127.544
  -3500192.016 6  23023455.772          39.557
 98  9 30 16 52 10.0000000  0  8G21G17G03G09G23G01G29G31             0.000014690
  -3051649.530 7  20848264.257       -1692.218
   5470216.853 6  22162528.119       -4519.363
  -3718550.220 7  21166887.533       -2009.027
  -2199675.938 5  24073888.899       -1126.118
   3106489.785 7  21236941.293       -3591.499
 -10066610.949 6  21743605.747         546.301
  -4109035.714 6  22984288.278        1125.555
  -3500561.713 6  23023380.655          34.865
 98  9 30 16 52 20.0000000  0  8G21G17G03G09G23G01G29G31             0.000028990
  -3034712.757 7  20851489.124       -1695.320
   5515423.338 6  22171131.597       -4522.620
  -3698425.867 7  21170718.042       -2016.138
  -2188390.578 5  24076031.994       -1131.267
   3142411.979 7  21243769.284       -3593.243
 -10072049.923 6  21742575.777         541.473
  -4120278.611 5  22982138.683        1123.041
  -3500881.531 6  23023316.485          29.451
 98  9 30 16 52 30.0000000  0  8G21G17G03G09G23G01G29G31             0.000043271
  -3017745.663 7  20854719.571       -1698.100
   5560663.470 6  22179735.790       -4525.975
  -3678231.549 7  21174559.068       -2022.954
  -2177055.523 5  24078176.446       -1135.548
   3178352.783 7  21250615.090       -3594.913
 -10077443.735 6  21741546.308         537.354
  -4131498.269 5  22980007.403        1121.077
  -3501148.157 6  23023257.896          24.420
 98  9 30 16 52 40.0000000  0  8G21G17G03G09G23G01G29G31             0.000057675
  -3000750.746 7  20857951.449       -1701.402
   5605934.939 6  22188353.577       -4529.581
  -3657970.206 7  21178413.902       -2030.026
  -2165675.064 5  24080359.679       -1140.955
   3214309.570 7  21257456.247       -3597.168
 -10082796.218 6  21740525.783         532.800
  -4142697.757 6  22977880.703        1118.347
  -3501365.393 6  23023229.714          18.806
 98  9 30 16 52 50.0000000  0  8G21G17G03G09G23G01G29G31             0.000071982
  -2983727.140 7  20861192.914       -1703.801
   5651240.997 5  22196972.150       -4532.336
  -3637641.075 7  21182283.259       -2036.343
  -2154246.966 5  24082531.605       -1145.044
   3250285.762 7  21264299.477       -3598.703
 -10088106.415 6  21739516.417         528.961
  -4153875.932 6  22975745.987        1117.094
  -3501531.572 6  23023197.024          14.258
 98  9 30 16 53  0.0000000  0  8G21G17G03G09G23G01G29G31             0.000086290
  -2966673.316 7  20864437.670       -1706.888
   5696582.970 5  22205590.009       -4535.942
  -3617242.425 7  21186163.277       -2043.465
  -2142768.844 5  24084713.764       -1150.537
   3286283.727 7  21271151.079       -3600.894
 -10093372.615 6  21738514.779         524.806
  -4165031.814 5  22973623.795        1114.519
  -3501646.720 6  23023170.129           9.238
 98  9 30 16 53 10.0000000  0  8G21G17G03G09G23G01G29G31             0.000100615
  -2949592.533 7  20867687.363       -1709.373
   5741956.069 6  22214231.835       -4538.728
  -3596777.594 7  21190058.749       -2049.666
  -2131245.836 6  24086908.084       -1154.324
   3322299.432 7  21278005.756       -3602.333
 -10098599.409 6  21737524.016         520.583
  -4176169.215 5  22971505.392        1113.040
  -3501714.893 6  23023158.044           4.675
 98  9 30 16 53 20.0000000  0  8G21G17G03G09G23G01G29G31             0.000114942
  -2932486.294 7  20870941.277       -1712.129
   5787359.742 6  22222881.603       -4542.224
  -3576246.655 7  21193969.245       -2056.644
  -2119678.040 5  24089104.552       -1159.529
   3358332.037 7  21284862.151       -3604.366
 -10103787.641 6  21736532.538         516.772
  -4187287.494 5  22969396.721        1111.005
  -3501736.706 6  23023156.692          -0.374
 98  9 30 16 53 30.0000000  0  8G21G17G03G09G23G01G29G31             0.000129246
  -2915353.790 7  20874201.630       -1714.745
   5832795.225 6  22231529.153       -4545.207
  -3555648.683 7  21197887.540       -2063.283
  -2108063.682 5  24091316.829       -1163.432
   3394383.531 7  21291722.910       -3606.073
 -10108937.285 6  21735552.721         513.118
  -4198385.601 5  22967281.610        1108.952
  -3501710.908 7  23023158.200          -5.112
 98  9 30 16 53 40.0000000  0  8G21G17G03G09G23G01G29G31             0.000143574
  -2898196.492 7  20877469.566       -1717.119
   5878260.586 6  22240175.487       -4548.555
  -3534987.707 7  21201819.572       -2069.485
  -2096404.900 5  24093542.488       -1168.246
   3430452.010 7  21298587.104       -3607.904
 -10114050.796 6  21734580.773         509.540
  -4209465.666 6  22965173.726        1106.972
  -3501639.800 7  23023174.805          -9.525
 98  9 30 16 53 50.0000000  0  8G21G17G03G09G23G01G29G31             0.000157819
  -2881013.715 7  20880738.862       -1719.331
   5923757.297 6  22248825.683       -4550.768
  -3514263.259 7  21205760.045       -2075.496
  -2084701.231 4  24095741.887       -1171.672
   3466538.580 7  21305450.510       -3609.300
 -10119126.789 6  21733616.624         506.224
  -4220526.123 6  22963066.985        1105.467
  -3501523.246 6  23023195.702         -13.770
 98  9 30 16 54  0.0000000  0  8G21G17G03G09G23G01G29G31             0.000172160
  -2863808.209 7  20884011.949       -1721.486
   5969282.258 6  22257495.841       -4553.682
  -3493477.085 7  21209715.686       -2081.294
  -2072954.090 5  24097996.593       -1176.910
   3502641.816 7  21312324.863       -3611.070
 -10124166.876 6  21732658.128         502.611
  -4231567.787 6  22960964.610        1103.613
  -3501362.510 7  23023228.905         -18.243
 98  9 30 16 54 10.0000000  0  8G21G17G03G09G23G01G29G31             0.000186445
  -2846577.886 7  20887289.903       -1724.632
   6014837.659 6  22266169.076       -4557.179
  -3472628.351 7  21213683.205       -2088.274
  -2061159.123 5  24100243.071       -1181.783
   3538764.638 7  21319193.278       -3613.544
 -10129168.997 6  21731703.639         498.271
  -4242588.942 5  22958859.516        1101.144
  -3501154.615 7  23023263.183         -23.415
 98  9 30 16 54 20.0000000  0  8G21G17G03G09G23G01G29G31             0.000200744
  -2829321.200 7  20890571.148       -1727.237
   6060427.223 6  22274841.382       -4561.116
  -3451714.589 7  21217663.601       -2094.798
  -2049313.311 4  24102490.695       -1187.306
   3574910.155 7  21326070.995       -3616.086
 -10134130.955 6  21730753.085         494.243
  -4253588.551 5  22956771.236        1098.630
  -3500897.428 6  23023314.416         -28.168
 98  9 30 16 54 30.0000000  0  8G21G17G03G09G23G01G29G31             0.000215047
  -2812041.428 7  20893861.334       -1729.132
   6106048.628 6  22283520.482       -4563.634
  -3430738.651 7  21221654.801       -2100.952
  -2037419.680 5  24104761.355       -1191.951
   3611075.649 7  21332955.364       -3617.636
 -10139055.859 6  21729816.123         490.891
  -4264571.046 5  22954680.235        1097.433
  -3500594.836 7  23023373.090         -32.686
 98  9 30 16 54 40.0000000  0  8G21G17G03G09G23G01G29G31             0.000229364
  -2794737.837 7  20897152.094       -1731.451
   6151703.189 6  22292210.960       -4566.922
  -3409699.596 7  21225656.517       -2106.636
  -2025476.461 5  24107039.027       -1196.587
   3647262.273 7  21339844.098       -3619.447
 -10143943.880 6  21728885.315         487.535
  -4275533.447 6  22952603.258        1095.796
  -3500245.584 7  23023441.708         -37.045
 98  9 30 16 54 50.0000000  0  8G21G17G03G09G23G01G29G31             0.000243656
  -2777408.694 7  20900451.225       -1734.071
   6197392.437 6  22300902.583       -4570.558
  -3388597.106 7  21229673.403       -2113.213
  -2013482.14714  24109326.359       -1202.185
   3683471.012 7  21346732.689       -3621.869
 -10148793.631 6  21727966.313         483.292
  -4286472.188 6  22950525.209        1093.228
  -3499848.530 6  23023513.332         -42.017
 98  9 30 16 55  0.0000000  0  8G21G17G03G09G23G01G29G31             0.000257908
  -2760056.776 7  20903756.580       -1736.456
   6243113.479 6  22309609.444       -4573.703
  -3367435.385 7  21233702.020       -2119.118
  -2001438.285 4  24111605.175       -1206.676
   3719697.620 7  21353627.719       -3623.805
 -10153607.434 6  21727053.606         479.861
  -4297388.849 6  22948444.585        1090.446
  -3499405.700 6  23023599.551         -46.800
 98  9 30 16 55 10.0000000  0  7G21G17G03G23G01G29G31                0.000272234
  -2742683.561 7  20907061.219       -1738.390
   6288863.062 6  22318310.367       -4576.233
  -3346215.583 7  21237741.155       -2124.992
   3755939.507 7  21360526.826       -3624.960
 -10158386.522 6  21726146.121         476.431
  -4308285.310 6  22946365.533        1088.950
  -3498918.395 6  23023688.059         -51.033
 98  9 30 16 55 20.0000000  0  7G21G17G03G23G01G29G31                0.000286553
  -2725288.639 7  20910372.512       -1740.895
   6334639.116 5  22327023.953       -4578.923
  -3324937.469 7  21241789.234       -2131.125
   3792194.695 7  21367425.790       -3626.584
 -10163131.689 6  21725240.283         472.522
  -4319161.652 6  22944296.714        1086.201
  -3498386.791 6  23023795.742         -55.927
 98  9 30 16 55 30.0000000  0  7G21G17G03G23G01G29G31                0.000300832
  -2707869.419 7  20913685.522       -1742.787
   6380444.845 5  22335734.534       -4581.764
  -3303598.149 7  21245853.266       -2136.526
   3828465.122 6  21374322.178       -3627.451
 -10167838.142 6  21724345.033         469.209
  -4330013.684 6  22942233.617        1084.511
  -3497806.773 6  23023906.072         -60.158
 98  9 30 16 55 40.0000000  0  7G21G17G03G23G01G29G31                0.000315138
  -2690431.135 7  20917002.253       -1745.467
   6426274.334 6  22344455.275       -4584.503
  -3282203.811 7  21249919.017       -2142.674
   3864744.885 6  21381221.644       -3629.100
 -10172510.790 6  21723455.507         465.456
  -4340846.401 6  22940175.314        1082.094
  -3497183.703 6  23024026.275         -64.784
 98  9 30 16 55 50.0000000  0  7G21G17G03G23G01G29G31                0.000329381
  -2672969.571 7  20920325.494       -1747.563
   6472130.320 6  22353176.946       -4587.019
  -3260751.838 7  21254005.444       -2148.422
   3901037.038 7  21388138.136       -3630.222
 -10177145.814 6  21722571.705         461.360
  -4351656.359 6  22938114.078        1079.715
  -3496514.439 6  23024151.058         -69.608
 98  9 30 16 56  0.0000000  0  7G21G17G03G23G01G29G31                0.000343668
  -2655484.880 7  20923651.812       -1749.443
   6518013.145 6  22361914.213       -4589.470
  -3239241.438 7  21258096.449       -2153.979
   3937341.326 7  21395040.748       -3630.722
 -10181741.864 6  21721696.917         457.973
  -4362442.866 5  22936053.271        1077.739
  -3495798.325 6  23024287.430         -73.766
 98  9 30 16 56 10.0000000  0  7G21G17G03G23G01G29G31                0.000357965
  -2637977.966 7  20926983.210       -1751.915
   6563920.855 6  22370653.771       -4592.189
  -3217672.215 7  21262199.404       -2160.138
   3973656.666 7  21401951.589       -3632.185
 -10186299.929 6  21720831.932         453.961
  -4373207.315 5  22934009.277        1075.461
  -3495034.240 6  23024433.677         -79.050
 98  9 30 16 56 20.0000000  0  7G21G17G03G23G01G29G31                0.000372231
  -2620447.129 7  20930321.333       -1754.314
   6609854.913 5  22379395.832       -4594.891
  -3196042.589 7  21266313.232       -2165.776
   4009983.348 7  21408863.360       -3633.224
 -10190818.718 6  21719966.875         450.146
  -4383948.881 6  22931965.855        1073.700
  -3494220.644 6  23024583.930         -84.119
 98  9 30 16 56 30.0000000  0  7G21G17G03G23G01G29G31                0.000386505
  -2602894.646 7  20933663.820       -1756.456
   6655813.598 6  22388143.331       -4597.150
  -3174354.663 7  21270444.376       -2171.829
   4046318.416 7  21415784.216       -3634.195
 -10195300.990 6  21719112.263         446.284
  -4394670.621 6  22929926.584        1071.248
  -3493360.669 6  23024748.850         -88.573
 98  9 30 16 56 40.0000000  0  7G21G17G03G23G01G29G31                0.000400759
  -2585317.327 7  20937009.598       -1759.026
   6701797.803 6  22396890.829       -4599.663
  -3152605.052 7  21274582.388       -2178.329
   4082664.456 7  21422697.990       -3635.217
 -10199743.416 6  21718272.032         442.506
  -4405369.002 6  22927890.389        1068.729
  -3492451.985 6  23024920.137         -93.459
 98  9 30 16 56 50.0000000  0  7G21G17G03G23G01G29G31                0.000415032
  -2567717.648 7  20940357.952       -1761.002
   6747803.531 6  22405648.344       -4601.541
  -3130795.431 7  21278734.852       -2183.968
   4119019.605 7  21429614.911       -3635.870
 -10204148.018 6  21717432.803         438.762
  -4416044.540 6  22925856.770        1066.805
  -3491496.455 6  23025102.585         -97.713
 98  9 30 16 57  0.0000000  0  7G21G17G03G23G01G29G31                0.000429290
  -2550096.041 7  20943707.522       -1763.280
   6793829.612 6  22414400.636       -4604.039
  -3108926.021 7  21282897.189       -2190.076
   4155384.183 7  21436535.053       -3637.155
 -10208514.955 6  21716604.521         434.952
  -4426697.837 6  22923830.234        1064.116
  -3490494.906 6  23025294.192        -102.805
 98  9 30 16 57 10.0000000  0  8G21G17G03G09G23G01G29G31             0.000443517
  -2532450.390 7  20947063.961       -1765.848
   6839878.826 6  22423163.589       -4606.561
  -3086993.910 7  21287070.474       -2196.596
       515.75915  24142239.664       -1268.367
   4191761.058 7  21443459.130       -3638.544
 -10212841.874 6  21715780.102         430.724
  -4437328.340 6  22921812.927        1061.861
  -3489445.222 6  23025496.745        -107.559
 98  9 30 16 57 20.0000000  0  8G21G17G03G09G23G01G29G31             0.000457720
  -2514780.404 7  20950426.338       -1767.877
   6885952.628 6  22431932.908       -4608.144
  -3064996.939 7  21291255.420       -2202.702
     13220.222 5  24144641.396       -1272.551
   4228153.349 7  21450389.359       -3639.595
 -10217127.158 6  21714968.490         426.907
  -4447935.884 6  22919790.611        1059.943
  -3488346.764 6  23025700.442        -111.891
 98  9 30 16 57 30.0000000  0  8G21G17G03G09G23G01G29G31             0.000471979
  -2497088.637 7  20953791.792       -1770.421
   6932048.684 5  22440695.503       -4611.143
  -3042936.303 7  21295453.245       -2209.543
     25968.915 5  24147064.450       -1278.015
   4264558.801 7  21457309.860       -3641.556
 -10221372.312 6  21714160.385         422.353
  -4458523.403 5  22917772.804        1057.581
  -3487202.939 6  23025919.666        -117.104
 98  9 30 16 57 40.0000000  0  8G21G17G03G09G23G01G29G31             0.000486279
  -2479374.811 7  20957163.040       -1772.522
   6978169.778 5  22449478.345       -4613.574
  -3020810.806 7  21299662.874       -2215.591
     38763.77614  24149511.470       -1281.805
   4300978.756 7  21464241.807       -3643.005
 -10225575.071 6  21713358.145         418.282
  -4469088.396 5  22915771.523        1055.739
  -3486012.220 6  23026149.191        -121.660
 98  9 30 16 57 50.0000000  0  7G21G17G03G23G01G29G31                0.000500539
  -2461639.743 7  20960541.014       -1774.709
   7024315.491 5  22458255.965       -4615.910
  -2998621.652 7  21303884.095       -2222.116
   4337413.338 7  21471171.965       -3644.438
 -10229736.982 6  21712563.418         414.218
  -4479632.933 6  22913769.097        1053.670
  -3484776.458 6  23026383.152        -125.981
 98  9 30 16 58  0.0000000  0  7G21G17G03G23G01G29G31                0.000514770
  -2443881.266 7  20963922.709       -1777.367
   7070487.928 5  22467044.389       -4619.101
  -2976366.286 7  21308119.625       -2229.128
   4373865.469 7  21478109.636       -3646.452
 -10233856.855 6  21711778.636         409.833
  -4490156.148 6  22911764.096        1051.138
  -3483493.939 6  23026629.563        -131.061
 98  9 30 16 58 10.0000000  0  7G21G17G03G23G01G29G31                0.000529054
  -2426099.632 7  20967303.116       -1779.375
   7116688.350 6  22475851.056       -4621.803
  -2954042.964 7  21312366.388       -2235.957
   4410336.423 7  21485049.454       -3648.041
 -10237933.659 6  21710998.719         405.478
  -4500657.980 6  22909766.607        1049.098
  -3482163.280 6  23026885.847        -135.675
 98  9 30 16 58 20.0000000  0  7G21G17G03G23G01G29G31                0.000543247
  -2408295.739 7  20970690.248       -1781.856
   7162916.010 6  22484641.983       -4624.174
  -2931652.181 7  21316626.529       -2242.570
   4446825.484 7  21491995.853       -3649.889
 -10241968.608 6  21710236.331         401.373
  -4511139.316 6  22907771.694        1047.221
  -3480784.848 6  23027146.925        -140.428
 98  9 30 16 58 30.0000000  0  7G21G17G03G23G01G29G31                0.000557391
  -2390472.886 7  20974084.033       -1783.665
   7209167.273 6  22493435.843       -4626.624
  -2909197.759 7  21320902.410       -2248.932
   4483329.239 7  21498944.900       -3651.572
 -10245965.372 6  21709475.874         397.546
  -4521603.662 6  22905780.000        1045.399
  -3479362.829 6  23027408.073        -144.630
 98  9 30 16 58 40.0000000  0  7G21G17G03G23G01G29G31                0.000571618
  -2372626.494 7  20977481.109       -1785.840
   7255446.685 6  22502248.091       -4629.192
  -2886675.993 7  21325191.671       -2255.725
   4519852.590 6  21505892.087       -3653.369
 -10249919.045 6  21708726.007         393.205
  -4532046.370 6  22903792.456        1043.459
  -3477893.467 6  23027692.618        -149.380
 98  9 30 16 58 50.0000000  0  7G21G17G03G23G01G29G31                0.000585811
  -2354757.379 7  20980875.896       -1787.866
   7301752.560 5  22511052.899       -4631.876
  -2864087.808 7  21329484.223       -2261.899
   4556394.402 6  21512845.569       -3654.887
 -10253831.028 6  21707983.651         389.537
  -4542468.060 6  22901811.279        1041.426
  -3476378.178 6  23027979.523        -153.482
 98  9 30 16 59  0.0000000  0  7G21G17G03G23G01G29G31                0.000599971
  -2336871.417 7  20984281.487       -1789.998
   7348079.563 5  22519855.488       -4634.464
  -2841439.235 7  21333795.662       -2268.394
   4592948.426 7  21519806.636       -3656.671
 -10257707.765 6  21707241.438         385.579
  -4552874.541 6  22899828.600        1039.453
  -3474822.037 6  23028280.022        -158.292
 98  9 30 16 59 10.0000000  0  7G21G17G03G23G01G29G31                0.000614194
  -2318963.125 7  20987693.946       -1792.171
   7394434.337 6  22528697.141       -4636.926
  -2818725.748 7  21338118.263       -2274.763
   4629519.364 7  21526760.047       -3658.084
 -10261544.181 6  21706508.956         381.677
  -4563261.301 6  22897852.646        1037.637
  -3473219.166 6  23028584.528        -162.894
 98  9 30 16 59 20.0000000  0  7G21G17G03G23G01G29G31                0.000628383
  -2301031.875 7  20991103.257       -1794.008
   7440817.332 6  22537530.710       -4639.711
  -2795948.661 7  21342452.382       -2280.618
   4666105.788 7  21533719.324       -3659.033
 -10265340.819 6  21705790.997         378.043
  -4573630.224 5  22895875.761        1036.559
  -3471569.382 6  23028898.620        -167.355
 98  9 30 16 59 30.0000000  0  7G21G17G03G23G01G29G31                0.000642514
  -2283081.097 7  20994520.008       -1796.178
   7487225.649 6  22546356.265       -4642.145
  -2773111.131 7  21346794.801       -2286.963
   4702704.158 6  21540690.263       -3660.492
 -10269100.348 6  21705076.258         374.173
  -4583983.381 5  22893903.313        1034.467
  -3469875.311 7  23029217.435        -171.765
 98  9 30 16 59 40.0000000  0  7G21G17G03G23G01G29G31                0.000656673
  -2265110.906 7  20997940.266       -1798.210
   7533658.920 6  22555191.551       -4644.522
  -2750212.611 7  21351149.598       -2293.130
   4739313.154 6  21547651.973       -3661.691
 -10272822.982 6  21704372.108         370.184
  -4594320.221 5  22891938.449        1032.359
  -3468135.655 6  23029547.626        -176.596
 98  9 30 16 59 50.0000000  0  7G21G17G03G23G01G29G31                0.000670799
  -2247122.803 7  21001363.957       -1799.998
   7580115.054 6  22564028.554       -4647.559
  -2727256.035 7  21355522.137       -2298.854
   4775929.722 7  21554621.481       -3662.279
 -10276511.668 7  21703668.314         367.134
  -4604642.205 6  22889971.509        1031.425
  -3466351.251 6  23029884.900        -181.029
 98  9 30 17  0  0.0000000  0  7G21G17G03G23G01G29G31                0.000684965
  -2229110.282 7  21004790.153       -1802.473
   7626600.082 6  22572871.638       -4650.146
  -2704235.732 7  21359903.691       -2305.202
   4812561.089 7  21561592.564       -3664.049
 -10280161.422 7  21702973.609         363.084
  -4614944.300 5  22888010.151        1029.269
  -3464514.870 6  23030239.632        -186.317
 98  9 30 17  0 10.0000000  0  7G21G17G03G23G01G29G31                0.000699117
  -2211074.374 7  21008220.785       -1804.950
   7673112.989 5  22581724.596       -4653.082
  -2681152.897 7  21364299.484       -2311.745
   4849206.668 7  21568566.079       -3665.517
 -10283773.268 6  21702283.481         359.218
  -4625226.987 5  22886058.952        1027.237
  -3462626.720 6  23030595.151        -191.595
 98  9 30 17  0 20.0000000  0  7G21G17G03G23G01G29G31                0.000713247
  -2193015.407 7  21011663.365       -1807.082
   7719654.448 5  22590576.195       -4655.783
  -2658007.118 7  21368701.715       -2317.613
   4885866.145 7  21575546.176       -3666.447
 -10287347.030 6  21701604.228         355.846
  -4635488.800 6  22884104.963        1025.320
  -3460686.435 6  23030966.981        -196.413
 98  9 30 17  0 30.0000000  0  7G21G17G03G23G01G29G31                0.000727402
  -2174934.426 7  21015099.077       -1809.125
   7766222.370 6  22599443.675       -4657.889
  -2634800.969 7  21373120.830       -2323.586
   4922537.154 6  21582522.910       -3667.531
 -10290884.491 6  21700929.627         352.078
  -4645730.056 5  22882150.044        1023.470
  -3458696.157 6  23031344.321        -201.482
 98  9 30 17  0 40.0000000  0  7G21G17G03G23G01G29G31                0.000741551
  -2156831.880 7  21018541.656       -1811.005
   7812815.300 5  22608305.290       -4660.172
  -2611535.595 7  21377544.382       -2329.208
   4959218.196 7  21589505.439       -3668.414
 -10294385.735 6  21700263.109         348.563
  -4655950.731 5  22880204.998        1021.635
  -3456656.489 6  23031734.825        -206.073
 98  9 30 17  0 50.0000000  0  7G21G17G03G23G01G29G31                0.000755680
  -2138707.044 7  21021992.822       -1813.774
   7859433.911 5  22617171.842       -4663.380
  -2588210.026 7  21381980.598       -2335.901
   4995909.874 7  21596484.392       -3669.978
 -10297849.202 6  21699604.606         344.276
  -4666149.771 5  22878267.465        1018.787
  -3454566.902 6  23032131.055        -211.761
 98  9 30 17  1  0.0000000  0  7G21G17G03G23G01G29G31                0.000769825
  -2120557.389 7  21025449.283       -1816.219
   7906081.218 5  22626047.480       -4666.241
  -2564821.743 7  21386433.269       -2342.041
   5032613.535 7  21603465.419       -3670.845
 -10301273.496 6  21698947.318         340.538
  -4676324.275 5  22876333.796        1016.475
  -3452424.161 6  23032539.303        -216.925
 98  9 30 17  1 10.0000000  0  7G21G17G03G23G01G29G31                0.000784016
  -2102384.692 7  21028906.028       -1818.317
   7952756.854 6  22634943.508       -4668.852
  -2541371.085 7  21390900.750       -2348.091
   5069327.862 7  21610450.237       -3671.812
 -10304659.195 6  21698303.910         336.852
  -4686474.813 5  22874407.496        1014.003
  -3450228.075 6  23032958.569        -222.226
 98  9 30 17  1 20.0000000  0  7G21G17G03G23G01G29G31                0.000798171
  -2084189.539 7  21032364.778       -1820.908
   7999461.381 6  22643831.023       -4671.680
  -2517858.635 7  21395374.241       -2354.626
   5106053.304 7  21617446.504       -3673.361
 -10308005.472 6  21697669.303         332.521
  -4696601.535 6  22872483.056        1011.351
  -3447977.699 6  23033387.423        -228.125
 98  9 30 17  1 30.0000000  0  7G21G17G03G23G01G29G31                0.000812295
  -2065973.516 7  21035832.041       -1822.481
   8046193.908 5  22652722.258       -4675.090
  -2494286.070 7  21399853.383       -2360.175
   5142788.792 7  21624429.606       -3674.110
 -10311313.251 6  21697041.063         328.986
  -4706705.302 5  22870555.253        1009.204
  -3445674.235 6  23033821.428        -233.109
 98  9 30 17  1 40.0000000  0  7G21G17G03G23G01G29G31                0.000826413
  -2047741.891 7  21039304.597       -1823.915
   8092950.376 5  22661614.279       -4676.643
  -2470656.156 7  21404354.276       -2365.907
   5179530.571 6  21631420.505       -3674.564
 -10314585.882 6  21696420.621         325.282
  -4716788.844 6  22868631.027        1007.417
  -3443321.700 6  23034271.601        -237.883
 98  9 30 17  1 50.0000000  0  7G21G17G03G23G01G29G31                0.000840558
  -2029489.895 7  21042776.512       -1826.627
   8139735.793 5  22670517.749       -4680.420
  -2446962.907 7  21408861.538       -2372.853
   5216283.141 6  21638413.267       -3676.236
 -10317817.588 6  21695802.971         321.100
  -4726845.779 5  22866719.394        1004.123
  -3440914.608 6  23034724.996        -243.939
 98  9 30 17  2  0.0000000  0  7G21G17G03G23G01G29G31                0.000854728
  -2011218.506 7  21046254.864       -1828.061
   8186547.753 6  22679435.455       -4682.263
  -2423208.370 7  21413377.097       -2378.326
   5253045.359 6  21645412.609       -3676.746
 -10321009.657 6  21695192.903         317.723
  -4736877.665 6  22864808.976        1002.399
  -3438455.713 6  23035191.482        -248.256
 98  9 30 17  2 10.0000000  0  7G21G17G03G23G01G29G31                0.000868865
  -1992929.290 7  21049733.860       -1830.072
   8233385.194 6  22688335.992       -4685.667
  -2399394.305 7  21417911.402       -2384.596
   5289816.410 7  21652413.025       -3677.911
 -10324163.521 6  21694592.924         313.408
  -4746885.651 6  22862905.142         999.510
  -3435947.426 6  23035673.852        -253.589
 98  9 30 17  2 20.0000000  0  7G21G17G03G23G01G29G31                0.000883038
  -1974623.242 7  21053222.587       -1831.743
   8280247.654 6  22697261.067       -4687.729
  -2375521.661 7  21422462.019       -2390.521
   5326595.177 7  21659410.006       -3678.506
 -10327279.929 6  21694001.100         309.933
  -4756869.685 5  22861006.244         997.145
  -3433390.562 6  23036166.166        -258.578
 98  9 30 17  2 30.0000000  0  7G21G17G03G23G01G29G31                0.000897190
  -1956300.766 7  21056702.155       -1833.138
   8327134.581 6  22706184.640       -4689.995
  -2351590.896 7  21427010.489       -2395.970
   5363379.828 6  21666411.566       -3678.685
 -10330359.379 6  21693416.217         306.352
  -4766829.740 5  22859103.983         994.907
  -3430786.078 6  23036659.910        -262.575
 98  9 30 17  2 40.0000000  0  7G21G17G03G23G01G29G31                0.000911321
  -1937960.115 7  21060192.670       -1834.750
   8374046.446 6  22715105.494       -4692.389
  -2327601.688 7  21431575.272       -2401.807
   5400170.493 6  21673408.904       -3679.277
 -10333400.372 6  21692838.417         302.629
  -4776765.356 5  22857220.110         992.082
  -3428133.649 6  23037161.454        -267.470
 98  9 30 17  2 50.0000000  0  7G21G17G03G23G01G29G31                0.000925463
  -1919602.650 7  21063685.760       -1836.406
   8420982.305 5  22724044.092       -4694.655
  -2303555.012 7  21436154.579       -2407.448
   5436966.683 7  21680412.396       -3679.736
 -10336403.433 6  21692269.631         298.763
  -4786677.782 5  22855328.222         990.541
  -3425433.620 6  23037674.087        -272.223
 98  9 30 17  3  0.0000000  0  7G21G17G03G23G01G29G31                0.000939601
  -1901228.208 7  21067186.006       -1838.354
   8467944.262 5  22732979.327       -4697.466
  -2279449.553 7  21440742.830       -2413.547
   5473769.610 6  21687415.316       -3680.775
 -10339367.524 6  21691702.921         294.753
  -4796567.031 5  22853444.492         988.225
  -3422685.422 6  23038198.955        -277.243
 98  9 30 17  3 10.0000000  0  7G21G17G03G23G01G29G31                0.000953736
  -1882837.661 7  21070682.745       -1839.880
   8514932.242 5  22741911.988       -4700.323
  -2255285.610 7  21445337.519       -2419.405
   5510579.349 7  21694425.032       -3681.250
 -10342294.872 6  21691144.868         290.907
  -4806433.429 6  22851573.854         985.780
  -3419889.870 6  23038729.617        -281.598
 98  9 30 17  3 20.0000000  0  7G21G17G03G23G01G29G31                0.000967865
  -1864431.019 7  21074186.496       -1841.238
   8561946.633 5  22750860.244       -4702.525
  -2231062.761 7  21449948.736       -2425.171
   5547397.099 6  21701422.157       -3682.138
 -10345185.049 6  21690596.902         287.379
  -4816276.382 6  22849701.571         983.501
  -3417047.333 6  23039266.362        -286.758
 98  9 30 17  3 30.0000000  0  7G21G17G03G23G01G29G31                0.000982030
  -1846009.472 7  21077689.532       -1842.979
   8608986.309 6  22759814.940       -4705.389
  -2206782.564 7  21454566.391       -2431.145
   5584223.081 6  21708433.305       -3683.148
 -10348037.896 6  21690054.875         283.537
  -4826097.509 6  22847829.145         981.377
  -3414159.370 6  23039820.777        -291.072
 98  9 30 17  3 40.0000000  0  7G21G17G03G23G01G29G31                0.000996179
  -1827571.425 7  21081197.504       -1844.475
   8656052.116 5  22768773.356       -4707.646
  -2182443.132 7  21459201.790       -2436.775
   5621059.603 6  21715444.881       -3683.971
 -10350851.630 6  21689520.074         279.904
  -4835894.794 6  22845963.802         978.888
  -3411225.377 6  23040382.419        -295.624
 98  9 30 17  3 50.0000000  0  8G21G17G03G08G23G01G29G31             0.000010309
  -3384533.614 7  20784915.016       -1846.652
   7127728.916 5  22477935.346       -4710.638
  -3733459.434 7  21164047.773       -2443.420
     -4413.735 5  24131649.384         283.536
   4082490.515 6  21422664.702       -3685.327
 -11929045.786 6  21389196.340         275.523
  -6421088.961 6  22544317.119         976.250
  -4983664.586 6  22741155.309        -300.465
 98  9 30 17  4  0.0000000  0  8G21G17G03G08G23G01G29G31             0.000024417
  -3366059.959 7  20788437.584       -1848.593
   7174845.962 6  22486907.858       -4713.245
  -3708997.593 7  21168705.281       -2449.376
     -7242.796 6  24131110.001         282.181
   4119347.727 6  21429674.348       -3686.467
 -11931780.982 6  21388674.061         271.587
  -6430838.189 6  22542461.722         973.782
  -4980638.634 6  22741725.609        -305.037
 98  9 30 17  4 10.0000000  0  8G21G17G03G08G23G01G29G31             0.000038573
  -3347564.689 7  20791954.930       -1850.861
   7221991.237 6  22495879.940       -4716.190
  -3684473.052 7  21173374.023       -2455.852
    -10053.330 6  24130571.979         280.099
   4156219.220 6  21436692.652       -3688.094
 -11934475.157 6  21388155.574         267.113
  -6440560.869 6  22540613.336         971.117
  -4977564.374 6  22742315.441        -309.962
 98  9 30 17  4 20.0000000  0  8G21G17G03G08G23G01G29G31             0.000052857
  -3329049.600 7  20795475.423       -1852.542
   7269163.336 5  22504846.799       -4718.687
  -3659888.297 7  21178048.415       -2461.571
    -12847.824 6  24130046.977         278.903
   4193103.760 7  21443713.101       -3689.281
 -11937129.762 6  21387655.759         263.725
  -6450259.197 6  22538770.601         969.049
  -4974442.946 6  22742908.064        -314.697
 98  9 30 17  4 30.0000000  0  8G21G17G03G08G23G01G29G31             0.000066970
  -3310514.004 7  20799002.141       -1854.411
   7316362.734 5  22513843.708       -4721.066
  -3635242.990 7  21182745.631       -2467.424
    -15625.532 6  24129520.473         276.953
   4230001.911 6  21450731.690       -3690.350
 -11939743.960 6  21387160.811         259.586
  -6459932.962 6  22536925.005         966.551
  -4971272.808 7  22743510.989        -319.534
 98  9 30 17  4 40.0000000  0  8G21G17G03G08G23G01G29G31             0.000081043
  -3291960.989 7  20802536.514       -1856.403
   7363585.737 6  22522826.021       -4724.005
  -3610540.316 7  21187441.774       -2473.508
    -18390.285 5  24128983.880         275.656
   4266910.898 7  21457759.437       -3691.621
 -11942320.388 6  21386674.304         255.731
  -6469585.739 6  22535090.213         964.258
  -4968058.117 7  22744125.075        -323.903
 98  9 30 17  4 50.0000000  0  8G21G17G03G08G23G01G29G31             0.000095141
  -3273386.621 7  20806074.179       -1858.609
   7410836.421 5  22531813.700       -4726.682
  -3585775.720 7  21192152.441       -2479.672
    -21137.820 5  24128464.602         274.016
   4303835.455 7  21464786.612       -3693.349
 -11944854.303 6  21386186.868         251.532
  -6479213.501 6  22533252.487         961.642
  -4964794.975 7  22744746.101        -328.790
 98  9 30 17  5  0.0000000  0  8G21G17G03G08G23G01G29G31             0.000109248
  -3254791.012 7  20809607.121       -1860.321
   7458113.974 5  22540823.844       -4728.873
  -3560947.987 7  21196877.131       -2485.728
    -23866.776 5  24127944.680         272.203
   4340776.682 7  21471813.000       -3694.739
 -11947345.086 6  21385717.103         247.202
  -6488815.759 6  22531422.774         959.213
  -4961482.217 7  22745379.147        -333.461
 98  9 30 17  5 10.0000000  0  8G21G17G03G08G23G01G29G31             0.000123335
  -3236176.689 7  20813149.509       -1862.775
   7505415.543 5  22549812.454       -4731.442
  -3536059.097 7  21201615.844       -2492.203
    -26578.884 5  24127434.991         269.556
   4377731.724 7  21478847.258       -3696.581
 -11949794.982 6  21385250.702         242.847
  -6498395.698 6  22529596.568         956.520
  -4958121.740 7  22746017.559        -338.820
 98  9 30 17  5 20.0000000  0  8G21G17G03G08G23G01G29G31             0.000137420
  -3217539.470 7  20816696.189       -1865.010
   7552743.828 6  22558819.879       -4734.151
  -3511105.766 7  21206361.999       -2498.695
    -29270.848 5  24126921.579         268.253
   4414703.705 7  21485882.662       -3698.221
 -11952201.643 6  21384788.379         238.388
  -6507949.162 6  22527782.882         953.923
  -4954710.138 7  22746665.559        -344.008
 98  9 30 17  5 30.0000000  0  8G21G17G03G08G23G01G29G31             0.000151482
  -3198882.219 7  20820249.379       -1866.927
   7600095.031 6  22567829.809       -4736.461
  -3486091.475 7  21211119.456       -2504.652
    -31946.623 6  24126408.096         266.949
   4451688.974 6  21492920.568       -3699.234
 -11954566.545 6  21384333.353         234.267
  -6517478.838 6  22525967.120         951.889
  -4951249.965 7  22747322.716        -348.560
 98  9 30 17  5 40.0000000  0  8G21G17G03G08G23G01G29G31             0.000165523
  -3180202.390 7  20823808.222       -1869.473
   7647471.474 6  22576849.756       -4739.363
  -3461014.356 7  21215896.018       -2511.035
    -34602.953 6  24125904.702         264.421
   4488689.981 7  21499964.700       -3701.208
 -11956885.283 6  21383899.791         229.526
  -6526983.071 6  22524161.018         949.019
  -4947737.367 6  22747984.239        -354.477
 98  9 30 17  5 50.0000000  0  8G21G17G03G08G23G01G29G31             0.000179610
  -3161499.592 7  20827364.989       -1871.188
   7694872.482 6  22585863.118       -4740.846
  -3435874.509 7  21220678.373       -2516.840
    -37238.995 6  24125403.239         262.761
   4525706.040 7  21507007.328       -3702.200
 -11959158.698 6  21383463.582         225.499
  -6536461.587 6  22522363.500         947.012
  -4944172.282 6  22748664.433        -358.853
 98  9 30 17  6  0.0000000  0  8G21G17G03G08G23G01G29G31             0.000193703
  -3142775.661 7  20830921.828       -1873.637
   7742295.107 5  22594885.498       -4743.723
  -3410674.877 7  21225474.824       -2523.170
    -39857.137 6  24124910.075         261.115
   4562733.328 7  21514051.531       -3703.589
 -11961389.820 6  21383046.619         221.100
  -6545916.724 6  22520564.052         944.142
  -4940558.003 6  22749357.864        -364.027
 98  9 30 17  6 10.0000000  0  8G21G17G03G08G23G01G29G31             0.000207762
  -3124026.885 7  20834491.832       -1876.079
   7789742.706 5  22603916.176       -4746.251
  -3385412.893 7  21230282.722       -2529.282
    -42454.094 6  24124413.478         259.056
   4599776.349 6  21521101.672       -3705.090
 -11963575.074 6  21382624.218         216.454
  -6555344.080 6  22518771.902         941.425
  -4936890.472 6  22750055.231        -369.298
 98  9 30 17  6 20.0000000  0  8G21G17G03G08G23G01G29G31             0.000221819
  -3105254.979 7  20838065.699       -1878.130
   7837213.264 5  22612949.786       -4747.870
  -3360090.879 7  21235101.566       -2535.023
    -45031.336 6  24123922.318         257.011
   4636833.468 7  21528147.949       -3706.123
 -11965715.372 6  21382217.558         211.983
  -6564746.282 6  22516978.104         939.406
  -4933171.281 6  22750764.760        -374.303
 98  9 30 17  6 30.0000000  0  8G21G17G03G08G23G01G29G31             0.000235870
  -3086460.007 7  20841641.069       -1880.592
   7884706.001 5  22621987.404       -4750.291
  -3334708.739 7  21239931.213       -2541.118
    -47588.393 6  24123437.597         255.051
   4673903.819 7  21535205.245       -3707.603
 -11967810.273 6  21381821.200         207.591
  -6574124.723 5  22515186.812         936.913
  -4929400.124 6  22751484.019        -379.645
 98  9 30 17  6 40.0000000  0  8G21G17G03G08G23G01G29G31             0.000249890
  -3067642.022 7  20845219.946       -1883.406
   7932221.384 6  22631038.187       -4753.003
  -3309265.270 7  21244769.376       -2547.986
    -50124.372 6  24122951.804         252.454
   4710987.802 7  21542265.618       -3709.540
 -11969859.808 6  21381431.712         202.351
  -6583478.516 6  22513408.399         933.806
  -4925576.368 6  22752203.852        -385.440
 98  9 30 17  6 50.0000000  0  8G21G17G03G08G23G01G29G31             0.000263915
  -3048799.578 7  20848806.047       -1885.600
   7979760.911 6  22640073.085       -4755.092
  -3283758.350 7  21249624.852       -2554.037
    -52637.585 5  24122467.155         250.349
   4748086.640 7  21549321.554       -3710.663
 -11971862.847 7  21381050.092         197.850
  -6592805.991 6  22511632.059         931.479
  -4921698.838 6  22752941.427        -390.813
 98  9 30 17  7  0.0000000  0  8G21G17G03G08G23G01G29G31             0.000278019
  -3029934.618 7  20852393.938       -1888.054
   8027324.212 6  22649137.391       -4758.235
  -3258188.549 7  21254493.565       -2560.469
    -55129.557 5  24122006.617         248.074
   4785198.292 7  21556389.439       -3712.303
 -11973820.809 7  21380682.925         193.422
  -6602108.456 6  22509867.096         928.711
  -4917767.268 7  22753698.607        -396.283
 98  9 30 17  7 10.0000000  0  8G21G17G03G08G23G01G29G31             0.000292012
  -3011048.157 7  20855994.133       -1889.728
   8074910.865 6  22658192.751       -4759.724
  -3232555.848 7  21259371.291       -2566.400
    -57600.238 5  24121519.750         245.909
   4822322.592 7  21563451.527       -3713.123
 -11975733.455 7  21380314.899         189.085
  -6611386.041 6  22508097.982         926.485
  -4913780.459 7  22754456.000        -401.317
 98  9 30 17  7 20.0000000  0  8G21G17G03G08G23G01G29G31             0.000306038
  -2992141.452 7  20859588.319       -1891.882
   8122520.654 5  22667239.241       -4762.436
  -3206862.338 7  21264255.815       -2572.758
    -60051.919 5  24121058.710         244.501
   4859459.063 7  21570519.698       -3714.397
 -11977602.233 6  21379959.036         184.753
  -6620639.828 6  22506339.457         924.400
  -4909739.005 6  22755217.615        -407.059
 98  9 30 17  7 30.0000000  0  8G21G17G03G08G23G01G29G31             0.000320093
  -2973213.134 7  20863191.520       -1893.782
   8170156.252 5  22676303.760       -4764.937
  -3181107.637 7  21269158.225       -2578.520
    -62483.737 6  24120600.390         242.392
   4896609.117 7  21577590.229       -3715.617
 -11979426.505 7  21379608.539         180.487
  -6629867.771 6  22504583.152         921.541
  -4905642.329 7  22755999.692        -412.120
 98  9 30 17  7 40.0000000  0  8G21G17G03G08G23G01G29G31             0.000334146
  -2954266.459 7  20866799.372       -1896.193
   8217814.849 5  22685382.231       -4767.726
  -3155295.067 7  21274071.367       -2584.694
    -64898.666 6  24120145.146         240.065
   4933770.913 7  21584656.469       -3717.361
 -11981208.607 6  21379268.990         175.539
  -6639072.838 6  22502836.289         919.011
  -4901493.810 6  22756789.569        -418.135
 98  9 30 17  7 50.0000000  0  8G21G17G03G08G23G01G29G31             0.000348160
  -2935296.959 7  20870407.652       -1898.064
   8265502.176 5  22694448.468       -4769.998
  -3129418.663 7  21278997.745       -2590.718
    -67289.762 6  24119687.327         237.918
   4970950.136 7  21591730.005       -3718.782
 -11982943.212 6  21378944.392         171.242
  -6648250.364 6  22501084.991         916.566
  -4897287.465 6  22757590.891        -423.340
 98  9 30 17  8  0.0000000  0  8G21G17G03G08G23G01G29G31             0.000362178
  -2916308.847 7  20874020.369       -1900.458
   8313213.656 6  22703535.739       -4772.676
  -3103482.152 7  21283931.278       -2597.145
    -69661.436 6  24119234.587         236.072
   5008142.095 7  21598812.199       -3720.387
 -11984636.904 7  21378620.224         166.939
  -6657404.761 5  22499339.059         913.945
  -4893028.631 6  22758399.441        -428.941
 98  9 30 17  8 10.0000000  0  8G21G17G03G08G23G01G29G31             0.000376219
  -2897297.562 7  20877640.955       -1902.275
   8360952.759 6  22712631.667       -4775.285
  -3077481.646 7  21288879.263       -2603.181
    -72010.542 6  24118787.142         233.871
   5045349.952 7  21605891.388       -3721.510
 -11986286.065 7  21378303.568         162.891
  -6666531.753 5  22497611.156         911.488
  -4888714.713 6  22759220.939        -433.844
 98  9 30 17  8 20.0000000  0  8G21G17G03G08G23G01G29G31             0.000390207
  -2878268.101 7  20881254.458       -1903.958
   8408715.541 6  22721706.489       -4777.718
  -3051421.383 7  21293839.768       -2609.164
    -74341.879 5  24118331.897         232.306
   5082569.111 7  21612973.152       -3722.681
 -11987895.365 7  21377999.360         159.018
  -6675636.219 5  22495877.386         909.650
  -4884349.162 6  22760049.378        -439.290
 98  9 30 17  8 30.0000000  0  8G21G17G03G08G23G01G29G31             0.000404232
  -2859215.240 7  20884882.701       -1906.520
   8456509.102 6  22730809.573       -4780.974
  -3025295.137 7  21298808.931       -2615.819
    -76649.075 5  24117891.823         229.291
   5119804.539 7  21620061.928       -3724.466
 -11989459.094 7  21377704.527         154.234
  -6684712.344 6  22494144.833         906.506
  -4879925.723 6  22760895.990        -445.255
 98  9 30 17  8 40.0000000  0  8G21G17G03G08G23G01G29G31             0.000418257
  -2840142.853 7  20888514.377       -1908.743
   8504330.840 6  22739907.577       -4784.229
  -2999106.662 7  21303794.192       -2622.530
    -78935.980 5  24117455.825         226.941
   5157051.666 7  21627147.843       -3726.094
 -11990982.009 7  21377417.276         149.863
  -6693763.085 5  22492432.529         903.209
  -4875448.134 6  22761749.042        -451.033
 98  9 30 17  8 50.0000000  0  8G21G17G03G08G23G01G29G31             0.000432283
  -2821050.419 7  20892144.549       -1909.944
   8552182.347 6  22749004.077       -4786.505
  -2972854.774 7  21308790.398       -2628.238
    -81201.667 6  24117037.068         225.858
   5194311.736 7  21634240.624       -3726.418
 -11992463.979 7  21377133.530         146.423
  -6702785.992 6  22490712.138         901.219
  -4870915.718 6  22762606.026        -455.803
 98  9 30 17  9  0.0000000  0  8G21G17G03G08G23G01G29G31             0.000446328
  -2801939.339 7  20895784.954       -1912.180
   8600062.506 6  22758115.960       -4789.601
  -2946540.197 7  21313794.905       -2634.514
    -83447.974 6  24116616.596         223.845
   5231582.820 7  21641328.541       -3727.647
 -11993906.010 7  21376856.582         142.299
  -6711782.741 6  22488999.475         898.430
  -4866330.863 6  22763481.614        -460.905
 98  9 30 17  9 10.0000000  0  8G21G17G03G08G23G01G29G31             0.000460335
  -2782806.425 7  20899425.860       -1914.380
   8647974.603 6  22767244.013       -4792.677
  -2920160.322 7  21318815.080       -2640.985
    -85671.561 6  24116188.826         221.465
   5268867.425 7  21648425.473       -3729.013
 -11995304.672 7  21376591.797         138.086
  -6720750.137 6  22487291.105         895.491
  -4861690.746 6  22764364.285        -466.516
 98  9 30 17  9 20.0000000  0  8G21G17G03G08G23G01G29G31             0.000474350
  -2763653.345 7  20903069.627       -1916.194
   8695915.305 6  22776367.559       -4795.657
  -2893718.729 7  21323847.847       -2647.136
    -87874.379 5  24115763.918         219.463
   5306162.500 7  21655525.481       -3729.893
 -11996663.289 7  21376330.445         134.171
  -6729691.166 5  22485587.671         892.889
  -4856999.501 6  22765260.620        -471.629
 98  9 30 17  9 30.0000000  0  8G21G17G03G08G23G01G29G31             0.000488384
  -2744475.421 7  20906715.614       -1919.292
   8743887.445 5  22785486.239       -4798.827
  -2867212.269 7  21328891.419       -2654.224
    -90052.659 5  24115354.321         216.505
   5343470.811 7  21662620.124       -3731.628
 -11997978.509 7  21376079.827         129.300
  -6738601.550 6  22483890.821         889.293
  -4852255.414 6  22766165.399        -477.361
 98  9 30 17  9 40.0000000  0  8G21G17G03G08G23G01G29G31             0.000502366
  -2725274.535 7  20910373.405       -1921.436
   8791889.303 5  22794613.505       -4801.759
  -2840642.759 7  21333951.087       -2660.376
    -92207.334 5  24114935.566         214.453
   5380789.240 7  21669717.342       -3732.610
 -11999252.448 6  21375839.797         125.227
  -6747483.230 6  22482205.989         886.771
  -4847460.768 6  22767076.687        -482.039
 98  9 30 17  9 50.0000000  0  8G21G17G03G08G23G01G29G31             0.000516399
  -2706048.379 7  20914030.552       -1923.947
   8839921.785 5  22803761.377       -4804.939
  -2814007.265 7  21339018.197       -2666.917
    -94335.684 5  24114538.347         211.734
   5418119.117 7  21676826.937       -3733.737
 -12000482.556 7  21375604.202         120.976
  -6756334.786 6  22480519.869         884.363
  -4842613.684 7  22768000.497        -487.354
 98  9 30 17 10  0.0000000  0  8G21G17G03G08G23G01G29G31             0.000530385
  -2686800.118 7  20917692.564       -1926.379
   8887981.467 6  22812908.175       -4808.205
  -2787308.445 7  21344096.754       -2673.486
    -96442.140 5  24114133.401         209.239
   5455456.279 7  21683930.308       -3734.515
 -12001672.159 7  21375379.555         116.716
  -6765160.077 6  22478839.188         880.804
  -4837717.094 6  22768929.458        -492.676
 98  9 30 17 10 10.0000000  0  8G21G17G03G08G23G01G29G31             0.000544364
  -2667525.206 7  20921361.874       -1928.731
   8936072.013 5  22822057.190       -4810.413
  -2760543.206 7  21349189.261       -2679.619
    -98524.846 5  24113736.109         207.233
   5492803.116 7  21691039.688       -3735.132
 -12002818.428 7  21375162.991         112.650
  -6773954.839 6  22477164.015         878.291
  -4832768.236 6  22769867.647        -497.414
 98  9 30 17 10 20.0000000  0  8G21G17G03G08G23G01G29G31             0.000558387
  -2648223.573 7  20925033.116       -1931.720
   8984193.510 6  22831225.452       -4813.954
  -2733712.048 7  21354296.151       -2686.720
   -100585.138 5  24113347.189         204.433
   5530159.662 7  21698149.426       -3736.516
 -12003920.672 7  21374951.008         107.733
  -6782718.293 6  22475498.574         874.352
  -4827766.683 6  22770820.648        -503.273
 98  9 30 17 10 30.0000000  0  8G21G17G03G08G23G01G29G31             0.000572358
  -2628897.853 7  20928707.362       -1933.974
   9032345.269 6  22840380.334       -4816.757
  -2706816.459 7  21359413.271       -2692.818
   -102624.527 5  24112953.761         202.803
   5567524.757 7  21705261.024       -3737.073
 -12004979.648 7  21374748.110         103.786
  -6791452.503 6  22473835.134         872.035
  -4822711.958 6  22771778.871        -508.318
 98  9 30 17 10 40.0000000  0  8G21G17G03G08G23G01G29G31             0.000586366
  -2609548.932 7  20932395.989       -1936.255
   9080527.229 6  22849548.739       -4819.864
  -2679856.922 7  21364546.274       -2699.205
   -104642.595 5  24112576.430         201.041
   5604898.907 7  21712374.196       -3737.848
 -12005995.378 7  21374555.014          99.496
  -6800157.710 6  22472180.566         869.199
  -4817603.882 6  22772753.621        -513.345
 98  9 30 17 10 50.0000000  0  8G21G17G03G08G23G01G29G31             0.000600356
  -2590175.752 7  20936081.540       -1938.741
   9128739.217 6  22858720.578       -4822.806
  -2652832.715 7  21369686.003       -2705.743
   -106637.784 5  24112196.954         198.343
   5642283.406 7  21719485.724       -3739.265
 -12006966.153 6  21374364.995          94.781
  -6808832.452 6  22470530.149         866.005
  -4812441.927 6  22773732.664        -519.151
 98  9 30 17 11  0.0000000  0  8G21G17G03G08G23G01G29G31             0.000614350
  -2570777.317 7  20939772.028       -1941.190
   9176980.874 5  22867917.530       -4825.870
  -2625742.613 7  21374843.904       -2712.411
   -108608.439 6  24111814.616         196.072
   5679680.548 7  21726598.539       -3740.643
 -12007890.364 6  21374190.215          89.925
  -6817476.423 6  22468888.389         862.814
  -4807224.589 6  22774726.732        -524.689
 98  9 30 17 11 10.0000000  0  8G21G17G03G08G23G01G29G31             0.000628319
  -2551353.924 7  20943466.093       -1943.668
   9225251.547 5  22877085.005       -4829.034
  -2598587.242 7  21380011.536       -2719.052
   -110554.886 6  24111451.309         193.871
   5717090.260 7  21733719.868       -3741.701
 -12008766.674 6  21374026.955          85.199
  -6826090.962 6  22467247.487         859.778
  -4801952.245 6  22775725.451        -530.045
 98  9 30 17 11 20.0000000  0  8G21G17G03G08G23G01G29G31             0.000642305
  -2531905.723 7  20947169.029       -1946.349
   9273550.148 5  22886282.885       -4830.963
  -2571368.992 7  21385189.899       -2725.221
   -112476.962 6  24111089.720         190.834
   5754511.072 7  21740843.630       -3742.911
 -12009596.154 7  21373872.208          80.507
  -6834676.452 6  22465612.737         856.914
  -4796624.183 6  22776739.122        -535.677
 98  9 30 17 11 30.0000000  0  8G21G17G03G08G23G01G29G31             0.000656318
  -2512431.215 7  20950875.329       -1948.874
   9321878.628 5  22895476.260       -4834.500
  -2544085.915 7  21390381.069       -2731.839
   -114371.725 6  24110726.056         188.350
   5791945.726 7  21747966.748       -3744.107
 -12010376.362 7  21373721.611          75.514
  -6843229.855 6  22463980.063         853.893
  -4791237.628 6  22777776.405        -541.667
 98  9 30 17 11 40.0000000  0  8G21G17G03G08G23G01G29G31             0.000670293
  -2492932.036 7  20954582.128       -1951.080
   9370235.972 5  22904677.433       -4836.990
  -2516738.013 7  21395585.475       -2737.924
   -116240.046 6  24110367.758         185.472
   5829394.291 7  21755093.443       -3745.595
 -12011106.904 7  21373582.748          70.668
  -6851750.788 6  22462359.123         850.578
  -4785792.380 6  22778810.396        -547.620
 98  9 30 17 11 50.0000000  0  8G21G17G03G08G23G01G29G31             0.000684230
  -2473409.787 7  20958303.452       -1953.519
   9418621.877 6  22913877.103       -4840.323
  -2489326.538 7  21400800.685       -2744.728
   -118082.648 5  24110003.235         182.956
   5866857.020 7  21762217.492       -3747.278
 -12011788.028 7  21373451.111          65.520
  -6860240.214 6  22460747.054         847.327
  -4780288.014 6  22779854.833        -553.616
 98  9 30 17 12  0.0000000  0  8G21G17G03G08G23G01G29G31             0.000698251
  -2453863.859 7  20962020.125       -1955.756
   9467036.052 6  22923112.331       -4842.706
  -2461851.820 7  21406028.343       -2750.703
   -119900.144 5  24109661.607         180.731
   5904335.064 6  21769349.481       -3748.364
 -12012420.478 7  21373330.635          61.029
  -6868698.485 6  22459143.141         844.484
  -4774724.401 6  22780914.652        -559.195
 98  9 30 17 12 10.0000000  0  8G21G17G03G08G23G01G29G31             0.000712240
  -2434295.106 7  20965743.094       -1958.221
   9515477.943 6  22932319.872       -4845.667
  -2434314.948 7  21411273.601       -2757.025
   -121694.417 5  24109336.005         178.177
   5941827.502 6  21776484.547       -3750.137
 -12013004.832 7  21373222.393          56.107
  -6877125.645 6  22457528.640         841.006
  -4769102.748 6  22781981.913        -565.457
 98  9 30 17 12 20.0000000  0  8G21G17G03G08G23G01G29G31             0.000726230
  -2414705.507 7  20969469.354       -1960.110
   9563946.336 6  22941535.353       -4848.122
  -2406717.572 7  21416522.866       -2762.920
   -123465.475 5  24108997.953         176.503
   5979332.727 6  21783618.970       -3751.382
 -12013541.852 7  21373117.586          51.268
  -6885521.604 6  22455934.172         837.947
  -4763423.955 6  22783064.626        -570.744
 98  9 30 17 12 30.0000000  0  8G21G17G03G08G23G01G29G31             0.000740222
  -2395094.404 7  20973205.345       -1962.599
   9612442.246 6  22950772.514       -4851.595
  -2379057.408 7  21421783.436       -2769.490
   -125209.451 6  24108668.918         173.164
   6016852.054 6  21790756.826       -3752.792
 -12014029.627 7  21373025.085          46.135
  -6893885.050 6  22454344.353         834.970
  -4757685.186 6  22784157.357        -577.254
 98  9 30 17 12 40.0000000  0  8G21G17G03G08G23G01G29G31             0.000754181
  -2375462.741 7  20976944.697       -1964.246
   9660965.457 5  22960010.389       -4853.738
  -2351335.352 7  21427061.533       -2775.316
   -126925.530 5  24108338.809         170.493
   6054385.088 6  21797904.341       -3754.138
 -12014467.794 7  21372944.746          41.264
  -6902217.783 6  22452751.388         831.702
  -4751887.084 7  22785261.606        -582.976
 98  9 30 17 12 50.0000000  0  8G21G17G03G08G23G01G29G31             0.000768184
  -2355810.874 7  20980677.109       -1966.130
   9709515.042 5  22969245.760       -4856.154
  -2323552.540 7  21432343.351       -2781.149
   -128613.870 5  24108017.858         168.082
   6091930.974 6  21805049.852       -3755.090
 -12014857.036 6  21372866.195          37.013
  -6910520.477 6  22451176.450         829.039
  -4746032.448 6  22786376.372        -588.104
 98  9 30 17 13  0.0000000  0  8G21G17G03G08G23G01G29G31             0.000782126
  -2336137.636 7  20984424.047       -1968.675
   9758090.935 5  22978477.483       -4859.491
  -2295708.300 7  21437648.065       -2787.778
   -130273.885 5  24107686.390         164.795
   6129489.690 6  21812197.797       -3756.822
 -12015197.339 7  21372792.296          31.612
  -6918792.321 6  22449609.098         825.594
  -4740122.173 6  22787498.507        -594.044
 98  9 30 17 13 10.0000000  0  8G21G17G03G08G23G01G29G31             0.000796134
  -2316441.444 7  20988168.552       -1971.255
   9806695.519 5  22987741.760       -4862.508
  -2267800.141 7  21442959.004       -2794.511
   -131903.458 5  24107382.469         161.032
   6167062.985 7  21819349.606       -3758.504
 -12015486.754 7  21372745.012          26.254
  -6927031.535 6  22448039.528         822.003
  -4734153.494 6  22788637.600        -600.110
 98  9 30 17 13 20.0000000  0  8G21G17G03G08G23G01G29G31             0.000810115
  -2296722.550 7  20991927.078       -1972.696
   9855329.465 5  22996994.587       -4864.554
  -2239828.064 7  21448280.958       -2799.844
   -133502.422 6  24107091.137         158.891
   6204650.491 6  21826502.486       -3759.209
 -12015725.163 7  21372704.739          21.848
  -6935238.144 6  22446475.037         819.118
  -4728126.555 6  22789781.914        -605.222
 98  9 30 17 13 30.0000000  0  8G21G17G03G08G23G01G29G31             0.000824076
  -2276984.607 7  20995679.595       -1974.840
   9903989.570 6  23006252.567       -4867.024
  -2211795.398 7  21453613.002       -2806.171
   -135073.530 6  24106788.073         155.959
   6242248.134 6  21833655.152       -3760.193
 -12015917.032 6  21372664.752          17.036
  -6943415.126 6  22444907.827         816.220
  -4722045.354 6  22790935.959        -610.732
 98  9 30 17 13 40.0000000  0  8G21G17G03G08G23G01G29G31             0.000838079
  -2257229.280 7  20999437.335       -1976.561
   9952674.503 5  23015522.996       -4869.524
  -2183702.473 7  21458958.425       -2812.544
   -136617.468 6  24106497.958         153.163
   6279854.776 7  21840810.107       -3761.232
 -12016064.329 6  21372635.639          12.601
  -6951563.763 5  22443362.510         813.902
  -4715911.961 6  22792103.454        -615.984
 98  9 30 17 13 50.0000000  0  8G21G17G03G08G23G01G29G31             0.000852004
  -2237453.368 7  21003200.871       -1978.947
  10001387.620 5  23024773.607       -4873.085
  -2155545.493 7  21464318.945       -2819.304
   -138131.468 5  24106197.614         149.532
   6317473.865 7  21847972.576       -3762.868
 -12016163.909 6  21372623.199           7.190
  -6959681.675 6  22441815.835         810.341
  -4709723.283 6  22793282.612        -621.904
 98  9 30 17 14  0.0000000  0  8G21G17G03G08G23G01G29G31             0.000865965
  -2217656.192 7  21006969.557       -1981.027
  10050128.573 5  23034052.192       -4875.456
  -2127325.747 7  21469688.192       -2825.067
   -139615.601 5  24105904.637         146.796
   6355104.222 6  21855129.462       -3763.675
 -12016217.047 6  21372613.117           3.246
  -6967770.267 6  22440283.468         807.501
  -4703479.713 6  22794470.068        -627.136
 98  9 30 17 14 10.0000000  0  8G21G17G03G08G23G01G29G31             0.000879961
  -2197838.272 7  21010740.390       -1983.156
  10098897.165 5  23043329.991       -4878.766
  -2099042.754 7  21475069.102       -2831.784
   -141070.050 5  24105639.921         144.077
   6392745.146 6  21862293.218       -3764.624
 -12016224.619 7  21372607.472          -1.672
  -6975830.650 6  22438749.956         804.550
  -4697181.559 6  22795665.037        -632.758
 98  9 30 17 14 20.0000000  0  8G21G17G03G08G23G01G29G31             0.000893934
  -2178001.338 7  21014519.808       -1984.264
  10147691.317 5  23052625.245       -4880.266
  -2070697.018 7  21480461.530       -2837.540
   -142495.574 5  24105370.769         141.626
   6430394.366 6  21869456.973       -3765.112
 -12016186.541 7  21372620.929          -5.910
  -6983864.168 6  22437218.589         802.400
  -4690829.333 6  22796874.887        -637.569
 98  9 30 17 14 30.0000000  0  8G21G17G03G08G23G01G29G31             0.000907953
  -2158146.910 7  21018296.722       -1986.577
  10196509.810 5  23061916.136       -4882.855
  -2042290.329 7  21485868.984       -2843.976
   -143891.696 5  24105111.849         138.464
   6468050.977 6  21876622.732       -3766.333
 -12016103.649 7  21372631.239         -10.794
  -6991871.974 6  22435692.804         799.712
  -4684423.459 6  22798099.333        -643.520
 98  9 30 17 14 40.0000000  0  8G21G17G03G08G23G01G29G31             0.000921929
  -2138275.604 7  21022076.212       -1988.094
  10245351.038 5  23071198.512       -4885.132
  -2013824.490 7  21491285.952       -2849.783
   -145259.742 5  24104853.787         135.399
   6505713.907 6  21883791.423       -3766.922
 -12015978.027 6  21372654.283         -14.853
  -6999855.859 6  22434176.105         797.241
  -4677965.252 6  22799329.144        -648.383
 98  9 30 17 14 50.0000000  0  8G21G17G03G08G23G01G29G31             0.000935881
  -2118384.604 7  21025861.783       -1990.086
  10294216.596 5  23080503.140       -4887.996
  -1985299.227 7  21496716.084       -2855.449
   -146598.891 5  24104590.001         133.121
   6543386.595 6  21890960.115       -3767.911
 -12015807.392 6  21372686.414         -19.237
  -7007814.463 6  22432666.632         794.821
  -4671453.851 6  22800566.039        -653.738
 98  9 30 17 15  0.0000000  0  7G21G17G03G23G01G29G31                0.000949942
  -2098473.311 7  21029645.780       -1992.188
  10343106.833 5  23089808.841       -4890.753
  -1956714.713 7  21502150.296       -2861.809
   6581069.855 7  21898132.743       -3769.008
 -12015591.553 6  21372730.279         -24.055
  -7015746.092 6  22431155.658         791.843
  -4664888.935 6  22801812.879        -659.320
 98  9 30 17 15 10.0000000  0  7G21G17G03G23G01G29G31                0.000963930
  -2078538.685 7  21033438.007       -1994.788
  10392024.229 6  23099118.406       -4893.407
  -1928066.684 7  21507605.828       -2868.381
   6618767.280 6  21905302.724       -3770.650
 -12015328.032 6  21372775.718         -28.876
  -7023646.380 6  22429650.264         788.422
  -4658265.653 6  22803077.606        -665.503
 98  9 30 17 15 20.0000000  0  7G21G17G03G23G01G29G31                0.000977893
  -2058585.229 7  21037236.384       -1996.219
  10440964.626 6  23108434.623       -4895.226
  -1899359.481 7  21513067.154       -2873.547
   6656475.255 6  21912482.648       -3771.512
 -12015020.373 6  21372833.104         -32.988
  -7031518.552 6  22428148.662         785.826
  -4651585.643 6  22804349.415        -670.686
 98  9 30 17 15 30.0000000  0  7G21G17G03G23G01G29G31                0.000991861
  -2038614.896 7  21041040.056       -1998.134
  10489926.204 6  23117756.063       -4897.350
  -1870596.393 7  21518544.435       -2879.289
   6694192.201 6  21919656.062       -3772.174
 -12014669.873 6  21372901.580         -37.236
  -7039364.560 6  22426661.654         783.365
  -4644850.922 6  22805631.670        -676.138
 98  9 30 17 15 40.0000000  0  7G21G17G03G23G01G29G31                0.000005786
  -3594041.191 7  20745048.933       -2000.235
   8963497.420 6  22827281.257       -4900.089
  -3417191.766 7  21224233.743       -2885.085
   5156505.077 6  21627042.674       -3773.590
 -13589693.886 6  21073186.478         -41.910
  -8622601.782 6  22125378.678         780.350
  -6213477.990 6  22507127.751        -682.353
 98  9 30 17 15 50.0000000  0  8G21G17G03G08G23G01G29G31             0.000019679
  -3574027.140 7  20748859.403       -2002.458
   9012508.367 6  22836606.418       -4902.374
  -3388311.534 7  21229731.201       -2890.926
       -76.73115  23803384.586         115.834
   5194246.043 6  21634227.321       -3774.692
 -13589251.819 6  21073268.621         -46.437
  -8630388.400 6  22123899.685         777.403
  -6206627.104 6  22508428.825        -688.322
 98  9 30 17 16  0.0000000  0  8G21G17G03G08G23G01G29G31             0.000033668
  -3553994.243 7  20752669.443       -2004.002
   9061540.462 5  22845943.813       -4903.883
  -3359377.005 7  21235232.450       -2895.912
     -1218.884 5  23803172.242         113.365
   5231996.156 6  21641407.746       -3775.270
 -13588765.762 7  21073364.714         -50.742
  -8638148.186 6  22122424.197         774.916
  -6199719.941 6  22509746.280        -693.266
 98  9 30 17 16 10.0000000  0  8G21G17G03G08G23G01G29G31             0.000047571
  -3533941.427 7  20756487.211       -2006.381
   9110594.154 5  22855264.683       -4906.981
  -3330386.146 7  21240750.658       -2902.019
     -2337.452 5  23802946.304         110.573
   5269757.072 6  21648595.328       -3776.941
 -13588233.510 7  21073466.390         -55.655
  -8645878.862 6  22120949.497         771.776
  -6192755.183 6  22511070.106        -699.437
 98  9 30 17 16 20.0000000  0  8G21G17G03G08G23G01G29G31             0.000061519
  -3513869.126 7  20760305.265       -2008.514
   9159670.435 5  22864598.143       -4909.280
  -3301337.930 7  21246275.805       -2908.064
     -3431.742 5  23802730.239         108.362
   5307530.532 6  21655782.050       -3778.380
 -13587653.392 6  21073575.435         -60.890
  -8653579.215 6  22119490.180         768.149
  -6185732.618 6  22512408.169        -705.392
 98  9 30 17 16 30.0000000  0  8G21G17G03G08G23G01G29G31             0.000075492
  -3493778.278 7  20764127.253       -2010.248
   9208767.922 5  22873956.931       -4911.198
  -3272233.700 7  21251818.051       -2913.467
     -4503.479 5  23802532.132         106.435
   5345315.332 6  21662967.628       -3779.399
 -13587025.743 6  21073694.065         -65.282
  -8661250.434 6  22118025.639         765.768
  -6178653.132 6  22513752.670        -710.948
 98  9 30 17 16 40.0000000  0  8G21G17G03G08G23G01G29G31             0.000089465
  -3473665.989 7  20767959.687       -2012.198
   9257889.568 6  22883305.988       -4913.222
  -3243072.572 7  21257370.098       -2918.729
     -5550.420 5  23802349.765         104.007
   5383113.461 6  21670167.657       -3780.289
 -13586349.415 6  21073818.205         -69.833
  -8668889.383 6  22116569.111         762.732
  -6171516.101 6  22515109.906        -716.409
 98  9 30 17 16 50.0000000  0  8G21G17G03G08G23G01G29G31             0.000103407
  -3453532.087 7  20771786.828       -2014.551
   9307036.415 5  22892653.115       -4916.003
  -3213853.465 7  21262928.442       -2924.902
     -6573.355 5  23802155.308         101.540
   5420925.116 6  21677362.607       -3781.703
 -13585625.391 6  21073959.732         -74.803
  -8676496.024 6  22115124.604         759.412
  -6164322.772 6  22516479.520        -721.954
 98  9 30 17 17  0.0000000  0  8G21G17G03G08G23G01G29G31             0.000117347
  -3433378.475 7  20775623.984       -2016.628
   9356207.703 5  22902016.411       -4918.526
  -3184576.605 7  21268501.740       -2930.789
     -7573.653 5  23801958.203          98.840
   5458749.101 6  21684553.838       -3783.255
 -13584854.459 6  21074105.622         -79.707
  -8684071.275 6  22113682.887         755.960
  -6157074.032 6  22517861.655        -727.986
 98  9 30 17 17 10.0000000  0  8G21G17G03G08G23G01G29G31             0.000131284
  -3413203.805 7  20779463.573       -2018.686
   9405406.152 5  22911366.041       -4921.158
  -3155239.354 7  21274081.548       -2937.044
     -8548.797 5  23801779.559          95.450
   5496586.930 6  21691760.593       -3784.662
 -13584034.768 7  21074264.463         -84.567
  -8691612.710 6  22112250.400         752.219
  -6149767.792 6  22519255.165        -733.612
 98  9 30 17 17 20.0000000  0  8G21G17G03G08G23G01G29G31             0.000145185
  -3393009.603 7  20783307.455       -2020.656
   9454630.530 5  22920711.808       -4923.711
  -3125841.482 7  21279679.815       -2942.781
     -9499.633 5  23801600.697          93.651
   5534436.459 6  21698963.986       -3785.722
 -13583167.953 7  21074427.452         -89.104
  -8699121.432 6  22110823.851         749.129
  -6142404.919 6  22520652.039        -739.328
 98  9 30 17 17 30.0000000  0  8G21G17G03G08G23G01G29G31             0.000159110
  -3372791.819 7  20787153.770       -2023.236
   9503883.616 5  22930107.086       -4926.631
  -3096380.467 7  21285285.953       -2949.474
    -10423.719 5  23801412.250          90.915
   5572300.516 6  21706163.873       -3787.299
 -13582250.983 7  21074601.533         -94.569
  -8706595.246 6  22109402.525         745.718
  -6134982.787 6  22522062.864        -745.277
 98  9 30 17 17 40.0000000  0  8G21G17G03G08G23G01G29G31             0.000173069
  -3352550.384 7  20791005.737       -2025.482
   9553164.971 6  22939493.492       -4929.887
  -3066857.983 7  21290900.605       -2955.499
    -11322.266 6  23801250.273          88.808
   5610177.099 6  21713371.057       -3788.438
 -13581284.407 6  21074784.126         -99.304
  -8714035.976 6  22107987.637         742.442
  -6127503.940 6  22523487.711        -750.876
 98  9 30 17 17 50.0000000  0  8G21G17G03G08G23G01G29G31             0.000186989
  -3332284.695 7  20794860.422       -2027.376
   9602474.321 6  22948877.893       -4931.932
  -3037273.381 7  21296528.277       -2961.436
    -12196.005 5  23801090.372          86.507
   5648065.228 6  21720589.402       -3789.267
 -13580269.221 6  21074979.740        -103.404
  -8721443.636 6  22106570.031         739.526
  -6119969.948 7  22524922.359        -755.919
 98  9 30 17 18  0.0000000  0  8G21G17G03G08G23G01G29G31             0.000200870
  -3311996.766 7  20798721.476       -2030.074
   9651809.581 5  22958253.353       -4935.403
  -3007626.694 7  21302171.047       -2968.060
    -13045.645 5  23800912.729          83.249
   5685963.668 6  21727795.871       -3790.561
 -13579206.331 6  21075180.508        -109.013
  -8728818.534 6  22105165.805         735.599
  -6112381.226 7  22526370.102        -761.980
 98  9 30 17 18 10.0000000  0  8G21G17G03G08G23G01G29G31             0.000214781
  -3291683.717 7  20802589.970       -2032.509
   9701174.576 5  22967653.352       -4937.865
  -2977913.455 7  21307824.978       -2974.666
    -13865.013 5  23800764.347          80.402
   5723877.286 6  21735010.569       -3792.139
 -13578091.571 7  21075397.086        -114.043
  -8736155.830 6  22103767.659         732.153
  -6104733.647 7  22527823.282        -767.555
 98  9 30 17 18 20.0000000  0  8G21G17G03G08G23G01G29G31             0.000228668
  -3271347.627 7  20806459.895       -2034.792
   9750566.649 5  22977048.057       -4940.468
  -2948136.051 7  21313491.929       -2980.986
    -14655.717 5  23800610.885          78.003
   5761803.276 6  21742226.839       -3792.955
 -13576928.727 6  21075614.164        -118.622
  -8743458.326 6  22102377.313         728.490
  -6097030.860 6  22529284.617        -773.134
 98  9 30 17 18 30.0000000  0  8G21G17G03G08G23G01G29G31             0.000242613
  -3250987.913 7  20810333.254       -2037.195
   9799986.246 6  22986459.647       -4943.271
  -2918295.874 7  21319169.541       -2986.960
    -15417.019 5  23800466.224          75.203
   5799739.726 6  21749444.755       -3794.051
 -13575719.300 6  21075842.332        -123.322
  -8750727.234 6  22100993.905         725.516
  -6089273.265 7  22530769.205        -778.455
 98  9 30 17 18 40.0000000  0  8G21G17G03G08G23G01G29G31             0.000256500
  -3230605.019 7  20814212.695       -2039.584
   9849432.499 6  22995863.008       -4946.034
  -2888394.845 6  21324861.319       -2993.047
    -16149.687 5  23800337.877          71.625
   5837684.734 6  21756667.894       -3794.972
 -13574465.314 6  21076080.731        -127.766
  -8757963.835 6  22099620.586         722.197
  -6081462.121 6  22532246.996        -783.862
 98  9 30 17 18 50.0000000  0  8G21G17G03G08G23G01G29G31             0.000270375
  -3210195.740 7  20818094.212       -2042.494
   9898907.347 6  23005284.543       -4948.950
  -2858430.564 7  21330563.543       -2999.780
    -16850.846 6  23800194.504          68.674
   5875640.014 6  21763891.391       -3796.272
 -13573164.659 6  21076334.012        -132.333
  -8765164.857 6  22098246.482         718.196
  -6073595.385 6  22533744.892        -789.423
 98  9 30 17 19  0.0000000  0  8G21G17G03G08G23G01G29G31             0.000284271
  -3189759.308 7  20821983.383       -2045.233
   9948411.428 6  23014702.787       -4951.703
  -2828401.068 7  21336278.073       -3006.296
    -17518.401 5  23800059.861          64.883
   5913607.087 6  21771116.819       -3797.290
 -13571816.045 6  21076586.220        -137.682
  -8772328.556 6  22096885.183         714.540
  -6065672.016 6  22535255.810        -795.457
 98  9 30 17 19 10.0000000  0  8G21G17G03G08G23G01G29G31             0.000298175
  -3169299.652 7  20825878.636       -2047.568
   9997940.647 5  23024131.405       -4954.614
  -2798311.114 7  21342003.120       -3012.187
    -18155.975 5  23799951.402          62.280
   5951582.200 6  21778342.462       -3798.480
 -13570422.206 6  21076852.093        -142.178
  -8779459.226 6  22095526.817         711.131
  -6057693.741 6  22536769.804        -800.984
 98  9 30 17 19 20.0000000  0  8G21G17G03G08G23G01G29G31             0.000312012
  -3148812.006 7  20829775.963       -2050.017
  10047498.115 6  23033554.727       -4956.798
  -2768157.547 7  21347743.334       -3018.152
    -18759.561 5  23799807.886          58.931
   5989569.926 6  21785572.684       -3799.281
 -13568978.216 7  21077127.695        -146.568
  -8786552.885 6  22094176.463         708.267
  -6049656.044 7  22538303.830        -806.255
 98  9 30 17 19 30.0000000  0  8G21G17G03G08G23G01G29G31             0.000325933
  -3128297.715 7  20833682.807       -2052.994
  10097081.254 6  23042993.505       -4959.926
  -2737942.532 7  21353490.704       -3024.786
    -19331.368 5  23799712.450          55.540
   6027567.440 6  21792798.757       -3800.473
 -13567486.608 7  21077411.383        -151.459
  -8793612.508 6  22092837.273         704.045
  -6041561.430 7  22539843.939        -812.527
 98  9 30 17 19 40.0000000  0  8G21G17G03G08G23G01G29G31             0.000339825
  -3107758.880 7  20837593.369       -2055.026
  10146687.100 6  23052431.637       -4961.914
  -2707668.314 7  21359253.526       -3030.388
    -19873.827 5  23799613.649          52.997
   6065573.346 6  21800032.484       -3801.151
 -13565948.552 7  21077705.874        -156.038
  -8800640.393 6  22091499.726         701.341
  -6033410.920 7  22541397.211        -817.932
 98  9 30 17 19 50.0000000  0  8G21G17G03G08G23G01G29G31             0.000353726
  -3087195.669 7  20841503.647       -2057.866
  10196318.136 6  23061877.926       -4964.635
  -2677334.101 7  21365025.221       -3036.874
    -20385.509 6  23799522.864          49.121
   6103588.665 6  21807262.563       -3802.493
 -13564362.367 7  21078009.739        -161.424
  -8807635.252 6  22090172.555         697.519
  -6025203.925 7  22542958.211        -824.001
 98  9 30 17 20  0.0000000  0  8G21G17G03G08G23G01G29G31             0.000367619
  -3066609.299 7  20845419.361       -2059.669
  10245974.684 5  23071338.238       -4966.774
  -2646938.411 7  21370810.223       -3042.714
    -20866.385 6  23799432.076          46.678
   6141614.469 6  21814503.445       -3803.099
 -13562727.648 7  21078314.962        -165.790
  -8814595.775 6  22088846.814         694.472
  -6016939.608 7  22544528.582        -829.378
 98  9 30 17 20 10.0000000  0  8G21G17G03G08G23G01G29G31             0.000381500
  -3046003.838 7  20849340.298       -2061.974
  10295652.982 5  23080776.943       -4969.478
  -2616483.628 7  21376606.959       -3049.167
    -21318.729 6  23799347.371          43.347
   6179648.033 6  21821737.244       -3804.239
 -13561047.590 7  21078636.498        -170.967
  -8821525.424 6  22087528.442         690.973
  -6008619.459 7  22546117.414        -835.472
 98  9 30 17 20 20.0000000  0  8G21G17G03G08G23G01G29G31             0.000395306
  -3025376.701 7  20853262.021       -2063.766
  10345356.334 5  23090237.898       -4971.347
  -2585966.888 6  21382406.556       -3054.659
    -21738.971 5  23799252.362          41.057
   6217692.212 6  21828979.270       -3804.858
 -13559318.868 7  21078966.833        -175.165
  -8828422.374 6  22086213.646         688.623
  -6000240.629 6  22547701.379        -840.508
 98  9 30 17 20 30.0000000  0  8G21G17G03G08G23G01G29G31             0.000409222
  -3004727.459 7  20857193.547       -2065.929
  10395084.953 5  23099704.148       -4973.891
  -2555388.888 7  21388232.912       -3060.748
    -22128.619 5  23799190.696          37.592
   6255746.253 6  21836218.650       -3805.765
 -13557542.034 7  21079301.176        -180.119
  -8835287.517 6  22084900.927         685.185
  -5991803.992 6  22549310.243        -846.574
 98  9 30 17 20 40.0000000  0  8G21G17G03G08G23G01G29G31             0.000423075
  -2984057.623 7  20861129.223       -2068.303
  10444837.778 5  23109174.478       -4976.978
  -2524750.611 6  21394060.485       -3067.302
    -22489.712 5  23799118.296          34.770
   6293808.367 6  21843463.539       -3807.043
 -13555717.733 7  21079652.189        -185.260
  -8842122.404 6  22083600.513         681.859
  -5983310.580 6  22550927.550        -852.493
 98  9 30 17 20 50.0000000  0  8G21G17G03G08G23G01G29G31             0.000436930
  -2963366.952 7  20865065.041       -2070.291
  10494616.438 5  23118641.586       -4979.065
  -2494050.536 6  21399897.715       -3073.351
    -22820.573 6  23799053.768          31.213
   6331880.831 6  21850708.714       -3808.011
 -13553843.236 7  21080011.001        -190.176
  -8848924.608 6  22082311.403         678.719
  -5974759.323 6  22552554.443        -858.369
 98  9 30 17 21  0.0000000  0  8G21G17G03G08G23G01G29G31             0.000450784
  -2942654.450 7  20869008.372       -2072.289
  10544421.877 6  23128125.008       -4981.789
  -2463286.155 7  21405758.556       -3079.549
    -23119.091 5  23798993.746          28.137
   6369966.020 6  21857960.901       -3809.152
 -13551915.061 7  21080375.536        -195.558
  -8855691.970 6  22081022.151         675.092
  -5966147.354 7  22554190.853        -864.285
 98  9 30 17 21 10.0000000  0  8G21G17G03G08G23G01G29G31             0.000464660
  -2921924.024 7  20872953.420       -2074.442
  10594251.340 6  23137609.932       -4984.668
  -2432461.382 7  21411624.406       -3085.852
    -23387.634 5  23798945.171          25.154
   6408060.936 6  21865204.502       -3810.374
 -13549936.158 7  21080751.663        -200.885
  -8862428.081 6  22079743.703         671.652
  -5957477.565 7  22555840.427        -870.488
 98  9 30 17 21 20.0000000  0  8G21G17G03G08G23G01G29G31             0.000478531
  -2901174.796 7  20876901.901       -2075.899
  10644106.787 6  23147094.140       -4986.880
  -2401574.964 7  21417501.917       -3091.792
    -23625.023 5  23798901.605          22.121
   6446167.041 6  21872456.045       -3811.224
 -13547904.975 7  21081141.167        -205.841
  -8869132.593 6  22078463.750         668.996
  -5948747.349 7  22557507.529        -876.324
 98  9 30 17 21 30.0000000  0  8G21G17G03G08G23G01G29G31             0.000492393
  -2880405.661 7  20880854.318       -2077.936
  10693989.891 6  23156582.857       -4989.664
  -2370624.717 7  21423389.731       -3098.396
    -23830.025 6  23798868.056          18.634
   6484286.541 7  21879714.385       -3812.607
 -13545819.140 6  21081530.888        -211.470
  -8875803.708 6  22077194.316         665.593
  -5939954.789 7  22559176.636        -882.465
 98  9 30 17 21 40.0000000  0  8G21G17G03G08G23G01G29G31             0.000506228
  -2859618.316 7  20884807.307       -2079.897
  10743899.248 5  23166079.086       -4992.659
  -2339611.337 7  21429291.139       -3104.666
    -24003.897 5  23798827.781          15.491
   6522417.066 6  21886966.142       -3813.757
 -13543680.388 7  21081944.504        -216.890
  -8882442.062 6  22075935.828         662.308
  -5931102.093 7  22560859.693        -888.512
 98  9 30 17 21 50.0000000  0  8G21G17G03G08G23G01G29G31             0.000520070
  -2838814.126 7  20888765.661       -2081.049
  10793835.564 5  23175572.953       -4995.042
  -2308534.067 7  21435203.136       -3110.899
    -24145.907 5  23798789.079          12.900
   6560558.880 6  21894224.266       -3814.401
 -13541488.334 7  21082358.550        -221.931
  -8889046.112 6  22074676.768         658.818
  -5922188.475 7  22562559.850        -894.215
 98  9 30 17 22  0.0000000  0  8G21G17G03G08G23G01G29G31             0.000533974
  -2817992.646 7  20892727.808       -2083.284
  10843799.266 6  23185097.728       -4998.067
  -2277393.524 7  21441131.946       -3117.575
    -24255.189 6  23798784.435           9.105
   6598711.825 6  21901485.683       -3815.997
 -13539243.184 7  21082782.826        -227.307
  -8895615.018 6  22073427.153         654.994
  -5913214.539 6  22564262.655        -900.858
 98  9 30 17 22 10.0000000  0  8G21G17G03G08G23G01G29G31             0.000547813
  -2797152.678 7  20896695.751       -2085.149
  10893790.653 6  23194605.260       -5000.270
  -2246189.285 7  21447069.985       -3123.618
    -24330.811 6  23798767.985           6.049
   6636876.087 6  21908747.099       -3816.966
 -13536944.375 7  21083224.703        -232.709
  -8902148.036 6  22072183.046         651.616
  -5904179.877 7  22565982.773        -906.551
 98  9 30 17 22 20.0000000  0  8G21G17G03G08G23G01G29G31             0.000561683
  -2776292.779 7  20900664.551       -2086.702
  10943809.186 5  23204119.233       -5003.133
  -2214921.908 7  21453019.615       -3129.715
    -24371.956 6  23798756.114           2.756
   6675051.753 6  21916011.735       -3818.013
 -13534592.315 7  21083670.872        -237.575
  -8908645.659 6  22070947.238         648.311
  -5895084.490 7  22567719.346        -912.453
 98  9 30 17 22 30.0000000  0  8G21G17G03G08G23G01G29G31             0.000575526
  -2755411.909 7  20904638.146       -2089.342
  10993856.123 6  23213649.518       -5006.287
  -2183591.686 6  21458980.406       -3136.174
    -24377.623 6  23798751.542          -1.695
   6713239.487 6  21923277.730       -3819.403
 -13532185.880 7  21084131.639        -243.593
  -8915107.213 6  22069712.433         644.489
  -5885929.205 7  22569459.068        -918.509
 98  9 30 17 22 40.0000000  0  8G21G17G03G08G23G01G29G31             0.000589355
  -2734512.496 7  20908615.032       -2091.226
  11043929.290 5  23223173.147       -5008.334
  -2152203.074 7  21464954.647       -3142.033
    -24351.134 5  23798744.750          -4.596
   6751437.371 6  21930548.805       -3820.639
 -13529727.284 7  21084598.771        -248.982
  -8921534.723 6  22068487.286         640.843
  -5876716.908 6  22571213.457        -924.422
 98  9 30 17 22 50.0000000  0  8G21G17G03G08G23G01G29G31             0.000603251
  -2713591.459 7  20912593.920       -2092.963
  11094031.151 5  23232705.150       -5011.841
  -2120754.157 6  21470937.186       -3147.620
    -24289.615 6  23798775.162          -7.475
   6789648.236 6  21937821.955       -3821.529
 -13527214.024 6  21085075.562        -253.831
  -8927925.264 6  22067272.656         637.328
  -5867443.974 6  22572978.076        -930.254
 98  9 30 17 23  0.0000000  0  8G21G17G03G08G23G01G29G31             0.000617140
  -2692651.828 7  20916580.322       -2095.038
  11144158.597 5  23242251.102       -5014.127
  -2089248.087 6  21476937.542       -3153.491
    -24194.345 6  23798800.782         -11.067
   6827869.873 7  21945100.327       -3822.821
 -13524648.039 7  21085558.149        -259.256
  -8934280.801 6  22066066.254         634.001
  -5858112.516 6  22574754.644        -936.197
 98  9 30 17 23 10.0000000  0  8G21G17G03G08G23G01G29G31             0.000630940
  -2671689.712 7  20920567.869       -2097.578
  11194314.456 5  23251796.197       -5017.206
  -2057681.122 7  21482940.044       -3159.966
    -24061.753 6  23798813.739         -15.259
   6866105.668 6  21952365.464       -3824.190
 -13522025.776 7  21086066.564        -265.106
  -8940597.882 6  22064868.797         629.796
  -5848718.028 6  22576535.649        -942.751
 98  9 30 17 23 20.0000000  0  8G21G17G03G08G23G01G29G31             0.000644785
  -2650706.299 7  20924564.073       -2099.963
  11244496.899 6  23261337.071       -5020.105
  -2026055.504 7  21488964.439       -3165.971
    -23894.356 6  23798847.443         -18.677
   6904353.093 6  21959653.139       -3825.700
 -13519351.358 7  21086570.615        -270.505
  -8946878.717 6  22063670.337         626.079
  -5839262.703 7  22578335.756        -948.970
 98  9 30 17 23 30.0000000  0  8G21G17G03G08G23G01G29G31             0.000658641
  -2629699.898 7  20928560.561       -2101.697
  11294707.999 6  23270892.253       -5022.514
  -1994368.339 7  21494988.905       -3171.873
    -23691.753 6  23798884.223         -21.779
   6942614.113 6  21966931.583       -3826.791
 -13516624.311 7  21087090.762        -275.272
  -8953120.892 6  22062482.322         622.501
  -5829745.106 7  22580149.027        -954.848
 98  9 30 17 23 40.0000000  0  8G21G17G03G08G23G01G29G31             0.000672538
  -2608671.895 7  20932560.271       -2103.920
  11344946.764 6  23280459.741       -5025.307
  -1962619.570 7  21501032.832       -3177.838
    -23455.766 6  23798939.891         -24.908
   6980887.912 6  21974212.459       -3827.974
 -13513845.473 7  21087619.639        -280.304
  -8959324.922 6  22061301.176         618.694
  -5820166.495 7  22581973.746        -960.974
 98  9 30 17 23 50.0000000  0  8G21G17G03G08G23G01G29G31             0.000686376
  -2587622.351 7  20936570.855       -2106.248
  11395211.665 6  23290018.428       -5027.679
  -1930811.011 7  21507086.275       -3183.949
    -23187.089 6  23798990.624         -28.654
   7019172.798 6  21981502.065       -3829.259
 -13511017.395 7  21088158.245        -285.362
  -8965491.499 6  22060131.192         614.702
  -5810528.964 7  22583810.055        -966.980
 98  9 30 17 24  0.0000000  0  8G21G17G03G08G23G01G29G31             0.000700234
  -2566549.129 7  20940575.430       -2108.839
  11445504.975 5  23299592.715       -5031.078
  -1898941.683 7  21513152.453       -3190.417
    -22882.764 6  23799045.792         -32.648
   7057470.673 6  21988780.295       -3830.865
 -13508139.290 7  21088705.939        -290.768
  -8971619.055 6  22058963.640         610.678
  -5800830.717 7  22585652.660        -973.297
 98  9 30 17 24 10.0000000  0  8G21G17G03G08G23G01G29G31             0.000714060
  -2545448.964 7  20944594.313       -2110.997
  11495829.818 6  23309165.069       -5034.042
  -1867008.935 7  21519223.925       -3196.045
    -22539.194 6  23799109.474         -35.995
   7095785.207 6  21996075.481       -3832.092
 -13505207.973 7  21089264.220        -295.413
  -8977705.316 6  22057807.965         607.045
  -5791068.964 7  22587508.644        -978.935
 98  9 30 17 24 20.0000000  0  8G21G17G03G08G23G01G29G31             0.000727925
  -2524326.768 7  20948613.269       -2113.457
  11546180.694 6  23318748.869       -5036.711
  -1835018.321 7  21525315.716       -3201.994
    -22161.762 6  23799180.525         -39.305
   7134111.090 6  22003368.378       -3833.267
 -13502228.452 7  21089830.586        -300.377
  -8983756.691 6  22056654.936         603.313
  -5781249.547 7  22589380.010        -984.828
 98  9 30 17 24 30.0000000  0  8G21G17G03G08G23G01G29G31             0.000741768
  -2503182.312 7  20952637.447       -2116.010
  11596558.625 5  23328331.811       -5039.175
  -1802968.175 7  21531414.089       -3208.257
    -21748.858 6  23799256.442         -43.510
   7172450.150 6  22010665.424       -3834.702
 -13499200.017 7  21090404.394        -305.421
  -8989772.168 6  22055511.137         599.672
  -5771371.304 7  22591260.463        -990.952
 98  9 30 17 24 40.0000000  0  8G21G17G03G08G23G01G29G31             0.000755611
  -2482016.644 7  20956665.559       -2117.308
  11646963.216 6  23337929.563       -5041.698
  -1770858.738 7  21537522.193       -3213.966
    -21301.293 6  23799348.240         -46.191
   7210801.497 6  22017968.050       -3835.364
 -13496122.562 7  21090990.935        -310.010
  -8995752.527 6  22054367.338         596.417
  -5761433.577 7  22593146.567        -996.713
 98  9 30 17 24 50.0000000  0  8G21G17G03G08G23G01G29G31             0.000769469
  -2460831.655 7  20960694.316       -2119.539
  11697391.543 6  23347527.386       -5043.932
  -1738691.568 6  21543643.174       -3219.710
    -20821.715 5  23799429.093         -49.431
   7249162.353 6  22025265.955       -3836.533
 -13492998.198 7  21091587.351        -314.838
  -9001700.086 6  22053236.846         593.066
  -5751437.507 7  22595056.926       -1002.577
 98  9 30 17 25  0.0000000  0  8G21G17G03G08G23G01G29G31             0.000783327
  -2439625.941 7  20964728.939       -2121.831
  11747844.396 6  23357127.070       -5046.867
  -1706465.232 7  21549775.604       -3225.902
    -20308.797 5  23799534.772         -53.064
   7287533.048 6  22032565.648       -3837.857
 -13489826.056 7  21092190.206        -319.948
  -9007614.124 6  22052112.936         589.577
  -5741381.780 7  22596968.645       -1008.679
 98  9 30 17 25 10.0000000  0  8G21G17G03G08G23G01G29G31             0.000797185
  -2418400.875 7  20968767.926       -2123.578
  11798321.455 6  23366732.048       -5048.996
  -1674178.843 7  21555917.191       -3231.787
    -19762.787 6  23799643.099         -56.563
   7325912.517 6  22039869.276       -3838.495
 -13486606.368 7  21092798.712        -324.542
  -9013494.957 6  22050994.177         586.494
  -5731267.641 7  22598893.169       -1014.461
 98  9 30 17 25 20.0000000  0  8G21G17G03G08G23G01G29G31             0.000811005
  -2397153.547 7  20972811.565       -2125.798
  11848826.557 6  23376348.044       -5051.750
  -1641828.319 7  21562071.084       -3238.139
    -19181.786 5  23799748.205         -59.653
   7364303.993 6  22047170.972       -3839.789
 -13483336.539 7  21093424.819        -329.384
  -9019340.185 6  22049883.074         583.009
  -5721092.405 7  22600825.493       -1020.422
 98  9 30 17 25 30.0000000  0  8G21G17G03G08G23G01G29G31             0.000824847
  -2375885.952 7  20976861.785       -2127.658
  11899357.955 6  23385957.601       -5054.054
  -1609416.249 7  21568243.221       -3244.060
    -18567.856 6  23799870.912         -62.715
   7402705.173 6  22054477.390       -3840.521
 -13480019.782 7  21094054.574        -333.775
  -9025152.791 6  22048773.473         579.901
  -5710859.055 6  22602772.626       -1026.099
 98  9 30 17 25 40.0000000  0  8G21G17G03G08G23G01G29G31             0.000838669
  -2354598.411 7  20980910.289       -2130.174
  11949915.187 6  23395577.032       -5057.336
  -1576943.376 7  21574418.722       -3250.816
    -17921.809 6  23799991.975         -66.792
   7441116.181 6  22061789.891       -3842.134
 -13476656.145 7  21094695.635        -339.084
  -9030933.573 6  22047678.898         576.048
  -5700568.429 6  22604727.272       -1032.182
 98  9 30 17 25 50.0000000  0  8G21G17G03G08G23G01G29G31             0.000852506
  -2333288.683 7  20984961.224       -2131.921
  12000500.089 6  23405205.621       -5060.016
  -1544408.658 7  21580615.972       -3256.361
    -17240.435 5  23800103.377         -69.766
   7479538.860 6  22069099.457       -3842.645
 -13473241.530 7  21095344.636        -343.846
  -9036682.165 6  22046584.034         573.775
  -5690218.231 6  22606702.093       -1037.570
 98  9 30 17 26  0.0000000  0  8G21G17G03G08G23G01G29G31             0.000866374
  -2311957.536 7  20989021.890       -2134.010
  12051110.725 6  23414839.001       -5061.876
  -1511815.235 7  21586817.514       -3262.091
    -16523.683 6  23800256.635         -73.485
   7517971.540 6  22076411.741       -3843.359
 -13469777.410 7  21096002.367        -348.883
  -9042400.310 6  22045491.676         570.563
  -5679809.843 6  22608681.494       -1043.713
 98  9 30 17 26 10.0000000  0  8G21G17G03G08G23G01G29G31             0.000880152
  -2290602.529 7  20993089.569       -2136.461
  12101748.625 5  23424472.241       -5064.999
  -1479161.336 7  21593029.431       -3268.341
    -15768.851 5  23800384.637         -77.124
   7556416.670 6  22083725.673       -3845.233
 -13466260.182 6  21096671.546        -354.355
  -9048085.365 6  22044410.766         567.169
  -5669340.912 6  22610669.552       -1049.762
 98  9 30 17 26 20.0000000  0  8G21G17G03G08G23G01G29G31             0.000894022
  -2269226.168 7  20997156.245       -2138.902
  12152411.352 6  23434117.213       -5067.448
  -1446448.036 7  21599253.296       -3274.522
    -14978.702 5  23800553.777         -80.493
   7594872.184 6  22091047.331       -3846.152
 -13462690.001 7  21097355.821        -359.726
  -9053738.946 6  22043332.646         563.664
  -5658813.388 7  22612675.425       -1055.800
 98  9 30 17 26 30.0000000  0  8G21G17G03G08G23G01G29G31             0.000907816
  -2247831.001 7  21001229.288       -2140.706
  12203094.644 5  23443760.682       -5069.351
  -1413679.232 7  21605492.972       -3279.962
    -14158.085 5  23800693.798         -83.963
   7633332.927 6  22098366.985       -3846.783
 -13459070.808 7  21098041.883        -364.627
  -9059363.716 6  22042264.970         560.773
  -5648231.265 7  22614688.809       -1061.342
 98  9 30 17 26 40.0000000  0  8G21G17G03G08G23G01G29G31             0.000921661
  -2226412.734 7  21005305.695       -2143.097
  12253802.961 5  23453408.588       -5072.005
  -1380850.763 7  21611736.798       -3285.866
    -13302.428 6  23800869.808         -87.672
   7671803.025 6  22105685.351       -3847.778
 -13455398.928 7  21098740.467        -370.062
  -9064954.248 6  22041204.235         557.381
  -5637589.163 7  22616714.214       -1067.319
 98  9 30 17 26 50.0000000  0  8G21G17G03G08G23G01G29G31             0.000935465
  -2204973.081 7  21009383.675       -2145.207
  12304534.835 5  23463057.065       -5074.310
  -1347964.583 7  21617996.006       -3291.457
    -12414.235 6  23801039.162         -90.506
   7710280.804 6  22113012.874       -3848.053
 -13451675.159 7  21099452.072        -375.096
  -9070511.552 6  22040144.216         554.047
  -5626887.488 7  22618751.567       -1073.083
 98  9 30 17 27  0.0000000  0  8G21G17G03G08G23G01G29G31             0.000949266
  -2183513.322 7  21013463.373       -2147.253
  12355288.006 5  23472709.621       -5076.357
  -1315022.927 6  21624259.865       -3297.318
    -11495.639 6  23801210.806         -93.787
   7748764.758 6  22120334.818       -3849.171
 -13447901.395 7  21100170.259        -380.190
  -9076036.641 6  22039086.844         550.993
  -5616128.665 7  22620799.652       -1079.164
 98  9 30 17 27 10.0000000  0  8G21G17G03G08G23G01G29G31             0.000963100
  -2162028.875 7  21017551.942       -2149.313
  12406068.128 5  23482380.207       -5079.190
  -1282021.871 7  21630543.684       -3302.805
    -10541.065 5  23801396.974         -97.020
   7787261.171 6  22127662.557       -3850.002
 -13444073.296 7  21100897.175        -385.236
  -9081523.495 6  22038040.204         547.337
  -5605308.559 7  22622859.542       -1085.042
 98  9 30 17 27 20.0000000  0  8G21G17G03G08G23G01G29G31             0.000976875
  -2140522.052 7  21021647.309       -2152.147
  12456874.126 5  23492040.490       -5081.918
  -1248962.046 7  21636835.232       -3309.029
     -9550.881 5  23801570.695        -101.257
   7825768.464 6  22134984.072       -3851.424
 -13440192.338 7  21101636.469        -391.011
  -9086971.776 6  22037011.452         542.912
  -5594427.669 7  22624932.811       -1091.232
 98  9 30 17 27 30.0000000  0  8G21G17G03G08G23G01G29G31             0.000990661
  -2118992.043 7  21025745.895       -2154.497
  12507705.572 5  23501709.073       -5084.712
  -1215843.286 7  21643138.227       -3314.970
     -8524.543 5  23801771.316        -104.744
   7864286.655 6  22142322.043       -3852.599
 -13436258.673 7  21102385.850        -396.143
  -9092380.377 6  22035980.482         539.122
  -5583485.060 7  22627011.733       -1097.438
 98  9 30 17 27 40.0000000  0  8G21G17G03G08G23G01G29G31             0.000004522
  -3672853.921 7  20730049.429       -2157.259
  10983148.693 5  23211606.486       -5087.685
  -2758080.989 7  21349660.987       -3321.382
  -1582877.898 5  23502191.664        -109.108
   6327401.474 6  21849859.203       -3854.140
 -15007689.070 7  20803349.004        -402.100
 -10673166.827 6  21735168.973         534.267
  -7147897.598 6  22329313.361       -1104.312
 98  9 30 17 27 50.0000000  0  8G21G17G03G08G23G01G29G31             0.000018322
  -3651272.178 7  20734159.105       -2159.514
  11034032.726 5  23221288.519       -5090.009
  -2724841.929 7  21355989.596       -3327.022
  -1581770.204 6  23502403.018        -112.987
   6365944.641 6  21857197.388       -3855.005
 -15003643.816 6  20804117.132        -407.539
 -10678489.307 6  21734154.673         530.081
  -7136827.080 6  22331419.757       -1110.486
 98  9 30 17 28  0.0000000  0  8G21G17G03G08G23G01G29G31             0.000032125
  -3629664.170 7  20738275.005       -2161.583
  11084943.466 5  23230975.702       -5091.861
  -2691542.016 7  21362321.710       -3332.660
  -1580620.146 5  23502626.821        -116.856
   6404500.305 6  21864530.850       -3855.760
 -14999541.372 7  20804899.425        -412.688
 -10683767.745 6  21733152.250         526.221
  -7125691.689 6  22333539.317       -1116.273
 98  9 30 17 28 10.0000000  0  8G21G17G03G08G23G01G29G31             0.000045911
  -3608034.072 7  20742390.978       -2164.389
  11135876.322 5  23240668.253       -5094.440
  -2658184.575 7  21368671.784       -3339.049
  -1579431.854 5  23502839.178        -121.335
   6443064.820 6  21871869.465       -3857.138
 -14995386.055 7  20805687.157        -418.390
 -10689004.269 6  21732154.622         521.509
  -7114494.944 7  22335670.469       -1122.820
 98  9 30 17 28 20.0000000  0  8G21G17G03G08G23G01G29G31             0.000059716
  -3586380.166 7  20746508.881       -2166.525
  11186833.457 5  23250364.310       -5097.147
  -2624767.111 7  21375026.364       -3344.908
  -1578204.283 5  23503075.072        -124.818
   6481639.925 6  21879208.294       -3858.226
 -14991176.221 7  20806492.704        -423.845
 -10694195.588 6  21731160.929         516.914
  -7103235.576 6  22337815.644       -1129.184
 98  9 30 17 28 30.0000000  0  8G21G17G03G08G23G01G29G31             0.000073491
  -3564704.348 7  20750636.158       -2169.130
  11237814.965 5  23260070.455       -5099.751
  -2591289.182 7  21381398.618       -3351.318
  -1576938.482 5  23503305.029        -129.276
   6520224.242 6  21886557.998       -3859.453
 -14986912.593 7  20807304.332        -429.482
 -10699343.068 6  21730187.055         512.271
  -7091914.713 6  22339968.402       -1135.507
 98  9 30 17 28 40.0000000  0  8G21G17G03G08G23G01G29G31             0.000087303
  -3543005.149 7  20754768.371       -2171.252
  11288823.869 5  23269781.536       -5102.313
  -2557748.890 7  21387781.315       -3357.158
  -1575632.683 5  23503558.738        -133.092
   6558819.699 6  21893896.970       -3860.262
 -14982595.160 7  20808125.045        -434.471
 -10704445.613 6  21729218.831         507.932
  -7080530.409 6  22342132.823       -1141.707
 98  9 30 17 28 50.0000000  0  8G21G17G03G08G23G01G29G31             0.000101116
  -3521283.461 7  20758900.082       -2173.157
  11339860.073 5  23279487.966       -5104.765
  -2524146.456 7  21394177.250       -3363.303
  -1574286.029 5  23503817.598        -136.511
   6597428.331 6  21901237.946       -3861.633
 -14978223.796 7  20808955.275        -439.888
 -10709504.441 6  21728252.825         503.979
  -7069082.327 6  22344312.697       -1148.146
 98  9 30 17 29  0.0000000  0  8G21G17G03G08G23G01G29G31             0.000114896
  -3499544.182 7  20763034.226       -2175.175
  11390918.670 5  23289198.475       -5107.158
  -2490485.223 6  21400581.769       -3369.273
  -1572903.425 5  23504085.545        -140.227
   6636046.604 6  21908590.154       -3862.598
 -14973802.151 7  20809798.382        -444.942
 -10714525.890 6  21727290.396         500.351
  -7057575.060 6  22346497.292       -1153.859
 98  9 30 17 29 10.0000000  0  8G21G17G03G08G23G01G29G31             0.000128707
  -3477784.233 7  20767178.745       -2177.553
  11442002.026 5  23298925.225       -5109.918
  -2456761.871 7  21406998.525       -3375.964
  -1571482.080 5  23504356.856        -144.693
   6674677.149 6  21915939.787       -3864.256
 -14969328.058 7  20810648.287        -450.490
 -10719508.483 6  21726348.716         496.092
  -7046007.110 6  22348698.989       -1160.349
 98  9 30 17 29 20.0000000  0  8G21G17G03G08G23G01G29G31             0.000142535
  -3455999.856 7  20771319.901       -2179.826
  11493114.686 5  23308659.918       -5113.022
  -2422972.715 7  21413429.374       -3382.477
  -1570017.202 5  23504630.025        -148.448
   6713323.322 6  21923300.653       -3865.706
 -14964798.051 7  20811514.218        -456.038
 -10724449.013 6  21725413.762         491.760
  -7034375.015 6  22350920.145       -1166.582
 98  9 30 17 29 30.0000000  0  8G21G17G03G08G23G01G29G31             0.000156336
  -3434191.524 7  20775470.144       -2182.201
  11544256.343 5  23318387.669       -5115.660
  -2389117.381 7  21419873.102       -3388.898
  -1568509.700 5  23504921.799        -153.487
   6751982.334 6  21930654.148       -3866.496
 -14960212.356 7  20812385.443        -461.337
 -10729348.708 6  21724480.952         488.164
  -7022679.145 6  22353143.018       -1172.932
 98  9 30 17 29 40.0000000  0  8G21G17G03G08G23G01G29G31             0.000170110
  -3412359.904 7  20779625.395       -2184.579
  11595424.416 5  23328114.062       -5118.474
  -2355197.709 7  21426325.987       -3395.232
  -1566961.692 5  23505213.141        -157.021
   6790652.440 6  21938016.946       -3867.732
 -14955572.211 7  20813268.116        -466.818
 -10734210.699 6  21723551.863         484.648
  -7010922.179 6  22355380.773       -1178.842
 98  9 30 17 29 50.0000000  0  8G21G17G03G08G23G01G29G31             0.000183884
  -3390504.627 7  20783782.362       -2186.705
  11646619.595 5  23337856.695       -5121.001
  -2321214.296 7  21432790.177       -3401.495
  -1565373.915 5  23505511.066        -160.901
   6829334.727 6  21945378.240       -3868.701
 -14950877.020 7  20814162.666        -472.150
 -10739036.442 6  21722633.005         481.091
  -6999104.050 6  22357624.179       -1184.921
 98  9 30 17 30  0.0000000  0  8G21G17G03G08G23G01G29G31             0.000197714
  -3368626.063 7  20787942.263       -2189.061
  11697842.201 5  23347608.771       -5123.245
  -2287167.211 7  21439272.611       -3407.909
  -1563748.054 5  23505820.223        -164.503
   6868029.779 6  21952738.032       -3869.894
 -14946127.167 7  20815067.875        -477.577
 -10743827.733 6  21721720.586         477.791
  -6987224.021 6  22359889.622       -1190.953
 98  9 30 17 30 10.0000000  0  8G21G17G03G08G23G01G29G31             0.000211490
  -3346724.790 7  20792110.321       -2191.528
  11749091.551 5  23357355.341       -5126.537
  -2253056.636 7  21445764.274       -3414.455
  -1562085.938 5  23506132.457        -168.242
   6906737.265 6  21960107.484       -3871.571
 -14941323.487 7  20815979.096        -483.351
 -10748585.466 6  21720816.252         474.033
  -6975281.878 6  22362159.788       -1197.368
 98  9 30 17 30 20.0000000  0  8G21G17G03G08G23G01G29G31             0.000225259
  -3324803.179 7  20796284.601       -2193.051
  11800365.088 5  23367116.002       -5128.670
  -2218885.732 6  21452261.874       -3419.846
  -1560390.129 5  23506448.696        -171.519
   6945454.838 6  21967474.501       -3872.044
 -14936468.786 7  20816902.334        -487.965
 -10753310.284 6  21719910.271         471.097
  -6963279.749 6  22364440.255       -1203.265
 98  9 30 17 30 30.0000000  0  8G21G17G03G08G23G01G29G31             0.000239086
  -3302856.936 7  20800464.752       -2196.127
  11851667.487 5  23376885.825       -5132.050
  -2184651.021 7  21458777.864       -3426.801
  -1558656.264 5  23506785.041        -175.601
   6984185.591 6  21974836.083       -3873.996
 -14931559.530 7  20817839.955        -493.927
 -10757998.286 6  21719023.610         466.829
  -6951213.513 6  22366741.472       -1210.002
 98  9 30 17 30 40.0000000  0  8G21G17G03G08G23G01G29G31             0.000252887
  -3280886.179 7  20804647.190       -2198.309
  11902999.421 5  23386650.351       -5134.766
  -2150352.927 7  21465304.156       -3433.032
  -1556883.658 5  23507124.747        -178.371
   7022929.114 6  21982210.685       -3874.973
 -14926595.444 7  20818781.653        -499.091
 -10762650.392 6  21718142.027         463.661
  -6939082.904 7  22369051.345       -1216.298
 98  9 30 17 30 50.0000000  0  8G21G17G03G08G23G01G29G31             0.000266698
  -3258889.549 7  20808830.916       -2200.877
  11954360.375 5  23396423.463       -5137.405
  -2115991.640 6  21471845.471       -3439.064
  -1555070.755 5  23507470.537        -182.761
   7061686.944 6  21989590.796       -3876.401
 -14921576.458 7  20819734.011        -504.614
 -10767266.192 6  21717259.729         460.135
  -6926886.582 7  22371374.169       -1222.729
 98  9 30 17 31  0.0000000  0  8G21G17G03G08G23G01G29G31             0.000280474
  -3236864.228 7  20813019.437       -2204.140
  12005751.137 5  23406200.511       -5141.010
  -2081566.473 6  21478393.514       -3445.981
  -1553214.387 5  23507825.629        -188.049
   7100460.501 6  21996968.907       -3878.789
 -14916500.072 7  20820704.473        -510.838
 -10771843.202 6  21716395.033         455.284
  -6914621.605 7  22373703.505       -1230.298
 98  9 30 17 31 10.0000000  0  8G21G17G03G08G23G01G29G31             0.000294293
  -3214809.376 7  20817216.115       -2207.143
  12057172.174 5  23415994.156       -5143.510
  -2047076.780 6  21484958.941       -3452.255
  -1551313.217 5  23508184.512        -192.354
   7139248.980 6  22004353.596       -3879.721
 -14911364.648 7  20821681.372        -516.582
 -10776379.431 6  21715533.269         451.682
  -6902286.406 6  22376052.586       -1236.998
 98  9 30 17 31 20.0000000  0  8G21G17G03G08G23G01G29G31             0.000308047
  -3192726.385 7  20821423.164       -2209.148
  12108623.693 5  23425777.356       -5146.066
  -2012525.033 7  21491535.742       -3457.474
  -1549367.508 5  23508547.400        -195.966
   7178050.104 6  22011733.276       -3879.971
 -14906171.527 7  20822671.006        -521.738
 -10780874.131 6  21714675.011         447.879
  -6889882.038 6  22378408.321       -1243.352
 98  9 30 17 31 30.0000000  0  8G21G17G03G08G23G01G29G31             0.000321886
  -3170621.109 7  20825627.997       -2212.140
  12160100.050 6  23435579.946       -5149.365
  -1977918.070 6  21498120.415       -3463.925
  -1547382.854 5  23508930.824        -200.610
   7216857.931 6  22019118.898       -3881.709
 -14900925.891 7  20823669.798        -527.591
 -10785331.407 6  21713820.331         443.744
  -6877413.541 6  22380784.590       -1250.504
 98  9 30 17 31 40.0000000  0  8G21G17G03G08G23G01G29G31             0.000335715
  -3148486.882 7  20829838.340       -2215.021
  12211607.718 6  23445380.533       -5152.718
  -1943248.939 7  21504719.755       -3470.241
  -1545352.550 5  23509319.542        -205.560
   7255678.970 6  22026505.162       -3883.104
 -14895621.223 7  20824679.323        -533.629
 -10789743.959 6  21712981.606         439.149
  -6864873.671 7  22383174.454       -1257.866
 98  9 30 17 31 50.0000000  0  8G21G17G03G08G23G01G29G31             0.000349541
  -3126325.669 7  20834057.768       -2217.603
  12263143.682 6  23455193.352       -5154.965
  -1908519.517 6  21511323.172       -3476.222
  -1543277.313 5  23509727.148        -210.109
   7294513.364 6  22033895.504       -3884.071
 -14890258.232 7  20825697.362        -539.357
 -10794112.871 6  21712151.109         434.641
  -6852263.225 6  22385568.896       -1264.720
 98  9 30 17 32  0.0000000  0  8G21G17G03G08G23G01G29G31             0.000363341
  -3104138.254 7  20838277.983       -2220.309
  12314708.316 5  23464997.086       -5158.133
  -1873730.453 6  21517945.120       -3482.292
  -1541157.379 6  23510127.528        -214.687
   7333362.496 6  22041287.779       -3885.725
 -14884836.102 7  20826723.772        -545.535
 -10798437.016 6  21711328.340         429.982
  -6839581.851 7  22387978.291       -1271.930
 98  9 30 17 32 10.0000000  0  8G21G17G03G08G23G01G29G31             0.000377175
  -3081927.382 7  20842500.200       -2222.580
  12366300.403 5  23474817.705       -5161.028
  -1838882.416 6  21524577.657       -3488.205
  -1538993.303 6  23510540.142        -219.188
   7372224.773 6  22048680.340       -3887.207
 -14879356.016 7  20827776.510        -551.190
 -10802716.920 6  21710515.157         425.572
  -6826831.010 6  22390410.223       -1278.923
 98  9 30 17 32 20.0000000  0  8G21G17G03G08G23G01G29G31             0.000391011
  -3059691.171 7  20846732.722       -2225.395
  12417921.761 5  23484642.616       -5163.899
  -1803973.976 6  21531215.417       -3494.386
  -1536781.660 6  23510970.143        -224.092
   7411101.047 6  22056079.554       -3888.647
 -14873816.739 7  20828824.169        -557.332
 -10806949.210 6  21709709.845         420.439
  -6814010.338 6  22392845.446       -1285.828
 98  9 30 17 32 30.0000000  0  8G21G17G03G08G23G01G29G31             0.000404834
  -3037431.673 7  20850967.745       -2227.110
  12469571.579 5  23494469.888       -5166.374
  -1769007.692 7  21537872.993       -3499.605
  -1534523.332 6  23511400.213        -228.152
   7449989.836 6  22063478.482       -3889.604
 -14868219.739 7  20829890.286        -562.708
 -10811134.955 6  21708915.049         416.228
  -6801123.023 6  22395296.336       -1291.884
 98  9 30 17 32 40.0000000  0  8G21G17G03G08G23G01G29G31             0.000418670
  -3015147.165 7  20855210.497       -2229.756
  12521252.346 5  23504302.528       -5169.870
  -1733981.643 7  21544540.158       -3505.801
  -1532215.086 5  23511834.221        -233.083
   7488894.149 6  22070881.990       -3891.310
 -14862562.252 7  20830967.565        -568.845
 -10815273.461 6  21708130.842         411.993
  -6788167.253 6  22397767.977       -1299.063
 98  9 30 17 32 50.0000000  0  8G21G17G03G08G23G01G29G31             0.000432466
  -2992836.959 7  20859454.751       -2232.098
  12572964.547 5  23514130.229       -5172.644
  -1698893.625 6  21551216.695       -3511.780
  -1529856.362 5  23512274.524        -238.199
   7527815.852 6  22078294.226       -3893.042
 -14856842.377 7  20832060.012        -574.780
 -10819364.957 6  21707353.146         407.187
  -6775142.534 7  22400249.060       -1305.728
 98  9 30 17 33  0.0000000  0  8G21G17G03G08G23G01G29G31             0.000446299
  -2970504.844 7  20863703.370       -2234.555
  12624703.510 5  23523984.618       -5175.513
  -1663746.945 6  21557899.887       -3517.900
  -1527450.602 5  23512729.137        -243.259
   7566752.306 6  22085695.301       -3894.620
 -14851064.026 7  20833154.891        -580.876
 -10823413.153 6  21706576.166         402.629
  -6762052.843 6  22402732.433       -1312.323
 98  9 30 17 33 10.0000000  0  8G21G17G03G08G23G01G29G31             0.000460189
  -2948148.253 7  20867960.860       -2237.268
  12676471.282 6  23533839.436       -5178.571
  -1628539.127 6  21564603.755       -3524.228
  -1524996.578 5  23513206.859        -248.270
   7605704.736 6  22093108.753       -3896.254
 -14845225.072 7  20834261.218        -587.314
 -10827415.000 6  21705812.566         397.539
  -6748895.683 6  22405241.849       -1319.374
 98  9 30 17 33 20.0000000  0  8G21G17G03G08G23G01G29G31             0.000474027
  -2925770.081 7  20872222.641       -2238.405
  12728267.249 6  23543696.685       -5180.940
  -1593271.227 7  21571323.434       -3529.587
  -1522497.090 5  23513681.931        -252.057
   7644671.222 6  22100517.983       -3896.819
 -14839327.145 7  20835385.644        -592.232
 -10831372.089 6  21705059.622         394.177
  -6735673.909 6  22407758.060       -1324.940
 98  9 30 17 33 30.0000000  0  8G21G17G03G08G23G01G29G31             0.000487838
  -2903370.447 7  20876484.567       -2241.266
  12780091.169 6  23553560.447       -5184.221
  -1557944.012 7  21578041.326       -3536.005
  -1519954.357 4  23514150.782        -257.353
   7683651.891 6  22107943.241       -3899.081
 -14833371.531 7  20836521.592        -598.680
 -10835285.927 6  21704311.905         389.151
  -6722389.661 7  22410287.723       -1331.685
 98  9 30 17 33 40.0000000  0  8G21G17G03G08G23G01G29G31             0.000501653
  -2880943.956 7  20880751.717       -2244.244
  12831947.556 5  23563422.275       -5186.940
  -1522552.305 7  21584772.525       -3542.508
  -1517364.46715  23514641.953        -261.559
   7722652.451 6  22115368.357       -3901.091
 -14827353.954 7  20837666.697        -604.999
 -10839152.391 6  21703581.001         384.328
  -6709038.418 6  22412826.402       -1338.622
 98  9 30 17 33 50.0000000  0  8G21G17G03G08G23G01G29G31             0.000515524
  -2858492.073 7  20885022.873       -2246.655
  12883834.695 5  23573301.635       -5190.742
  -1487097.543 7  21591521.897       -3548.915
  -1514729.016 5  23515150.867        -265.813
   7761671.164 6  22122793.830       -3903.111
 -14821276.763 7  20838824.751        -610.941
 -10842974.770 6  21702857.250         380.182
  -6695621.741 7  22415381.821       -1345.018
 98  9 30 17 34  0.0000000  0  8G21G17G03G08G23G01G29G31             0.000529358
  -2836012.786 7  20889303.115       -2249.603
  12935754.604 5  23583186.503       -5193.855
  -1451578.853 6  21598278.424       -3555.341
  -1512045.630 5  23515656.851        -271.231
   7800710.645 6  22130223.881       -3905.165
 -14815137.687 7  20839993.395        -617.259
 -10846750.655 6  21702138.007         375.383
  -6682137.790 7  22417947.186       -1352.005
 98  9 30 17 34 10.0000000  0  8G21G17G03G08G23G01G29G31             0.000543210
  -2813507.629 7  20893578.778       -2252.113
  12987706.554 5  23593065.360       -5197.076
  -1415998.878 7  21605046.683       -3561.182
  -1509316.891 5  23516183.651        -274.855
   7839769.080 6  22137652.001       -3906.876
 -14808938.728 7  20841172.340        -623.041
 -10850481.684 6  21701423.701         370.679
  -6668589.540 7  22420524.999       -1357.979
 98  9 30 17 34 20.0000000  0  8G21G17G03G08G23G01G29G31             0.000557049
  -2790975.993 7  20897866.747       -2254.472
  13039691.871 6  23602955.379       -5200.131
  -1380356.859 7  21611834.403       -3567.383
  -1506542.404 5  23516710.309        -279.489
   7878845.667 6  22145094.644       -3908.449
 -14802680.852 7  20842362.804        -628.636
 -10854168.543 6  21700723.203         366.570
  -6654976.921 7  22423115.475       -1364.331
 98  9 30 17 34 30.0000000  0  8G21G17G03G08G23G01G29G31             0.000570887
  -2768415.391 7  20902161.228       -2257.594
  13091712.186 5  23612849.763       -5203.473
  -1344652.063 7  21618626.845       -3573.712
  -1503720.833 5  23517241.833        -284.351
   7917941.032 6  22152526.413       -3910.283
 -14796363.832 7  20843562.355        -634.697
 -10857809.814 6  21700034.582         361.833
  -6641298.070 7  22425720.406       -1371.524
 98  9 30 17 34 40.0000000  0  8G21G17G03G08G23G01G29G31             0.000584714
  -2745825.893 7  20906464.223       -2260.931
  13143766.075 5  23622752.089       -5207.489
  -1308885.316 7  21625430.163       -3580.330
  -1500854.362 5  23517782.874        -289.580
   7957054.039 6  22159974.066       -3912.849
 -14789988.490 7  20844778.434        -640.926
 -10861407.450 6  21699349.824         357.361
  -6627553.092 6  22428339.502       -1378.355
 98  9 30 17 34 50.0000000  0  8G21G17G03G08G23G01G29G31             0.000598571
  -2723204.503 7  20910767.002       -2263.660
  13195856.380 5  23632666.863       -5210.751
  -1273051.877 7  21632251.939       -3586.423
  -1497939.555 5  23518343.802        -293.472
   7996188.732 6  22167420.859       -3914.511
 -14783550.902 7  20845997.516        -646.686
 -10864958.186 6  21698673.437         353.030
  -6613737.427 6  22430960.315       -1385.010
 98  9 30 17 35  0.0000000  0  8G21G17G03G08G23G01G29G31             0.000612430
  -2700552.510 7  20915077.080       -2266.939
  13247980.350 5  23642589.722       -5214.359
  -1237152.364 7  21639084.807       -3593.546
  -1494978.518 5  23518913.175        -298.808
   8035342.589 6  22174868.440       -3916.539
 -14777053.092 7  20847237.420        -653.117
 -10868462.579 6  21697997.408         348.132
  -6599851.679 6  22433600.088       -1392.307
 98  9 30 17 35 10.0000000  0  8G21G17G03G08G23G01G29G31             0.000626304
  -2677871.882 7  20919394.526       -2269.424
  13300136.928 5  23652522.024       -5216.963
  -1201188.340 7  21645931.337       -3599.556
  -1491973.472 5  23519480.326        -302.106
   8074512.343 6  22182326.393       -3917.784
 -14770497.180 7  20848485.764        -658.302
 -10871921.490 6  21697342.341         343.976
  -6585897.799 6  22436259.679       -1398.660
 98  9 30 17 35 20.0000000  0  8G21G17G03G08G23G01G29G31             0.000640170
  -2655164.632 7  20923712.759       -2272.160
  13352324.532 5  23662447.673       -5220.496
  -1165163.040 6  21652779.371       -3605.865
  -1488926.019 5  23520069.873        -306.491
   8113695.024 6  22189781.771       -3919.083
 -14763885.300 7  20849743.195        -664.343
 -10875336.216 6  21696696.647         339.505
  -6571877.347 6  22438928.141       -1405.403
 98  9 30 17 35 30.0000000  0  8G21G17G03G08G23G01G29G31             0.000654023
  -2632428.663 7  20928044.658       -2275.200
  13404546.908 6  23672394.643       -5223.976
  -1129073.728 7  21659650.586       -3612.369
  -1485833.285 5  23520659.279        -311.972
   8152894.231 6  22197239.726       -3921.181
 -14757214.080 7  20851019.658        -670.197
 -10878703.642 6  21696053.173         334.340
  -6557787.481 7  22441606.692       -1412.523
 98  9 30 17 35 40.0000000  0  8G21G17G03G08G23G01G29G31             0.000667897
  -2609663.638 7  20932373.910       -2278.072
  13456803.326 6  23682337.893       -5227.408
  -1092920.743 6  21666530.744       -3618.642
  -1482695.263 5  23521238.452        -316.370
   8192110.634 6  22204704.190       -3922.679
 -14750483.839 7  20852297.623        -676.093
 -10882024.318 6  21695417.925         329.944
  -6543628.878 7  22444308.567       -1419.576
 98  9 30 17 35 50.0000000  0  8G21G17G03G08G23G01G29G31             0.000681750
  -2586870.958 7  20936709.885       -2280.331
  13509092.056 6  23692283.287       -5230.281
  -1056705.073 7  21673422.133       -3624.518
  -1479512.359 5  23521852.252        -320.332
   8231342.929 6  22212165.864       -3923.813
 -14743695.067 7  20853586.963        -681.554
 -10885298.169 6  21694798.561         325.038
  -6529401.520 7  22447007.222       -1425.934
 98  9 30 17 36  0.0000000  0  8G21G17G03G08G23G01G29G31             0.000695608
  -2564053.694 7  20941055.592       -2283.171
  13561409.743 6  23702239.773       -5233.537
  -1020428.503 6  21680323.469       -3630.870
  -1476285.360 5  23522457.182        -324.980
   8270588.270 6  22219635.050       -3925.323
 -14736849.454 7  20854884.961        -687.376
 -10888526.864 6  21694189.498         320.724
  -6515107.194 7  22449726.125       -1432.962
 98  9 30 17 36 10.0000000  0  8G21G17G03G08G23G01G29G31             0.000709492
  -2541210.075 7  20945399.439       -2285.725
  13613756.939 5  23712207.204       -5236.458
   -984089.331 7  21687234.606       -3637.091
  -1473011.939 5  23523073.632        -330.219
   8309847.945 6  22227108.959       -3926.787
 -14729944.959 7  20856200.274        -693.465
 -10891707.944 6  21693582.655         315.746
  -6500744.583 7  22452462.055       -1439.807
 98  9 30 17 36 20.0000000  0  8G21G17G03G08G23G01G29G31             0.000723370
  -2518340.805 7  20949752.944       -2288.354
  13666133.028 5  23722160.754       -5238.910
   -947687.000 7  21694169.282       -3643.732
  -1469692.173 5  23523720.630        -334.325
   8349120.645 6  22234581.364       -3927.922
 -14722981.797 7  20857522.669        -699.341
 -10894841.662 6  21692983.967         310.841
  -6486314.333 7  22455205.498       -1446.707
 98  9 30 17 36 30.0000000  0  8G21G17G03G08G23G01G29G31             0.000737260
  -2495445.059 7  20954109.239       -2290.802
  13718537.164 5  23732133.837       -5241.914
   -911219.915 7  21701108.322       -3649.638
  -1466325.335 6  23524366.985        -338.849
   8388405.577 6  22242053.197       -3928.723
 -14715959.941 7  20858866.599        -705.092
 -10897928.444 6  21692395.581         306.670
  -6471815.299 7  22457969.331       -1453.215
 98  9 30 17 36 40.0000000  0  8G21G17G03G08G23G01G29G31             0.000751155
  -2472523.506 7  20958470.042       -2293.610
  13770966.313 5  23742114.074       -5244.397
   -874689.317 7  21708059.168       -3656.467
  -1462911.695 6  23525016.989        -343.460
   8427701.143 6  22249539.698       -3930.443
 -14708880.195 7  20860210.172        -711.032
 -10900969.397 6  21691818.429         301.881
  -6457247.768 7  22460740.749       -1460.376
 98  9 30 17 36 50.0000000  0  8G21G17G03G08G23G01G29G31             0.000765031
  -2449578.579 7  20962837.998       -2295.479
  13823417.292 5  23752096.885       -5246.016
   -838096.612 7  21715021.603       -3662.289
  -1459452.273 6  23525680.372        -348.358
   8467006.220 6  22257008.525       -3931.120
 -14701743.774 7  20861569.627        -716.251
 -10903965.408 6  21691250.792         297.693
  -6442613.303 7  22463521.251       -1466.496
 98  9 30 17 37  0.0000000  0  8G21G17G03G08G23G01G29G31             0.000778913
  -2426611.362 7  20967205.956       -2298.431
  13875890.670 5  23762083.920       -5248.659
   -801441.472 7  21721998.348       -3669.090
  -1455945.596 5  23526341.038        -353.677
   8506322.165 6  22264493.165       -3932.536
 -14694549.174 7  20862939.602        -723.018
 -10906915.027 6  21690687.592         292.235
  -6427911.396 7  22466319.214       -1474.077
 98  9 30 17 37 10.0000000  0  8G21G17G03G08G23G01G29G31             0.000792816
  -2403621.874 7  20971581.854       -2300.340
  13928386.833 6  23772075.461       -5251.021
   -764725.939 7  21728984.464       -3674.663
  -1452391.282 5  23527013.792        -357.721
   8545648.271 6  22271971.008       -3933.374
 -14687296.580 7  20864317.372        -728.175
 -10909818.026 6  21690136.624         288.194
  -6413142.688 7  22469133.987       -1480.350
 98  9 30 17 37 20.0000000  0  8G21G17G03G08G23G01G29G31             0.000806707
  -2380608.467 7  20975958.468       -2302.571
  13980907.166 6  23782072.582       -5253.357
   -727950.462 7  21735984.031       -3680.437
  -1448788.650 5  23527693.917        -362.769
   8584984.409 6  22279465.448       -3934.065
 -14679985.502 7  20865707.450        -734.106
 -10912674.029 6  21689592.312         283.266
  -6398306.946 7  22471957.346       -1487.029
 98  9 30 17 37 30.0000000  0  8G21G17G03G08G23G01G29G31             0.000820595
  -2357573.228 7  20980345.670       -2304.680
  14033449.172 5  23792073.137       -5255.225
   -691119.228 7  21742988.463       -3686.063
  -1445139.739 6  23528398.224        -367.181
   8624328.637 6  22286951.375       -3934.827
 -14672619.769 7  20867111.263        -739.304
 -10915485.766 6  21689053.221         279.129
  -6383406.854 7  22474791.580       -1493.407
 98  9 30 17 37 40.0000000  0  8G21G17G03G08G23G01G29G31             0.000834454
  -2334514.336 7  20984734.806       -2307.559
  14086013.726 5  23802067.327       -5258.229
   -654230.616 7  21750009.852       -3692.188
  -1441443.568 6  23529092.445        -372.296
   8663683.836 6  22294434.943       -3936.572
 -14665197.115 7  20868522.305        -745.625
 -10918252.093 6  21688530.659         274.214
  -6368440.364 7  22477639.623       -1500.304
 98  9 30 17 37 50.0000000  0  8G21G17G03G08G23G01G29G31             0.000848347
  -2311427.004 7  20989127.805       -2310.428
  14138604.209 5  23812070.243       -5260.542
   -617280.279 7  21757039.827       -3698.323
  -1437695.984 6  23529812.422        -377.762
   8703054.106 6  22301932.390       -3938.095
 -14657713.079 7  20869947.727        -751.793
 -10920969.362 6  21688016.825         269.101
  -6353403.264 7  22480504.051       -1507.507
 98  9 30 17 38  0.0000000  0  8G21G17G03G08G23G01G29G31             0.000862252
  -2288314.185 7  20993521.804       -2312.337
  14191217.668 5  23822089.472       -5262.541
   -580271.593 7  21764081.605       -3703.618
  -1433898.952 6  23530537.190        -381.938
   8742435.945 6  22309424.112       -3938.814
 -14650170.088 7  20871384.523        -757.004
 -10923641.106 6  21687505.208         265.192
  -6338298.192 7  22483377.134       -1513.707
 98  9 30 17 38 10.0000000  0  8G21G17G03G08G23G01G29G31             0.000876127
  -2265178.148 7  20997924.890       -2314.996
  14243851.884 5  23832104.122       -5264.583
   -543207.458 7  21771136.120       -3709.380
  -1430054.283 5  23531266.325        -387.111
   8781827.000 6  22316921.057       -3939.496
 -14642571.409 7  20872832.552        -762.766
 -10926270.955 6  21686997.811         261.179
  -6323127.406 7  22486262.882       -1520.631
 98  9 30 17 38 20.0000000  0  8G21G17G03G08G23G01G29G31             0.000890023
  -2242012.987 7  21002337.780       -2318.350
  14296512.599 6  23842134.227       -5267.419
   -506083.359 7  21778202.368       -3715.593
  -1426157.130 5  23532002.901        -392.624
   8821232.651 6  22324422.226       -3941.490
 -14634912.934 7  20874288.167        -769.022
 -10928854.611 6  21686513.598         256.198
  -6307886.195 7  22489162.582       -1527.710
 98  9 30 17 38 30.0000000  0  8G21G17G03G08G23G01G29G31             0.000903910
  -2218817.442 7  21006752.958       -2320.984
  14349202.492 5  23852154.172       -5270.145
   -468898.543 7  21785278.561       -3721.252
  -1422206.714 5  23532754.500        -397.209
   8860654.774 6  22331922.964       -3942.760
 -14627193.360 7  20875755.013        -775.015
 -10931390.446 6  21686029.240         251.738
  -6292573.394 7  22492077.449       -1534.674
 98  9 30 17 38 40.0000000  0  8G21G17G03G08G23G01G29G31             0.000917832
  -2195594.116 7  21011166.060       -2323.521
  14401918.336 5  23862183.419       -5272.878
   -431655.776 7  21792368.347       -3727.219
  -1418206.797 6  23533526.134        -402.469
   8900090.890 6  22339418.407       -3944.070
 -14619415.509 7  20877232.878        -780.750
 -10933881.573 6  21685556.401         247.285
  -6277192.252 7  22495003.763       -1541.403
 98  9 30 17 38 50.0000000  0  8G21G17G03G08G23G01G29G31             0.000931748
  -2172344.820 7  21015590.683       -2326.276
  14454659.438 5  23872226.832       -5275.674
   -394356.847 6  21799463.428       -3732.751
  -1414159.289 6  23534293.545        -407.214
   8939540.534 6  22346932.883       -3945.854
 -14611580.064 7  20878722.189        -786.534
 -10936329.245 6  21685090.002         242.737
  -6261744.094 7  22497946.819       -1548.372
 98  9 30 17 39  0.0000000  0  8G21G17G03G08G23G01G29G31             0.000945608
  -2149068.790 7  21020018.739       -2329.166
  14507429.142 5  23882251.858       -5278.775
   -357000.738 6  21806574.321       -3738.727
  -1410063.254 6  23535075.265        -412.093
   8979006.742 6  22354437.914       -3947.644
 -14603685.244 7  20880226.527        -792.918
 -10938730.356 6  21684632.261         237.628
  -6246227.567 7  22500897.817       -1555.360
 98  9 30 17 39 10.0000000  0  8G21G17G03G08G23G01G29G31             0.000959473
  -2125765.982 7  21024457.312       -2331.609
  14560228.569 5  23892301.566       -5281.429
   -319587.596 7  21813692.295       -3744.005
  -1405919.131 6  23535862.995        -416.786
   9018488.931 6  22361956.467       -3948.950
 -14595730.889 7  20881747.104        -798.421
 -10941085.476 6  21684185.750         233.316
  -6230642.857 7  22503859.833       -1561.873
 98  9 30 17 39 20.0000000  0  8G21G17G03G08G23G01G29G31             0.000973393
  -2102437.879 7  21028893.238       -2334.357
  14613055.678 4  23902362.722       -5284.442
   -282120.092 6  21820820.144       -3749.805
  -1401730.111 6  23536655.590        -421.297
   9057983.875 6  22369471.300       -3950.325
 -14587719.600 7  20883271.473        -803.999
 -10943398.082 6  21683745.679         229.242
  -6214993.364 7  22506840.951       -1568.430
 98  9 30 17 39 30.0000000  0  8G21G17G03G08G23G01G29G31             0.000987291
  -2079084.198 7  21033344.045       -2336.436
  14665909.832 5  23912410.570       -5286.552
   -244597.258 7  21827959.010       -3755.089
  -1397496.604 6  23537466.070        -425.424
   9097491.528 6  22376988.135       -3951.361
 -14579652.004 7  20884800.492        -809.477
 -10945668.919 6  21683313.764         225.241
  -6199278.987 7  22509835.089       -1574.670
 98  9 30 17 39 40.0000000  0  8G21G17G03G08G23G01G29G31             0.000001190
  -3631120.555 7  20737996.973       -2339.203
  13143377.398 5  23622692.295       -5289.639
  -1782432.470 7  21535318.370       -3760.947
  -2968635.953 6  23238489.399        -430.182
   7561599.314 6  22084722.925       -3953.174
 -16146944.920 7  20586555.239        -815.446
 -12523316.261 6  21383097.434         220.755
  -7758915.878 6  22213038.288       -1581.409
 98  9 30 17 39 50.0000000  0  8G21G17G03G08G23G01G29G31             0.000015084
  -3607712.776 7  20742455.223       -2342.320
  13196287.580 5  23632761.107       -5292.430
  -1744793.043 7  21542482.136       -3767.091
  -2964309.336 6  23239311.616        -435.371
   7601139.276 6  22092239.833       -3954.936
 -16138758.448 7  20588116.886        -821.786
 -12525500.808 6  21382681.761         216.605
  -7743067.263 7  22216057.757       -1588.174
 98  9 30 17 40  0.0000000  0  8G21G17G03G08G23G01G29G31             0.000028988
  -3584280.652 7  20746910.252       -2344.330
  13249224.121 5  23642829.919       -5295.171
  -1707096.870 7  21549657.706       -3772.383
  -2959937.413 6  23240142.774        -439.394
   7640692.610 6  22099770.191       -3955.864
 -16130513.500 7  20589682.752        -827.199
 -12527644.661 6  21382273.171         212.300
  -7727154.036 7  22219087.241       -1594.641
 98  9 30 17 40 10.0000000  0  8G21G17G03G08G23G01G29G31             0.000042894
  -3560823.961 7  20751376.013       -2347.124
  13302188.190 5  23652923.342       -5297.894
  -1669343.849 7  21556841.578       -3778.474
  -2955519.010 6  23240978.656        -444.582
   7680259.442 6  22107306.274       -3957.620
 -16122210.902 7  20591264.431        -833.485
 -12529747.330 6  21381870.161         208.031
  -7711176.969 7  22222125.883       -1601.305
 98  9 30 17 40 20.0000000  0  8G21G17G03G08G23G01G29G31             0.000056816
  -3537340.538 7  20755843.850       -2349.919
  13355183.016 5  23663005.607       -5301.488
  -1631530.266 7  21564036.038       -3784.567
  -2951051.686 6  23241836.787        -449.033
   7719842.535 6  22114832.841       -3959.436
 -16113848.669 7  20592851.619        -839.175
 -12531805.592 6  21381481.604         203.694
  -7695132.946 7  22225181.840       -1607.932
 98  9 30 17 40 30.0000000  0  8G21G17G03G08G23G01G29G31             0.000070660
  -3513833.607 7  20760316.621       -2351.759
  13408204.967 5  23673082.430       -5303.278
  -1593659.067 7  21571243.302       -3789.648
  -2946539.314 5  23242684.186        -453.137
   7759437.984 6  22122370.710       -3960.039
 -16105429.850 7  20594459.769        -844.708
 -12533821.266 6  21381099.200         199.362
  -7679024.703 7  22228247.740       -1613.826
 98  9 30 17 40 40.0000000  0  8G21G17G03G08G23G01G29G31             0.000084558
  -3490307.749 7  20764790.180       -2353.911
  13461251.203 5  23683179.646       -5306.305
  -1555732.985 6  21578459.799       -3795.879
  -2941985.095 6  23243550.834        -458.377
   7799043.384 6  22129903.644       -3961.319
 -16096955.397 7  20596068.708        -850.868
 -12535796.234 6  21380723.592         195.161
  -7662855.582 7  22231319.794       -1620.470
 98  9 30 17 40 50.0000000  0  8G21G17G03G08G23G01G29G31             0.000098489
  -3466760.191 7  20769269.391       -2356.076
  13514324.991 5  23693286.951       -5309.579
  -1517748.526 6  21585691.962       -3801.547
  -2937385.450 6  23244429.784        -462.384
   7838661.835 6  22137446.380       -3962.836
 -16088421.123 7  20597692.026        -856.514
 -12537727.621 6  21380350.131         191.113
  -7646621.854 7  22234410.521       -1626.811
 98  9 30 17 41  0.0000000  0  8G21G17G03G08G23G01G29G31             0.000112363
  -3443194.326 7  20773754.825       -2357.820
  13567423.803 5  23703387.813       -5311.121
  -1479709.347 6  21592927.130       -3806.752
  -2932742.857 6  23245316.033        -466.617
   7878290.725 6  22144989.472       -3963.463
 -16079830.372 7  20599331.584        -861.967
 -12539618.372 6  21379993.411         187.140
  -7630325.946 7  22237512.123       -1633.009
 98  9 30 17 41 10.0000000  0  8G21G17G03G08G23G01G29G31             0.000126274
  -3419609.843 7  20778244.195       -2359.814
  13620548.815 5  23713499.910       -5313.847
  -1441616.626 7  21600176.823       -3812.514
  -2928056.244 5  23246212.585        -471.451
   7917930.486 6  22152524.982       -3964.961
 -16071183.512 7  20600974.221        -867.957
 -12541468.173 6  21379644.777         182.806
  -7613967.916 7  22240625.602       -1639.445
 98  9 30 17 41 20.0000000  0  8G21G17G03G08G23G01G29G31             0.000140154
  -3396006.496 7  20782738.358       -2361.310
  13673698.436 5  23723608.143       -5316.396
  -1403470.776 7  21607436.101       -3817.326
  -2923325.649 5  23247109.208        -475.418
   7957579.296 6  22160066.499       -3965.363
 -16062481.582 7  20602630.735        -873.105
 -12543279.076 6  21379294.280         179.407
  -7597549.207 7  22243752.530       -1644.977
 98  9 30 17 41 30.0000000  0  8G21G17G03G08G23G01G29G31             0.000154034
  -3372381.067 7  20787232.237       -2363.850
  13726875.039 5  23733725.679       -5319.794
  -1365268.467 7  21614709.189       -3823.280
  -2918547.423 6  23248016.921        -480.194
   7997239.728 6  22167614.530       -3967.102
 -16053721.188 7  20604298.127        -879.330
 -12545048.098 6  21378960.528         174.620
  -7581066.978 7  22246885.971       -1651.822
 98  9 30 17 41 40.0000000  0  8G21G17G03G08G23G01G29G31             0.000167901
  -3348728.969 7  20791732.268       -2366.527
  13780083.432 5  23743846.290       -5322.409
  -1327005.900 7  21621985.927       -3829.225
  -2913716.865 6  23248936.156        -485.973
   8036915.882 6  22175171.217       -3968.324
 -16044898.593 7  20605975.606        -885.381
 -12546770.423 6  21378640.727         170.221
  -7564516.749 7  22250030.788       -1658.319
 98  9 30 17 41 50.0000000  0  8G21G17G03G08G23G01G29G31             0.000181827
  -3325053.155 7  20796243.532       -2368.777
  13833321.114 5  23753982.427       -5325.322
  -1288686.122 7  21629279.691       -3834.662
  -2908836.762 5  23249860.467        -490.169
   8076604.452 6  22182719.819       -3969.292
 -16036016.198 7  20607660.454        -891.154
 -12548448.647 6  21378313.127         165.793
  -7547900.918 7  22253197.497       -1664.673
 98  9 30 17 42  0.0000000  0  8G21G17G03G08G23G01G29G31             0.000195699
  -3301354.593 7  20800749.932       -2371.452
  13886589.015 5  23764116.490       -5328.587
  -1250309.968 7  21636579.252       -3840.787
  -2903907.947 6  23250804.599        -495.650
   8116304.048 6  22190277.580       -3970.964
 -16027074.302 7  20609366.481        -897.574
 -12550082.988 6  21377998.979         160.893
  -7531220.429 7  22256365.495       -1671.782
 98  9 30 17 42 10.0000000  0  8G21G17G03G08G23G01G29G31             0.000209603
  -3277634.058 7  20805261.695       -2372.974
  13939886.666 5  23774260.854       -5331.056
  -1211877.403 7  21643891.546       -3845.776
  -2898930.970 6  23251746.367        -499.753
   8156014.167 6  22197839.560       -3971.364
 -16018073.616 7  20611081.019        -902.750
 -12551672.347 6  21377703.287         157.359
  -7514474.981 7  22259556.099       -1677.547
 98  9 30 17 42 20.0000000  0  8G21G17G03G08G23G01G29G31             0.000223532
  -3253893.651 7  20809779.469       -2374.965
  13993210.818 5  23784411.800       -5333.572
  -1173391.206 6  21651213.786       -3851.372
  -2893908.286 6  23252705.666        -504.840
   8195732.502 6  22205393.312       -3972.141
 -16009017.188 7  20612800.066        -908.368
 -12553218.831 6  21377404.306         152.698
  -7497666.783 7  22262757.365       -1683.975
 98  9 30 17 42 30.0000000  0  8G21G17G03G08G23G01G29G31             0.000237424
  -3230131.621 7  20814298.817       -2377.278
  14046561.904 5  23794565.824       -5336.633
  -1134849.636 7  21658554.628       -3856.841
  -2888838.484 6  23253668.684        -509.416
   8235460.276 6  22212944.848       -3973.177
 -15999902.625 7  20614538.359        -914.288
 -12554720.961 6  21377119.849         148.267
  -7480793.335 7  22265965.643       -1690.529
 98  9 30 17 42 40.0000000  0  8G21G17G03G08G23G01G29G31             0.000251318
  -3206348.967 7  20818827.539       -2379.890
  14099937.480 5  23804721.850       -5339.301
  -1096255.492 7  21665894.826       -3862.505
  -2883722.951 6  23254640.789        -514.424
   8275195.073 6  22220512.339       -3974.828
 -15990730.765 7  20616281.947        -920.576
 -12556179.187 6  21376843.192         143.138
  -7463855.861 7  22269190.019       -1697.479
 98  9 30 17 42 50.0000000  0  8G21G17G03G08G23G01G29G31             0.000265216
  -3182541.149 7  20823358.120       -2382.059
  14153341.976 5  23814883.816       -5342.252
  -1057604.822 7  21673250.907       -3867.963
  -2878556.644 6  23255631.711        -519.182
   8314941.524 6  22228069.740       -3975.302
 -15981496.385 7  20618041.418        -926.680
 -12557589.230 6  21376574.188         138.765
  -7446850.905 7  22272424.268       -1703.899
 98  9 30 17 43  0.0000000  0  8G21G17G03G08G23G01G29G31             0.000279086
  -3158710.175 7  20827892.135       -2384.265
  14206772.176 5  23825045.207       -5344.531
  -1018901.291 6  21680615.645       -3873.425
  -2873342.072 6  23256613.260        -523.740
   8354696.316 6  22235637.444       -3975.960
 -15972204.066 7  20619811.477        -932.257
 -12558955.023 6  21376316.131         134.235
  -7429781.046 7  22275673.183       -1710.274
 98  9 30 17 43 10.0000000  0  8G21G17G03G08G23G01G29G31             0.000292978
  -3134854.979 7  20832435.023       -2386.987
  14260227.967 4  23835214.756       -5347.435
   -980145.402 7  21687994.262       -3878.349
  -2868078.962 5  23257614.628        -528.934
   8394458.686 6  22243201.427       -3976.779
 -15962855.568 7  20621588.260        -937.706
 -12560275.849 6  21376063.941         129.800
  -7412646.122 7  22278932.545       -1716.753
 98  9 30 17 43 20.0000000  0  8G21G17G03G08G23G01G29G31             0.000306906
  -3110974.465 7  20836976.193       -2389.386
  14313709.660 5  23845393.461       -5349.428
   -941335.466 7  21695377.674       -3883.958
  -2862765.928 6  23258642.325        -534.178
   8434229.257 6  22250772.709       -3977.393
 -15953449.814 7  20623376.064        -943.832
 -12561550.400 6  21375820.980         125.264
  -7395445.188 7  22282205.429       -1723.613
 98  9 30 17 43 30.0000000  0  8G21G17G03G08G23G01G29G31             0.000320790
  -3087068.986 7  20841526.736       -2391.692
  14367216.625 5  23855572.952       -5351.208
   -902469.305 7  21702770.314       -3889.282
  -2857402.483 6  23259648.700        -538.727
   8474007.414 6  22258347.210       -3978.362
 -15943985.380 6  20625175.313        -949.194
 -12562777.807 6  21375585.747         120.595
  -7378177.309 7  22285493.695       -1729.897
 98  9 30 17 43 40.0000000  0  8G21G17G03G08G23G01G29G31             0.000334723
  -3063140.305 7  20846079.140       -2394.463
  14420747.200 5  23865766.256       -5354.532
   -863547.902 6  21710174.619       -3895.393
  -2851990.042 6  23260684.482        -543.886
   8513792.576 6  22265916.488       -3979.285
 -15934463.449 7  20626990.018        -955.428
 -12563958.171 7  21375357.740         115.587
  -7360842.989 7  22288798.346       -1737.175
 98  9 30 17 43 50.0000000  0  8G21G17G03G08G23G01G29G31             0.000348617
  -3039189.631 7  20850637.337       -2396.306
  14474301.961 5  23875962.347       -5356.854
   -824572.400 7  21717596.521       -3900.475
  -2846529.106 6  23261734.572        -548.976
   8553585.727 6  22273492.706       -3979.724
 -15924884.170 7  20628815.811        -960.985
 -12565090.619 6  21375146.117         110.915
  -7343441.319 7  22292101.709       -1743.672
 98  9 30 17 44  0.0000000  0  8G21G17G03G08G23G01G29G31             0.000362512
  -3015215.678 7  20855199.326       -2398.398
  14527882.731 5  23886161.944       -5359.065
   -785540.574 7  21725023.432       -3905.936
  -2841016.627 6  23262769.638        -553.667
   8593390.474 6  22281066.493       -3981.148
 -15915244.430 7  20630650.118        -966.943
 -12566173.224 6  21374941.649         106.154
  -7325970.345 7  22295427.537       -1750.598
 98  9 30 17 44 10.0000000  0  8G21G17G03G08G23G01G29G31             0.000376396
  -2991224.369 7  20859767.110       -2399.893
  14581484.510 5  23896350.808       -5360.818
   -746456.694 6  21732457.354       -3910.902
  -2835456.853 6  23263837.185        -558.540
   8633203.981 6  22288644.570       -3981.615
 -15905548.002 7  20632495.801        -972.368
 -12567210.004 6  21374742.331         101.588
  -7308435.314 7  22298765.026       -1756.689
 98  9 30 17 44 20.0000000  0  8G21G17G03G08G23G01G29G31             0.000390275
  -2967215.585 7  20864338.901       -2401.793
  14635106.319 5  23906549.117       -5363.031
   -707319.902 6  21739907.160       -3916.173
  -2829848.175 6  23264900.654        -563.341
   8673027.958 6  22296215.209       -3983.003
 -15895795.086 7  20634349.426        -978.075
 -12568199.468 6  21374551.242          96.819
  -7290835.394 7  22302111.316       -1763.252
 98  9 30 17 44 30.0000000  0  8G21G17G03G08G23G01G29G31             0.000404212
  -2943185.891 7  20868908.260       -2404.192
  14688749.851 5  23916770.394       -5366.002
   -668127.786 7  21747365.768       -3922.290
  -2824187.133 5  23265974.571        -569.205
   8712865.356 6  22303790.856       -3984.647
 -15885983.909 7  20636217.933        -984.299
 -12569139.619 6  21374373.103          91.713
  -7273167.818 7  22305477.496       -1770.377
 98  9 30 17 44 40.0000000  0  8G21G17G03G08G23G01G29G31             0.000418109
  -2919135.386 7  20873486.490       -2405.945
  14742414.988 5  23926980.649       -5367.644
   -628880.450 7  21754837.538       -3927.547
  -2818473.249 5  23267055.355        -574.030
   8752716.136 6  22311388.110       -3985.780
 -15876115.075 7  20638093.880        -989.812
 -12570030.689 6  21374202.906          86.784
  -7255433.479 7  22308851.975       -1776.761
 98  9 30 17 44 50.0000000  0  8G21G17G03G08G23G01G29G31             0.000431992
  -2895067.305 7  20878063.074       -2407.590
  14796100.598 5  23937189.762       -5369.994
   -589580.596 6  21762310.883       -3932.851
  -2812709.654 5  23268157.674        -579.330
   8792578.739 6  22318963.255       -3986.818
 -15866191.426 7  20639985.280        -995.230
 -12570874.816 6  21374047.518          82.210
  -7237635.764 7  22312239.618       -1783.047
 98  9 30 17 45  0.0000000  0  8G21G17G03G08G23G01G29G31             0.000445903
  -2870980.870 7  20882647.028       -2409.746
  14849808.579 5  23947408.677       -5372.302
   -550225.535 7  21769799.467       -3938.525
  -2806895.050 6  23269264.000        -584.048
   8832455.517 6  22326550.994       -3988.553
 -15856211.390 7  20641880.044       -1001.109
 -12571672.113 6  21373892.916          77.568
  -7219773.764 7  22315639.210       -1789.703
 98  9 30 17 45 10.0000000  0  8G21G17G03G08G23G01G29G31             0.000459805
  -2846875.507 7  20887233.128       -2411.852
  14903538.952 5  23957631.167       -5374.120
   -510814.722 7  21777304.364       -3943.974
  -2801029.225 6  23270382.632        -589.571
   8872347.042 6  22334157.406       -3990.045
 -15846175.796 7  20643790.690       -1006.482
 -12572424.160 6  21373752.839          72.935
  -7201848.069 7  22319049.032       -1796.091
 98  9 30 17 45 20.0000000  0  8G21G17G03G08G23G01G29G31             0.000473696
  -2822751.749 7  20891825.166       -2413.409
  14957291.794 5  23967861.744       -5376.576
   -471347.784 7  21784814.627       -3949.765
  -2795111.334 5  23271499.690        -594.707
   8912253.498 6  22341735.200       -3991.537
 -15836084.398 7  20645711.568       -1012.135
 -12573130.199 6  21373615.838          68.423
  -7183858.790 7  22322472.161       -1802.232
 98  9 30 17 45 30.0000000  0  8G21G17G03G08G23G01G29G31             0.000487631
  -2798613.621 7  20896416.702       -2414.421
  15011063.397 5  23978100.189       -5378.008
   -431827.496 7  21792333.331       -3954.755
  -2789144.644 6  23272649.229        -599.249
   8952172.141 6  22349341.467       -3992.355
 -15825938.409 7  20647642.175       -1017.180
 -12573794.602 6  21373492.286          64.627
  -7165809.458 7  22325908.454       -1807.864
 98  9 30 17 45 40.0000000  0  8G21G17G03G08G23G01G29G31             0.000501524
  -2774460.489 7  20901014.750       -2416.115
  15064854.664 5  23988339.137       -5380.663
   -392252.862 7  21799863.269       -3960.313
  -2783129.130 5  23273790.826        -603.984
   8992103.714 6  22356930.136       -3993.846
 -15815736.668 7  20649580.439       -1023.102
 -12574416.965 6  21373369.451          60.231
  -7147699.769 7  22329350.114       -1814.214
 98  9 30 17 45 50.0000000  0  8G21G17G03G08G23G01G29G31             0.000515409
  -2750287.914 7  20905614.015       -2418.375
  15118668.402 5  23998577.225       -5382.933
   -352622.248 6  21807402.865       -3965.971
  -2777061.768 6  23274943.085        -609.560
   9032052.117 6  22364530.181       -3995.615
 -15805477.313 7  20651537.662       -1028.897
 -12574995.080 6  21373259.852          55.795
  -7129526.683 7  22332810.519       -1820.447
 98  9 30 17 46  0.0000000  0  8G21G17G03G08G23G01G29G31             0.000529339
  -2726096.998 7  20910216.355       -2419.670
  15172503.193 5  24008824.470       -5384.053
   -312937.707 7  21814958.916       -3970.731
  -2770944.379 6  23276108.220        -613.835
   9072015.613 5  22372144.891       -3996.651
 -15795161.947 7  20653498.605       -1034.171
 -12575531.564 6  21373155.045          52.132
  -7111292.300 7  22336283.658       -1826.146
 98  9 30 17 46 10.0000000  0  8G21G17G03G08G23G01G29G31             0.000543201
  -2701887.712 7  20914825.637       -2422.073
  15226356.675 5  24019069.784       -5386.180
   -273200.172 6  21822516.114       -3976.723
  -2764777.135 6  23277276.577        -619.264
   9111991.761 5  22379745.509       -3998.640
 -15784791.761 7  20655471.425       -1039.970
 -12576027.966 6  21373063.261          47.479
  -7092998.819 7  22339760.591       -1832.524
 98  9 30 17 46 20.0000000  0  8G21G17G03G08G23G01G29G31             0.000557107
  -2677657.001 7  20919436.635       -2424.051
  15280229.778 5  24029327.262       -5388.669
   -233406.449 6  21830095.203       -3982.237
  -2758559.069 6  23278458.026        -624.207
   9151981.248 6  22387361.578       -3999.583
 -15774365.974 7  20657456.766       -1045.384
 -12576482.583 6  21372977.486          43.402
  -7074644.131 7  22343252.833       -1838.576
 98  9 30 17 46 30.0000000  0  8G21G17G03G08G23G01G29G31             0.000570995
  -2653406.920 7  20924049.708       -2426.044
  15334118.674 5  24039570.142       -5389.795
   -193559.620 6  21837676.296       -3987.407
  -2752294.382 6  23279664.659        -629.024
   9191979.033 5  22394968.131       -4000.090
 -15763889.501 7  20659448.901       -1050.125
 -12576898.618 6  21372900.295          39.937
  -7056229.866 7  22346757.954       -1844.547
 98  9 30 17 46 40.0000000  0  8G21G17G03G08G23G01G29G31             0.000584886
  -2629134.939 7  20928671.011       -2428.873
  15388025.159 5  24049830.124       -5392.053
   -153659.396 7  21845270.125       -3993.451
  -2745981.958 6  23280864.637        -633.842
   9231984.555 6  22402585.918       -4001.266
 -15753360.948 7  20661452.773       -1055.922
 -12577275.835 6  21372827.971          35.420
  -7037754.268 7  22350273.879       -1851.059
 98  9 30 17 46 50.0000000  0  8G21G17G03G08G23G01G29G31             0.000598786
  -2604839.825 7  20933291.238       -2430.794
  15441950.810 5  24060099.120       -5393.965
   -113705.648 7  21852868.102       -3998.254
  -2739622.127 6  23282069.911        -638.551
   9271997.443 6  22410198.910       -4001.462
 -15742778.367 7  20663471.882       -1061.032
 -12577613.695 6  21372763.158          31.932
  -7019217.566 7  22353807.475       -1856.889
 98  9 30 17 47  0.0000000  0  8G21G17G03G08G23G01G29G31             0.000612652
  -2580520.520 7  20937922.700       -2433.664
  15495897.228 5  24070359.387       -5396.115
    -73697.850 6  21860481.892       -4003.889
  -2733214.510 5  23283285.845        -643.889
   9312018.016 6  22417806.753       -4003.102
 -15732139.623 7  20665493.498       -1067.250
 -12577911.186 6  21372710.652          27.583
  -7000619.090 7  22357346.009       -1863.429
 98  9 30 17 47 10.0000000  0  8G21G17G03G08G23G01G29G31             0.000626503
  -2556178.665 7  20942551.227       -2435.629
  15549861.199 5  24080628.311       -5397.997
    -33638.535 6  21868104.909       -4008.731
  -2726761.064 5  23284491.117        -647.707
   9352043.084 6  22425438.203       -4003.275
 -15721446.808 7  20667528.561       -1072.264
 -12578170.539 6  21372657.716          24.167
  -6981960.552 7  22360892.125       -1869.333
 98  9 30 17 47 20.0000000  0  8G21G17G03G08G23G01G29G31             0.000640419
  -2531813.679 7  20947185.192       -2437.755
  15603841.285 5  24090912.115       -5398.755
      6470.264 7  21875741.091       -4013.274
  -2720261.442 5  23285742.536        -652.103
   9392071.753 6  22433049.764       -4003.407
 -15710701.014 7  20669571.495       -1077.338
 -12578390.932 6  21372614.224          20.198
  -6963241.241 7  22364451.334       -1874.976
 98  9 30 17 47 30.0000000  0  8G21G17G03G08G23G01G29G31             0.000654285
  -2507425.703 7  20951827.742       -2439.902
  15657837.848 5  24101177.890       -5400.432
     46627.466 6  21883381.423       -4018.199
  -2713716.186 6  23286997.677        -657.060
   9432103.808 6  22440667.978       -4003.542
 -15699902.051 7  20671626.235       -1082.585
 -12578570.212 6  21372582.324          15.860
  -6944459.431 7  22368028.145       -1881.564
 98  9 30 17 47 40.0000000  0  8G21G17G03G08G23G01G29G31             0.000668181
  -2483013.560 7  20956476.448       -2443.172
  15711853.101 5  24111464.988       -5402.635
     86835.006 6  21891034.205       -4024.078
  -2707125.199 6  23288264.123        -662.099
   9472140.689 6  22448286.122       -4004.347
 -15689047.604 7  20673693.783       -1088.811
 -12578706.102 6  21372554.216          10.912
  -6925612.132 7  22371615.832       -1888.548
 98  9 30 17 47 50.0000000  0  8G21G17G03G08G23G01G29G31             0.000682045
  -2458573.469 7  20961126.869       -2445.726
  15765889.902 5  24121746.649       -5405.089
    127095.317 6  21898691.708       -4028.772
  -2700486.938 6  23289527.491        -666.469
   9512185.125 5  22455906.913       -4004.889
 -15678136.113 7  20675767.053       -1094.272
 -12578794.954 6  21372536.983           6.496
  -6906696.672 7  22375213.678       -1895.415
 98  9 30 17 48  0.0000000  0  8G21G17G03G08G23G01G29G31             0.000695872
  -2434105.736 7  20965781.583       -2448.064
  15819947.108 5  24132026.806       -5407.275
    167406.606 6  21906360.586       -4033.537
  -2693802.345 6  23290786.852        -670.872
   9552235.890 6  22463531.638       -4004.967
 -15667169.262 7  20677857.136       -1099.347
 -12578837.398 6  21372532.270           2.069
  -6887713.970 7  22378825.116       -1901.598
 98  9 30 17 48 10.0000000  0  7G21G03G08G23G01G29G31                0.000709714
  -2409614.764 7  20970443.666       -2450.342
    207765.808 7  21914042.414       -4038.211
  -2687074.103 5  23292037.555        -674.702
   9592289.606 6  22471145.632       -4005.685
 -15656149.510 7  20679950.868       -1104.765
 -12578836.181 6  21372530.491          -2.466
  -6868667.769 7  22382452.224       -1907.896
 98  9 30 17 48 20.0000000  0  7G21G03G08G23G01G29G31                0.000723615
  -2385100.240 7  20975109.326       -2452.788
    248173.611 6  21921736.192       -4043.304
  -2680301.507 5  23293333.906        -679.604
   9632345.827 6  22478773.791       -4005.740
 -15645075.521 7  20682056.263       -1110.132
 -12578789.053 7  21372540.875          -7.344
  -6849557.024 7  22386086.557       -1914.438
 98  9 30 17 48 30.0000000  0  7G21G03G08G23G01G29G31                0.000737551
  -2360561.913 7  20979777.918       -2454.431
    288631.076 6  21929434.117       -4047.552
  -2673484.157 6  23294658.874        -683.607
   9672406.199 5  22486390.503       -4006.056
 -15633946.868 7  20684177.253       -1115.103
 -12578695.543 7  21372557.983         -11.041
  -6830380.117 7  22389733.625       -1920.413
 98  9 30 17 48 40.0000000  0  7G21G03G08G23G01G29G31                0.000751415
  -2336000.598 7  20984450.520       -2457.635
    329136.917 6  21937139.772       -4053.241
  -2666622.177 6  23295962.739        -689.015
   9712471.121 5  22494011.867       -4007.156
 -15622762.891 7  20686304.615       -1121.797
 -12578555.545 7  21372586.613         -16.785
  -6811136.665 7  22393399.656       -1927.971
 98  9 30 17 48 50.0000000  0  7G21G03G08G23G01G29G31                0.000765274
  -2311413.229 7  20989128.701       -2460.338
    369693.502 6  21944856.873       -4058.337
  -2659711.353 6  23297274.401        -693.767
   9752544.859 5  22501651.547       -4008.362
 -15611518.908 7  20688443.064       -1127.654
 -12578366.613 7  21372622.754         -21.768
  -6791823.987 7  22397074.557       -1934.903
 98  9 30 17 49  0.0000000  0  7G21G03G08G23G01G29G31                0.000779136
  -2286801.859 7  20993808.456       -2462.531
    410299.762 6  21952580.127       -4063.498
  -2652753.222 6  23298605.166        -698.180
   9792626.809 5  22509260.102       -4008.313
 -15600215.657 7  20690591.387       -1133.281
 -12578129.155 7  21372665.978         -26.382
  -6772444.459 7  22400759.689       -1941.478
 98  9 30 17 49 10.0000000  0  7G21G03G08G23G01G29G31                0.000793014
  -2262167.249 7  20998497.869       -2464.726
    450955.639 6  21960321.267       -4068.239
  -2645747.368 5  23299941.654        -702.928
   9832718.034 6  22516909.084       -4009.618
 -15588854.395 7  20692752.301       -1139.055
 -12577843.570 7  21372721.650         -31.120
  -6752998.220 7  22404459.344       -1948.120
 98  9 30 17 49 20.0000000  0  7G21G03G08G23G01G29G31                0.000806706
  -2237512.004 7  21003193.720       -2466.586
    491659.814 7  21968066.985       -4072.839
  -2638694.161 5  23301244.659        -707.675
   9872818.229 6  22524536.243       -4010.744
 -15577437.415 7  20694929.027       -1144.550
 -12577511.242 7  21372786.695         -35.638
  -6733486.051 6  22408169.731       -1954.547
 98  9 30 17 49 30.0000000  0  7G21G03G08G23G01G29G31                0.000820624
  -2212838.624 7  21007888.284       -2468.394
    532410.279 6  21975821.647       -4077.544
  -2631595.155 6  23302621.428        -712.621
   9912925.852 5  22532155.173       -4011.002
 -15565965.761 7  20697116.270       -1150.021
 -12577133.700 7  21372858.609         -40.367
  -6713909.441 6  22411898.578       -1961.121
 98  9 30 17 49 40.0000000  0  7G21G03G08G23G01G29G31                0.000834550
  -2188146.860 7  21012584.349       -2469.957
    573208.402 6  21983588.615       -4082.225
  -2624449.430 6  23303996.980        -716.904
   9953042.281 6  22539792.707       -4012.242
 -15554438.360 7  20699304.515       -1155.457
 -12576711.023 6  21372936.172         -44.174
  -6694268.513 7  22415637.940       -1967.293
 98  9 30 17 49 50.0000000  0  7G21G03G08G23G01G29G31                0.000848314
  -2163439.786 7  21017287.499       -2471.854
    614053.229 6  21991354.868       -4087.184
  -2617258.771 5  23305343.556        -721.712
   9993164.590 6  22547428.523       -4013.000
 -15542856.681 7  20701509.215       -1161.075
 -12576246.722 6  21373023.683         -48.792
  -6674566.725 7  22419390.825       -1973.479
 98  9 30 17 50  0.0000000  0  7G21G03G08G23G01G29G31                0.000862120
  -2138711.899 7  21021994.011       -2474.220
    654949.539 6  21999140.796       -4092.409
  -2610016.541 5  23306711.812        -726.831
  10033298.093 6  22555069.419       -4013.866
 -15531215.657 7  20703723.933       -1167.299
 -12575736.121 6  21373117.347         -53.751
  -6654799.940 7  22423148.719       -1980.261
 98  9 30 17 50 10.0000000  0  7G21G03G08G23G01G29G31                0.000876013
  -2113962.325 7  21026702.169       -2476.106
    695898.071 6  22006932.735       -4097.591
  -2602718.819 5  23308119.133        -732.379
  10073444.064 6  22562709.886       -4014.853
 -15519513.153 7  20705951.458       -1173.416
 -12575178.502 6  21373224.317         -58.121
  -6634967.441 7  22426920.493       -1986.871
 98  9 30 17 50 20.0000000  0  7G21G03G08G23G01G29G31                0.000889825
  -2089195.206 7  21031413.902       -2477.446
    736896.100 6  22014731.612       -4102.168
  -2595368.246 5  23309511.858        -737.691
  10113599.410 5  22570350.424       -4015.796
 -15507751.322 7  20708191.144       -1178.897
 -12574577.127 6  21373341.518         -62.274
  -6615072.126 7  22430706.145       -1992.418
 98  9 30 17 50 30.0000000  0  7G21G03G08G23G01G29G31                0.000903695
  -2064411.107 7  21036131.147       -2479.446
    777943.132 6  22022545.300       -4107.463
  -2587964.911 5  23310928.837        -743.324
  10153763.015 6  22577989.388       -4016.861
 -15495931.244 7  20710439.990       -1185.112
 -12573931.752 6  21373465.088         -66.766
  -6595114.334 7  22434505.964       -1999.071
 98  9 30 17 50 40.0000000  0  7G21G03G08G23G01G29G31                0.000917540
  -2039609.117 7  21040853.255       -2481.245
    819038.916 7  22030365.713       -4112.383
  -2580508.026 5  23312351.110        -748.666
  10193935.733 6  22585632.216       -4017.827
 -15484053.496 7  20712697.420       -1190.915
 -12573244.609 6  21373593.235         -70.932
  -6575094.383 7  22438313.511       -2005.536
 98  9 30 17 50 50.0000000  0  7G21G03G08G23G01G29G31                0.000931382
  -2014789.812 7  21045575.149       -2482.869
    860182.497 7  22038191.134       -4116.959
  -2572998.152 6  23313778.535        -753.845
  10234117.323 6  22593288.065       -4018.628
 -15472118.816 7  20714970.161       -1196.501
 -12572516.246 6  21373736.049         -75.084
  -6555013.756 7  22442139.229       -2011.354
 98  9 30 17 51  0.0000000  0  7G21G03G08G23G01G29G31                0.000945171
  -1989951.070 7  21050300.693       -2485.260
    901375.543 6  22046036.589       -4122.261
  -2565433.009 5  23315204.672        -759.543
  10274309.349 5  22600926.029       -4020.221
 -15460125.626 7  20717252.991       -1202.654
 -12571744.726 6  21373879.366         -79.803
  -6534871.168 7  22445967.095       -2017.979
 98  9 30 17 51 10.0000000  0  7G21G03G08G23G01G29G31                0.000959090
  -1965093.062 7  21055029.598       -2486.580
    942619.713 7  22053885.834       -4126.773
  -2557811.206 6  23316675.167        -764.760
  10314512.697 6  22608589.818       -4020.581
 -15448073.816 7  20719549.556       -1207.896
 -12570928.469 6  21374032.125         -83.775
  -6514666.245 7  22449814.561       -2023.323
 98  9 30 17 51 20.0000000  0  7G21G03G08G23G01G29G31                0.000972873
  -1940218.445 7  21059759.792       -2488.589
    983912.377 7  22061743.524       -4132.050
  -2550134.234 5  23318118.692        -771.135
  10354724.644 6  22616232.646       -4021.696
 -15435965.717 7  20721851.202       -1213.989
 -12570069.678 6  21374198.980         -88.315
  -6494401.117 7  22453667.254       -2030.043
 98  9 30 17 51 30.0000000  0  7G21G03G08G23G01G29G31                0.000986608
  -1915323.736 7  21064500.145       -2490.416
   1025256.972 7  22069608.009       -4136.992
  -2542397.672 5  23319556.920        -776.317
  10394948.611 6  22623894.076       -4022.745
 -15423796.767 7  20724168.803       -1219.966
 -12569164.837 6  21374369.555         -92.934
  -6474071.401 7  22457538.261       -2036.198
 98  9 30 17 51 40.0000000  0  7G21G03G08G23G01G29G31                0.000000614
  -3465827.430 7  20769454.023       -2492.139
   -508763.390 6  21777686.549       -4142.096
  -4110022.379 5  23021300.785        -781.715
   8859765.612 6  22331760.093       -4023.581
 -16986986.677 7  20426702.835       -1225.534
 -14143634.727 6  21074758.636         -97.090
  -8029096.516 7  22161631.221       -2042.152
 98  9 30 17 51 50.0000000  0  7G21G03G08G23G01G29G31                0.000014449
  -3440893.456 7  20774196.024       -2494.937
   -467315.850 7  21785580.299       -4147.749
  -4102170.791 5  23022786.667        -788.498
   8900007.398 6  22339413.582       -4024.767
 -16974698.940 7  20429041.974       -1232.054
 -14142639.693 6  21074948.317        -102.429
  -8008640.020 7  22165523.123       -2049.394
 98  9 30 17 52  0.0000000  0  7G21G03G08G23G01G29G31                0.000028215
  -3415939.110 7  20778947.680       -2496.184
   -425816.546 7  21793478.841       -4152.374
  -4094262.861 5  23024272.617        -793.643
   8940256.795 6  22347063.133       -4024.948
 -16962353.565 7  20431392.485       -1237.221
 -14141600.464 6  21075141.785        -106.085
  -7988120.378 7  22169422.463       -2054.915
 98  9 30 17 52 10.0000000  0  7G21G03G08G23G01G29G31                0.000042112
  -3390964.788 7  20783699.125       -2498.816
   -384266.820 6  21801381.176       -4157.846
  -4086299.624 5  23025794.413        -799.632
   8980513.279 6  22354735.296       -4026.373
 -16949952.328 7  20433747.863       -1243.240
 -14140517.592 6  21075350.639        -110.751
  -7967538.262 7  22173342.052       -2061.591
 98  9 30 17 52 20.0000000  0  7G21G03G08G23G01G29G31                0.000056006
  -3365968.364 7  20788452.857       -2500.569
   -342664.943 7  21809300.753       -4162.787
  -4078279.597 5  23027329.014        -804.459
   9020778.890 6  22362398.728       -4026.918
 -16937493.004 7  20436120.197       -1248.677
 -14139388.729 6  21075563.713        -115.173
  -7946891.711 7  22177271.442       -2067.874
 98  9 30 17 52 30.0000000  0  7G21G03G08G23G01G29G31                0.000069817
  -3340950.338 7  20793213.960       -2502.718
   -301010.894 6  21817225.982       -4167.928
  -4070204.394 5  23028852.097        -810.133
   9061052.646 6  22370062.948       -4027.519
 -16924976.981 7  20438501.617       -1254.224
 -14138214.343 6  21075790.953        -119.611
  -7926181.283 7  22181211.993       -2074.022
 98  9 30 17 52 40.0000000  0  7G21G03G08G23G01G29G31                0.000083742
  -3315909.853 7  20797978.068       -2505.328
   -259304.344 7  21825166.094       -4173.488
  -4062073.733 5  23030416.892        -816.110
   9101335.600 6  22377724.235       -4028.778
 -16912404.525 7  20440894.414       -1260.419
 -14136993.351 6  21076020.197        -124.673
  -7905405.618 7  22185166.998       -2081.110
 98  9 30 17 52 50.0000000  0  7G21G03G08G23G01G29G31                0.000097602
  -3290847.521 7  20802748.328       -2507.202
   -217546.525 6  21833110.855       -4178.329
  -4053889.123 5  23031977.679        -820.999
   9141627.832 6  22385393.391       -4029.494
 -16899777.106 7  20443297.940       -1265.382
 -14135727.726 6  21076261.317        -128.911
  -7884565.640 7  22189130.086       -2087.358
 98  9 30 17 53  0.0000000  0  7G21G03G08G23G01G29G31                0.000111456
  -3265763.014 7  20807522.167       -2509.929
   -175735.965 6  21841066.779       -4184.052
  -4045649.702 5  23033540.542        -826.845
   9181930.957 6  22393065.555       -4031.288
 -16887093.252 7  20445711.057       -1271.626
 -14134414.625 6  21076513.171        -134.300
  -7863659.293 7  22193108.987       -2094.237
 98  9 30 17 53 10.0000000  0  7G21G03G08G23G01G29G31                0.000125319
  -3240657.877 7  20812298.150       -2511.853
   -133874.517 6  21849034.149       -4189.088
  -4037357.437 5  23035116.568        -832.109
   9222243.091 6  22400731.635       -4031.927
 -16874354.215 7  20448137.336       -1276.984
 -14133054.299 6  21076767.741        -138.565
  -7842687.133 6  22197101.481       -2100.652
 98  9 30 17 53 20.0000000  0  7G21G03G08G23G01G29G31                0.000139230
  -3215534.206 7  20817076.565       -2513.377
    -91963.841 6  21857008.886       -4193.431
  -4029014.232 6  23036716.132        -836.717
   9262561.932 6  22408409.947       -4031.978
 -16861561.663 7  20450571.197       -1281.892
 -14131648.778 6  21077037.336        -142.838
  -7821651.072 6  22201102.989       -2106.549
 98  9 30 17 53 30.0000000  0  7G21G03G08G23G01G29G31                0.000152975
  -3190387.200 7  20821865.499       -2515.706
    -50000.974 7  21864995.431       -4198.734
  -4020617.616 5  23038273.558        -842.561
   9302890.982 6  22416078.604       -4033.241
 -16848711.929 7  20453015.078       -1287.779
 -14130194.494 6  21077315.947        -147.527
  -7800547.527 6  22205120.740       -2113.538
 98  9 30 17 53 40.0000000  0  7G21G03G08G23G01G29G31                0.000166943
  -3165218.892 7  20826652.788       -2518.166
     -7988.301 7  21872986.196       -4203.984
  -4012170.705 5  23039918.052        -847.229
   9343227.084 6  22423749.120       -4034.218
 -16835808.072 7  20455469.761       -1293.407
 -14128694.590 6  21077602.858        -152.568
  -7779379.118 6  22209146.146       -2120.445
 98  9 30 17 53 50.0000000  0  7G21G03G08G23G01G29G31                0.000180802
  -3140024.995 7  20831449.664       -2520.509
     34077.766 6  21880990.913       -4209.142
  -4003670.430 5  23041529.351        -852.699
   9383573.931 6  22431428.508       -4035.220
 -16822847.210 7  20457935.247       -1298.712
 -14127145.716 6  21077889.409        -156.964
  -7758142.423 7  22213189.008       -2126.964
 98  9 30 17 54  0.0000000  0  7G21G03G08G23G01G29G31                0.000194605
  -3114807.884 7  20836250.332       -2522.993
     76194.080 6  21889008.008       -4214.259
  -3995120.045 5  23043132.923        -857.736
   9423929.917 6  22439108.827       -4036.311
 -16809832.939 7  20460412.610       -1304.326
 -14125550.975 6  21078194.994        -162.137
  -7736840.395 7  22217244.177       -2133.636
 98  9 30 17 54 10.0000000  0  7G21G03G08G23G01G29G31                0.000208577
  -3089566.374 7  20841055.078       -2525.320
    118360.600 6  21897032.614       -4219.037
  -3986517.953 5  23044802.459        -862.677
   9464296.411 6  22446794.367       -4037.082
 -16796762.923 7  20462898.201       -1309.837
 -14123908.875 6  21078514.099        -166.600
  -7715471.965 6  22221310.435       -2140.108
 98  9 30 17 54 20.0000000  0  7G21G03G08G23G01G29G31                0.000222412
  -3064303.737 7  20845858.537       -2527.776
    160573.968 6  21905065.233       -4224.094
  -3977865.757 5  23046436.080        -868.115
   9504671.447 6  22454480.553       -4038.377
 -16783638.446 7  20465396.742       -1315.604
 -14122220.459 7  21078836.282        -171.745
  -7694040.183 7  22225387.640       -2146.791
 98  9 30 17 54 30.0000000  0  7G21G03G08G23G01G29G31                0.000236241
  -3039019.200 7  20850672.082       -2529.800
    202835.731 6  21913105.722       -4228.772
  -3969161.716 5  23048083.152        -873.360
   9545056.729 6  22462159.511       -4039.143
 -16770456.658 7  20467905.085       -1321.239
 -14120482.855 6  21079164.689        -176.454
  -7672543.526 7  22229478.796       -2153.107
 98  9 30 17 54 40.0000000  0  7G21G03G08G23G01G29G31                0.000250110
  -3013714.109 7  20855485.698       -2531.671
    245144.569 6  21921157.372       -4233.218
  -3960406.936 5  23049749.468        -878.201
   9585451.361 6  22469845.337       -4039.880
 -16757218.349 7  20470424.660       -1326.752
 -14118696.633 7  21079503.613        -181.221
  -7650983.186 7  22233580.969       -2159.436
 98  9 30 17 54 50.0000000  0  7G21G03G08G23G01G29G31                0.000264006
  -2988389.683 7  20860308.473       -2533.589
    287498.912 6  21929220.468       -4237.682
  -3951602.537 5  23051435.674        -882.860
   9625855.042 5  22477536.459       -4041.129
 -16743924.697 7  20472955.754       -1332.068
 -14116863.558 7  21079855.414        -185.481
  -7629359.781 7  22237697.738       -2165.538
 98  9 30 17 55  0.0000000  0  7G21G03G08G23G01G29G31                0.000277833
  -2963041.856 7  20865132.179       -2536.063
    329902.376 6  21937285.928       -4242.876
  -3942744.359 5  23053116.731        -888.744
   9666271.592 6  22485230.587       -4042.493
 -16730572.304 7  20475498.225       -1338.287
 -14114980.319 7  21080215.804        -191.000
  -7607670.685 6  22241820.589       -2172.061
 98  9 30 17 55 10.0000000  0  7G21G03G08G23G01G29G31                0.000291735
  -2937676.170 7  20869958.316       -2537.761
    372350.015 6  21945363.763       -4247.119
  -3933837.244 5  23054821.539        -893.214
   9706695.136 6  22492920.204       -4042.831
 -16717165.109 7  20478045.774       -1343.678
 -14113051.981 6  21080578.409        -195.274
  -7585921.475 7  22245960.466       -2177.963
 98  9 30 17 55 20.0000000  0  7G21G03G08G23G01G29G31                0.000305588
  -2912290.109 7  20874786.026       -2539.569
    414842.953 6  21953451.185       -4251.198
  -3924878.989 6  23056524.559        -898.283
   9747126.427 6  22500610.323       -4043.410
 -16703701.102 7  20480609.422       -1349.077
 -14111077.212 7  21080953.105        -199.623
  -7564111.160 7  22250112.006       -2183.894
 98  9 30 17 55 30.0000000  0  7G21G03G08G23G01G29G31                0.000319422
  -2886883.831 7  20879619.963       -2541.742
    457380.182 6  21961545.906       -4256.059
  -3915870.543 6  23058230.513        -903.743
   9787564.222 6  22508305.379       -4044.153
 -16690181.221 7  20483181.083       -1354.883
 -14109057.790 7  21081339.679        -204.568
  -7542241.365 7  22254276.353       -2190.205
 98  9 30 17 55 40.0000000  0  7G21G03G08G23G01G29G31                0.000333235
  -2861457.456 7  20884463.414       -2543.700
    499961.693 6  21969644.704       -4260.396
  -3906811.638 5  23059955.426        -908.594
   9828008.823 6  22516002.438       -4044.836
 -16676605.284 7  20485767.840       -1360.509
 -14106993.420 7  21081733.764        -208.847
  -7520312.247 7  22258447.496       -2196.034
