     2.11           OBSERVATION DATA    G (GPS)             RINEX VERSION / TYPE
teqc  2010Mar17     gpsops              20120106 00:08:39UTCPGM / RUN BY / DATE
Linux 2.4.21-27.ELsmp|Opteron|gcc -static|Linux x86_64|=+   COMMENT
BIT 2 OF LLI FLAGS DATA COLLECTED UNDER A/S CONDITION       COMMENT
ABPO                                                        MARKER NAME
33302M001                                                   MARKER NUMBER
GGN                 JPL                                     OBSERVER / AGENCY
UC2200524014        ASHTECH UZ-12       CQ00                REC # / TYPE / VERS
CR6200342009        ASH701945G_M    SCIT                    ANT # / TYPE
  4097216.6805  4429119.0287 -2065771.3676                  APPROX POSITION XYZ
        0.0083        0.0000        0.0000                  ANTENNA: DELTA H/E/N
     1     1                                                WAVELENGTH FACT L1/2
     7    L1    L2    P1    P2    C1    S1    S2            # / TYPES OF OBSERV
    30.0000                                                 INTERVAL
                                                            COMMENT
This data is provided as a public service by NASA/JPL.      COMMENT
No warranty is expressed or implied regarding suitability   COMMENT
for use.  For further information, contact:                 COMMENT
Dave Stowers, NASA/JPL m/s 238-600                          COMMENT
4800 Oak Grove Drive, Pasadena CA 91109 USA                 COMMENT
                                                            COMMENT
Forced Modulo Decimation to 30 seconds                      COMMENT
 SNR is mapped to RINEX snr flag value [0-9]                COMMENT
  L1 & L2: min(max(int(snr_dBHz/6), 0), 9)                  COMMENT
pseudorange smoothing corrections not applied               COMMENT
  2012     1     5     0     0    0.0000000     GPS         TIME OF FIRST OBS
                                                            END OF HEADER
 12  1  5  0  0  0.0000000  0  9G04G15G26G29G08G10G02G07G05
 -20495248.64748 -15953144.76948  21250950.9614   21250955.2194   21250950.6704
        53.0004         48.0004
 -12082711.27248  -9350643.60447  23114148.0794   23114153.3564   23114148.1834
        49.0004         44.0004
 -22347525.64649 -17097457.71548  20936767.7884   20936772.2094   20936767.6614
        56.0004         51.0004
  -1954267.07147  -1472570.21246  24446515.8904   24446520.3954   24446515.3794
        43.0004         38.0004
 -16561287.13548 -12732274.82847  22149698.9404   22149704.5084   22149699.6234
        49.0004         45.0004
 -13965602.59448 -10821596.84747  22864778.2344   22864783.9654   22864777.5494
        48.0004         43.0004
 -21158164.63949 -16452615.66048  20389666.6544   20389668.8694   20389667.1244
        57.0004         52.0004
  -8265503.67547  -6404422.95046  23953193.4924   23953196.5304   23953193.5204
        46.0004         41.0004
 -16351527.71048 -12707729.06548  22002037.8884   22002042.1484   22002037.8214
        53.0004         49.0004
 12  1  5  0  0 30.0000000  0  9G04G15G26G29G08G10G02G07G05
 -20447173.73048 -15915683.80848  21260099.2864   21260103.9914   21260099.3004
        53.0004         48.0004
 -12154373.15748  -9406483.98747  23100511.3004   23100516.2044   23100511.1824
        49.0004         44.0004
 -22353668.61449 -17102244.43048  20935598.3634   20935603.1544   20935598.4814
        56.0004         51.0004
  -2017943.97247  -1522188.55246  24434398.5454   24434402.8864   24434397.3924
        43.0004         38.0004
 -16560505.83748 -12731666.01747  22149847.0604   22149852.9014   22149847.0124
        49.0004         45.0004
 -13938229.25348 -10800266.99247  22869988.3274   22869992.5874   22869989.3094
        48.0004         43.0004
 -21162482.46349 -16455980.19448  20388845.1364   20388847.1214   20388845.4704
        57.0004         52.0004
  -8208977.73347  -6360376.76246  23963949.9604   23963953.2314   23963948.9414
        46.0004         41.0004
 -16368365.99148 -12720849.80748  21998833.6254   21998837.6634   21998833.4224
        53.0004         48.0004
 12  1  5  0  1  0.0000000  0  9G04G15G26G29G08G10G02G07G05
 -20398650.15948 -15877873.24048  21269332.8124   21269337.5134   21269332.5594
        53.0004         48.0004
 -12225731.26048  -9462087.64847  23086933.5094   23086938.1494   23086933.0444
        49.0004         45.0004
 -22359370.10949 -17106687.14348  20934513.5844   20934518.0014   20934513.6424
        56.0004         51.0004
  -2081210.87047  -1571487.37246  24422358.4654   24422362.3724   24422359.1474
        43.0004         38.0004
 -16559154.58548 -12730613.07647  22150105.0154   22150109.9624   22150105.4834
        49.0004         45.0004
 -13910858.20348 -10778938.90747  22875195.5074   22875202.0964   22875196.4444
        48.0004         43.0004
 -21166380.13549 -16459017.34148  20388103.5364   20388105.3724   20388103.9824
        57.0004         52.0004
  -8151993.22947  -6315973.25946  23974792.8084   23974796.6384   23974792.2494
        46.0004         41.0004
 -16385211.07848 -12733975.84248  21995628.0874   21995632.1174   21995628.1664
        53.0004         49.0004
 12  1  5  0  1 30.0000000  0  9G04G15G26G29G08G10G02G07G05
 -20349676.97548 -15839712.32348  21278652.3094   21278656.7344   21278651.9164
        53.0004         48.0004
 -12296783.33648  -9517452.86447  23073412.2884   23073416.7544   23073411.8754
        50.0004         45.0004
 -22364629.69249 -17110785.51048  20933512.9984   20933516.9644   20933512.8884
        56.0004         51.0004
  -2144064.92547  -1620464.53946  24410396.3794   24410401.6944   24410396.5954
        43.0004         38.0004
 -16557230.46248 -12729113.74347  22150470.8174   22150475.4254   22150471.0304
        49.0004         45.0004
 -13883487.51848 -10757611.10947  22880404.3814   22880409.4514   22880406.7604
        48.0004         43.0004
 -21169855.06049 -16461725.07848  20387442.3254   20387444.3914   20387442.7204
        57.0004         52.0004
  -8094550.53047  -6271212.71046  23985724.0764   23985728.7274   23985724.7944
        45.0004         41.0004
 -16402061.60548 -12747106.11448  21992421.3654   21992425.2454   21992421.4734
        53.0004         48.0004
 12  1  5  0  2  0.0000000  0  9G04G15G26G29G08G10G02G07G05
 -20300256.06648 -15801202.52948  21288056.5274   21288061.6454   21288056.0264
        53.0004         48.0004
 -12367530.23648  -9572580.29947  23059949.6114   23059954.3694   23059949.3654
        50.0004         45.0004
 -22369450.27549 -17114541.79648  20932595.3094   20932599.8764   20932595.7104
        56.0004         51.0004
  -2206506.29747  -1669120.13246  24398516.3334   24398520.5534   24398516.1064
        43.0004         38.0004
 -16554734.21748 -12727168.60247  22150946.2224   22150950.5394   22150947.2014
        49.0004         45.0004
 -13856117.83348 -10736284.09347  22885614.0724   22885617.3134   22885612.7334
        48.0004         43.0004
 -21172907.90749 -16464103.90848  20386861.2564   20386863.1924   20386861.5964
        57.0004         52.0004
  -8036652.28947  -6226097.19746  23996742.2234   23996746.7634   23996740.4824
        45.0004         41.0004
 -16418919.34648 -12760242.01448  21989213.6574   21989217.5784   21989213.1824
        53.0004         48.0004
 12  1  5  0  2 30.0000000  0  9G04G15G26G29G08G10G02G07G05
 -20250388.52048 -15762344.71048  21297546.2054   21297551.0244   21297546.2904
        52.0004         48.0004
 -12437971.61648  -9627469.66947  23046545.7044   23046549.4784   23046544.7524
        50.0004         45.0004
 -22373833.75249 -17117957.47748  20931760.9934   20931765.5374   20931760.8654
        55.0004         51.0004
  -2268534.03747  -1717453.40446  24386712.1174   24386715.4074   24386711.6434
        43.0004         38.0004
 -16551665.96248 -12724777.74647  22151529.8544   22151535.1054   22151529.5744
        49.0004         45.0004
 -13828749.10548 -10714957.81547  22890821.5074   22890826.7134   22890823.1444
        48.0004         43.0004
 -21175538.30549 -16466153.56148  20386360.5994   20386362.7994   20386360.9834
        57.0004         52.0004
  -7978300.83847  -6180628.53746  24007845.8174   24007850.1124   24007845.6884
        45.0004         40.0004
 -16435785.25348 -12773384.27148  21986004.3474   21986007.9144   21986004.0534
        53.0004         48.0004
 12  1  5  0  3  0.0000000  0  9G04G15G26G29G08G10G02G07G05
 -20200072.85748 -15723137.70748  21307121.0784   21307125.5724   21307120.9494
        52.0004         48.0004
 -12508105.07148  -9682119.09147  23033198.9424   23033203.3694   23033198.3214
        50.0004         45.0004
 -22377779.07449 -17121031.74748  20931010.4424   20931015.0204   20931010.4974
        55.0004         51.0004
  -2330144.83447  -1765461.83146  24374987.8364   24374993.9184   24374986.7944
        43.0004         38.0004
 -16548022.34148 -12721938.54247  22152223.2034   22152227.5014   22152224.2604
        49.0004         45.0004
 -13801378.48848 -10693630.05747  22896029.8134   22896034.8214   22896029.6934
        48.0004         43.0004
 -21177743.06349 -16467871.54548  20385941.2014   20385943.2164   20385941.5374
        57.0004         52.0004
  -7919495.39747  -6134806.10846  24019036.2964   24019039.7414   24019035.5714
        45.0004         40.0004
 -16452657.66048 -12786531.58548  21982793.2114   21982797.1724   21982792.8294
        53.0004         48.0004
 12  1  5  0  3 30.0000000  0  9G04G15G26G29G08G10G02G07G05
 -20149309.54748 -15683581.89048  21316780.6214   21316785.0604   21316780.3664
        52.0004         48.0004
 -12577929.85448  -9736527.95447  23019912.1054   23019915.7144   23019911.6824
        50.0004         45.0004
 -22381287.42049 -17123765.50648  20930342.7404   20930347.2444   20930342.7524
        55.0004         51.0004
  -2391336.87147  -1813143.91546  24363344.4524   24363348.1104   24363343.9714
        43.0004         39.0004
 -16543802.61248 -12718650.43147  22153026.9124   22153030.6734   22153026.4034
        49.0004         45.0004
 -13774005.62748 -10672300.55847  22901238.2214   22901243.1694   22901239.8794
        48.0004         43.0004
 -21179521.20549 -16469257.10948  20385602.8134   20385605.0914   20385603.1444
        57.0004         52.0004
  -7860237.39947  -6088631.03346  24030312.6914   24030316.9654   24030312.9194
        45.0004         40.0004
 -16469536.56248 -12799683.97848  21979581.3234   21979585.2384   21979581.2314
        53.0004         48.0004
 12  1  5  0  4  0.0000000  0  9G04G15G26G29G08G10G02G07G05
 -20098100.18648 -15643678.50947  21326525.7604   21326529.9154   21326525.4644
        52.0004         47.0004
 -12647445.62148  -9790696.04547  23006683.5334   23006687.8274   23006683.7294
        50.0004         45.0004
 -22384360.81949 -17126160.35448  20929758.1684   20929762.6364   20929758.1394
        56.0004         51.0004
  -2452109.96147  -1860499.51446  24351778.8794   24351783.1814   24351778.3454
        43.0004         39.0004
 -16539007.22448 -12714913.74647  22153938.3064   22153943.1574   22153939.9244
        49.0004         45.0004
 -13746630.64847 -10650969.41347  22906447.4944   22906452.6434   22906448.0684
        47.0004         43.0004
 -21180872.76749 -16470310.29548  20385345.4844   20385347.6614   20385346.0494
        57.0004         52.0004
  -7800529.58847  -6042105.46046  24041675.5614   24041678.1274   24041674.4154
        45.0004         40.0004
 -16486422.82648 -12812842.09748  21976367.8004   21976371.8844   21976367.8614
        53.0004         48.0004
 12  1  5  0  4 30.0000000  0  9G04G15G26G29G08G10G02G07G05
 -20046444.43448 -15603427.28247  21336355.2374   21336359.6644   21336355.3004
        52.0004         47.0004
 -12716651.12448  -9844622.39747  22993513.7384   22993518.7104   22993513.6524
        50.0004         45.0004
 -22386999.95949 -17128216.81648  20929255.6584   20929260.3814   20929255.8454
        56.0004         51.0004
  -2512461.82247  -1907526.90946  24340294.2444   24340299.4684   24340293.9204
        44.0004         39.0004
 -16533634.45948 -12710727.16247  22154960.7314   22154966.0834   22154960.7894
        49.0004         45.0004
 -13719251.92948 -10629635.33647  22911657.0494   22911663.0664   22911658.2304
        48.0004         43.0004
 -21181796.11849 -16471029.79348  20385169.8554   20385171.8954   20385170.3424
        57.0004         53.0004
  -7740372.70647  -5995229.96746  24053123.2234   24053125.5824   24053122.5864
        45.0004         40.0004
 -16503316.19048 -12826005.74548  21973153.4004   21973156.9074   21973153.1854
        53.0004         48.0004
 12  1  5  0  5  0.0000000  0  9G04G15G26G29G08G10G02G07G05
 -19994345.25548 -15562830.52847  21346268.9574   21346274.2374   21346268.1944
        52.0004         47.0004
 -12785548.05648  -9898308.30947  22980402.6894   22980408.3284   22980403.0794
        50.0004         46.0004
 -22389208.39449 -17129937.66348  20928835.7664   20928839.8294   20928835.6664
        56.0004         51.0004
  -2572393.47047  -1954226.86946  24328889.8844   24328894.6494   24328889.5284
        44.0004         40.0004
 -16527685.69548 -12706091.74047  22156093.4874   22156098.3864   22156094.3704
        49.0004         45.0004
 -13691870.79848 -10608299.40147  22916867.3194   22916872.6864   22916869.1964
        48.0004         43.0004
 -21182292.55349 -16471416.63548  20385075.4904   20385077.4134   20385075.8514
        57.0004         52.0004
  -7679770.47647  -5948007.43446  24064655.1934   24064657.7604   24064654.6554
        45.0004         40.0004
 -16520219.10048 -12839176.82648  21969936.9934   21969940.6334   21969936.6624
        53.0004         48.0004
 12  1  5  0  5 30.0000000  0  9G04G15G26G29G08G10G02G07G05
 -19941800.15548 -15521886.30847  21356267.8834   21356273.0774   21356268.0724
        52.0004         47.0004
 -12854132.82448  -9951750.97847  22967352.4944   22967356.2714   22967352.0064
        50.0004         46.0004
 -22390984.33449 -17131321.49748  20928497.3344   20928502.0474   20928497.1994
        56.0004         51.0004
  -2631899.96847  -2000595.52246  24317565.6354   24317570.4574   24317565.0274
        44.0004         40.0004
 -16521157.39048 -12701004.73247  22157335.3864   22157339.8294   22157335.4124
        50.0004         45.0004
 -13664483.77248 -10586958.85147  22922080.1534   22922083.8704   22922080.9804
        48.0004         43.0004
 -21182358.35349 -16471467.91248  20385063.0874   20385064.8184   20385063.4514
        57.0004         52.0004
  -7618721.68247  -5900436.95046  24076273.0364   24076275.2374   24076270.8194
        45.0004         40.0004
 -16537128.44848 -12852352.91248  21966719.3564   21966723.2344   21966719.0334
        53.0004         49.0004
 12  1  5  0  6  0.0000000  0  9G04G15G26G29G08G10G02G07G05
 -19888809.15148 -15480594.62247  21366351.8634   21366357.3434   21366351.9774
        52.0004         47.0004
 -12922404.70048 -10004949.79647  22954360.0374   22954365.1014   22954359.7304
        50.0004         45.0004
 -22392328.33149 -17132368.75748  20928241.7634   20928246.3874   20928241.8014
        56.0004         51.0004
  -2690980.40447  -2046632.19846  24306323.1144   24306327.1714   24306322.6864
        44.0004         40.0004
 -16514048.20848 -12695465.09647  22158689.0034   22158693.8804   22158689.3324
        50.0004         45.0004
 -13637089.41248 -10565612.60447  22927292.0084   22927298.2534   22927294.7354
        48.0004         43.0004
 -21181991.55749 -16471182.10248  20385132.5864   20385134.8544   20385132.8174
        57.0004         52.0004
  -7557227.14847  -5852519.13146  24087973.7824   24087976.8954   24087974.9134
        45.0004         40.0004
 -16554043.78948 -12865533.68048  21963499.9854   21963503.8394   21963499.7584
        53.0004         48.0004
 12  1  5  0  6 30.0000000  0  9G04G15G26G29G08G10G02G07G05
 -19835376.18348 -15438958.54348  21376520.1934   21376525.0194   21376519.8894
        52.0004         48.0004
 -12990365.25248 -10057906.00047  22941427.7564   22941431.6014   22941427.4454
        50.0004         45.0004
 -22393245.06549 -17133083.08248  20928067.5414   20928071.8944   20928067.4774
        56.0004         51.0004
  -2749636.17547  -2092337.98546  24295160.9734   24295166.4424   24295160.8214
        44.0004         39.0004
 -16506360.86048 -12689474.93947  22160150.2494   22160155.2514   22160150.8904
        49.0004         45.0004
 -13609690.34548 -10544262.68047  22932505.7054   22932511.9444   22932507.1384
        48.0004         43.0004
 -21181194.66749 -16470561.15048  20385284.3504   20385286.3214   20385284.7244
        57.0004         52.0004
  -7495291.83347  -5804257.84046  24099758.9564   24099762.9444   24099760.1844
        45.0004         40.0004
 -16570968.60448 -12878721.82748  21960279.6824   21960283.3844   21960279.7144
        53.0004         49.0004
 12  1  5  0  7  0.0000000  0  9G04G15G26G29G08G10G02G07G05
 -19781499.35048 -15396976.60148  21386772.4824   21386777.3094   21386772.5084
        52.0004         48.0004
 -13058011.39948 -10110617.25347  22928555.9374   22928559.7754   22928555.2534
        50.0004         45.0004
 -22393733.43949 -17133463.62248  20927974.2554   20927978.6364   20927974.4584
        56.0004         51.0004
  -2807863.47647  -2137709.90546  24284081.2744   24284085.4184   24284080.7054
        44.0004         39.0004
 -16498092.25148 -12683031.85047  22161723.7034   22161728.3724   22161725.1174
        49.0004         44.0004
 -13582283.15647 -10522906.43347  22937721.5074   22937727.8304   22937722.2334
        47.0004         43.0004
 -21179964.34949 -16469602.45348  20385518.4624   20385520.5114   20385518.8234
        57.0004         52.0004
  -7432914.96347  -5755652.49146  24111630.0394   24111632.6634   24111629.8954
        45.0004         40.0004
 -16587900.66248 -12891915.60548  21957057.4104   21957061.0724   21957056.6684
        53.0004         49.0004
 12  1  5  0  7 30.0000000  0  9G04G15G26G29G08G10G02G07G05
 -19727181.10448 -15354650.70048  21397108.9024   21397114.0064   21397108.6674
        52.0004         48.0004
 -13125344.42748 -10163084.54747  22915741.4554   22915746.4934   22915741.3604
        50.0004         45.0004
 -22393796.07449 -17133512.41548  20927962.4424   20927967.0264   20927962.4214
        56.0004         51.0004
  -2865662.21847  -2182747.82546  24273082.8104   24273084.2104   24273081.7214
        43.0004         38.0004
 -16489242.93748 -12676136.26447  22163408.7674   22163412.4914   22163408.6054
        49.0004         44.0004
 -13554868.71547 -10501544.52647  22942938.0804   22942944.0044   22942938.3774
        47.0004         43.0004
 -21178301.38549 -16468306.62848  20385834.9214   20385836.9334   20385835.2084
        57.0004         52.0004
  -7370099.59047  -5706705.43846  24123582.3354   24123585.9264   24123582.8644
        44.0004         40.0004
 -16604841.35548 -12905116.12748  21953834.0894   21953837.0644   21953833.7824
        53.0004         48.0004
 12  1  5  0  8  0.0000000  0  9G04G15G26G29G08G10G02G07G05
 -19672418.83248 -15311978.80647  21407530.1144   21407534.6514   21407530.6804
        52.0004         47.0004
 -13192360.83448 -10215305.10947  22902989.2204   22902993.7774   22902988.7234
        50.0004         46.0004
 -22393431.61949 -17133228.41648  20928031.5544   20928036.4924   20928031.7004
        56.0004         51.0004
  -2923028.66047  -2227448.88146  24262164.4774   24262171.4834   24262165.1844
        43.0004         38.0004
 -16479809.63048 -12668785.61547  22165204.2624   22165208.6194   22165204.2084
        49.0004         45.0004
 -13527443.15247 -10480173.97147  22948157.2234   22948161.9594   22948158.7304
        47.0004         43.0004
 -21176201.79049 -16466670.58548  20386234.5474   20386236.6134   20386234.9654
        57.0004         52.0004
  -7306844.48847  -5657415.75946  24135620.3404   24135623.7714   24135620.8004
        44.0004         40.0004
 -16621787.85548 -12918321.15248  21950608.9394   21950613.2314   21950608.3064
        53.0004         49.0004
 12  1  5  0  8 30.0000000  0  9G04G15G26G29G08G10G02G07G05
 -19617216.09648 -15268963.68847  21418034.6804   21418039.3784   21418034.3574
        52.0004         47.0004
 -13259062.66948 -10267280.53747  22890296.1144   22890300.6394   22890296.1634
        51.0004         46.0004
 -22392644.20749 -17132614.83848  20928181.7574   20928186.2164   20928181.7804
        56.0004         51.0004
  -2979964.13547  -2271814.20846  24251330.8604   24251335.8634   24251330.3004
        44.0004         39.0004
 -16469794.55748 -12660981.64647  22167110.0634   22167114.1474   22167110.0194
        49.0004         45.0004
 -13500008.88947 -10458796.63147  22953378.0914   22953383.2154   22953379.5274
        47.0004         43.0004
 -21173667.81249 -16464696.06848  20386716.5044   20386718.6034   20386716.8484
        57.0004         52.0004
  -7243154.40247  -5607787.11646  24147740.0274   24147743.2204   24147739.1204
        44.0004         40.0004
 -16638743.05048 -12931532.95348  21947382.8634   21947386.0824   21947382.3024
        53.0004         48.0004
 12  1  5  0  9  0.0000000  0 10G04G15G26G27G29G08G10G02G07G05
 -19561578.18548 -15225609.47747  21428622.3554   21428627.1224   21428622.0324
        52.0004         47.0004
 -13325453.99948 -10319014.00647  22877663.0414   22877666.1914   22877662.4984
        50.0004         45.0004
 -22391439.71449 -17131676.26448  20928410.8294   20928415.2604   20928411.0194
        56.0004         51.0004
  -1739801.87248  -1289156.34346  25064812.0754   25064819.4254   25064814.0584
        50.0004         38.0004
  -3036471.89847  -2315846.19246  24240577.3864   24240582.3474   24240578.2694
        44.0004         40.0004
 -16459202.16848 -12652727.82147  22169125.1644   22169129.6394   22169125.9714
        49.0004         45.0004
 -13472569.47047 -10437415.26547  22958599.5084   22958604.2944   22958600.7414
        47.0004         43.0004
 -21170702.71349 -16462385.61648  20387281.1194   20387283.0714   20387281.5464
        57.0004         53.0004
  -7179035.19347  -5557824.10146  24159941.5374   24159944.6734   24159940.2724
        45.0004         40.0004
 -16655711.60748 -12944755.17348  21944153.3924   21944157.4684   21944153.1834
        53.0004         49.0004
 12  1  5  0  9 30.0000000  0 10G04G15G26G27G29G08G10G02G07G05
 -19505498.75648 -15181911.23247  21439293.8314   21439298.3344   21439293.7294
        52.0004         47.0004
 -13391527.05448 -10370499.45947  22865089.0304   22865092.7884   22865089.0284
        50.0004         45.0004
 -22389812.07549 -17130407.96148  20928720.2974   20928725.3544   20928720.4214
        56.0004         51.0004
  -1840646.44947  -1367736.48546  25045621.5314   25045629.2624   25045624.0734
        46.0004         38.0004
  -3092543.07747  -2359537.97946  24229907.4904   24229912.0834   24229908.4514
        44.0004         40.0004
 -16448024.19448 -12644017.69747  22171252.1144   22171255.9194   22171252.8484
        49.0004         45.0004
 -13445116.57647 -10416023.40747  22963823.7774   22963829.4184   22963824.4684
        47.0004         43.0004
 -21167298.85349 -16459733.27848  20387928.7634   20387930.9214   20387928.8844
        57.0004         52.0004
  -7114481.44047  -5507522.47546  24172225.3864   24172228.3064   24172225.6824
        45.0004         40.0004
 -16672686.34848 -12957982.21048  21940922.8974   21940927.0664   21940922.7834
        53.0004         49.0004
 12  1  5  0 10  0.0000000  0 10G04G15G26G27G29G08G10G02G07G05
 -19448976.56848 -15137867.97847  21450049.6614   21450054.1534   21450049.9794
        52.0004         47.0004
 -13457279.11248 -10421734.80347  22852576.7164   22852581.3684   22852576.3304
        50.0004         46.0004
 -22387761.06949 -17128809.76948  20929110.7634   20929115.3214   20929110.9484
        56.0004         51.0004
  -1941631.33447  -1446425.98446  25026404.9634   25026413.7104   25026406.6054
        44.0004         38.0004
  -3148175.24647  -2402887.68946  24219321.4454   24219326.2614   24219321.8974
        45.0004         41.0004
 -16436258.31348 -12634849.46847  22173491.5004   22173496.0954   22173492.1954
        49.0004         45.0004
 -13417647.75947 -10394619.14047  22969051.1204   22969057.6274   22969051.1784
        47.0004         43.0004
 -21163453.30549 -16456736.75948  20388660.3444   20388662.3794   20388660.8094
        57.0004         52.0004
  -7049493.13447  -5456882.24346  24184592.1184   24184595.4504   24184592.1674
        45.0004         40.0004
 -16689665.32548 -12971212.57748  21937692.1354   21937695.9534   21937692.0554
        53.0004         48.0004
 12  1  5  0 10 30.0000000  0 10G04G15G26G27G29G08G10G02G07G05
 -19392017.97248 -15093484.65447  21460888.1964   21460893.0504   21460888.1294
        52.0004         47.0004
 -13522715.17648 -10472723.92947  22840124.0634   22840129.2934   22840123.6564
        50.0004         46.0004
 -22385293.46649 -17126886.94848  20929580.4664   20929584.8234   20929580.5024
        56.0004         51.0004
  -2042760.09947  -1525227.56546  25007160.9794   25007168.7134   25007161.5804
        43.0004         38.0004
  -3203372.71447  -2445898.68046  24208817.7954   24208822.1814   24208817.4594
        45.0004         40.0004
 -16423909.84748 -12625227.27847  22175840.8714   22175845.5654   22175841.6984
        49.0004         45.0004
 -13390167.65847 -10373206.09247  22974281.1714   22974284.6754   22974282.2774
        47.0004         43.0004
 -21159171.01049 -16453399.91448  20389475.2334   20389477.5004   20389475.6524
        57.0004         52.0004
  -6984077.47847  -5405909.01646  24197041.6844   24197044.4874   24197039.6244
        45.0004         40.0004
 -16706653.92448 -12984450.43348  21934458.9514   21934463.3454   21934458.7254
        53.0004         48.0004
 12  1  5  0 11  0.0000000  0 10G04G15G26G27G29G08G10G02G07G05
 -19334617.97548 -15048757.39747  21471811.4394   21471815.9704   21471810.7394
        52.0004         47.0004
 -13587828.98548 -10523461.94947  22827734.2594   22827738.2794   22827733.8764
        51.0004         46.0004
 -22382405.03549 -17124636.21348  20930129.9494   20930134.5674   20930129.9544
        56.0004         51.0004
  -2144024.80147  -1604135.08146  24987890.8584   24987899.1154   24987890.8234
        43.0004         39.0004
  -3258128.25147  -2488565.27846  24198397.9064   24198402.5324   24198398.6744
        45.0004         40.0004
 -16410972.48748 -12615146.20747  22178303.0844   22178307.2534   22178303.1414
        49.0004         45.0004
 -13362669.47547 -10351778.94747  22979511.7724   22979518.7914   22979514.0364
        47.0004         43.0004
 -21154445.37749 -16449717.62048  20390374.5594   20390376.5474   20390374.9834
        57.0004         52.0004
  -6918230.44647  -5354599.65446  24209571.3214   24209574.5584   24209571.7724
        44.0004         40.0004
 -16723646.57348 -12997691.44248  21931226.1024   21931228.9564   21931225.5034
        53.0004         48.0004
 12  1  5  0 11 30.0000000  0 10G04G15G26G27G29G08G10G02G07G05
 -19276780.55748 -15003689.28547  21482816.9684   21482821.6414   21482817.7734
        51.0004         47.0004
 -13652623.37648 -10573951.07547  22815404.1664   22815408.1904   22815404.1874
        51.0004         46.0004
 -22379100.38949 -17122061.15848  20930759.0324   20930763.0754   20930759.0254
        56.0004         51.0004
  -2245426.60547  -1683149.42346  24968596.0194   24968602.0974   24968595.6734
        44.0004         39.0004
  -3312443.66747  -2530888.94646  24188061.7494   24188066.7834   24188061.8874
        44.0004         40.0004
 -16397449.08748 -12604608.47947  22180876.1334   22180880.5024   22180876.5504
        49.0004         45.0004
 -13335155.99547 -10330339.87747  22984749.0804   22984753.7124   22984750.4484
        47.0004         43.0004
 -21149278.74449 -16445691.67548  20391357.7854   20391360.0224   20391358.1764
        57.0004         52.0004
  -6851956.93147  -5302957.94946  24222182.5924   24222185.5374   24222184.1124
        44.0004         40.0004
 -16740646.99848 -13010938.51448  21927990.6894   21927994.3834   21927990.2024
        53.0004         48.0004
 12  1  5  0 12  0.0000000  0 10G04G15G26G27G29G08G10G02G07G05
 -19218508.62748 -14958282.59147  21493906.0394   21493910.8744   21493905.7204
        51.0004         47.0004
 -13717100.06548 -10624192.62547  22803133.5204   22803138.9364   22803134.0464
        50.0004         45.0004
 -22375383.30549 -17119164.71248  20931465.9294   20931470.6584   20931466.0094
        56.0004         51.0004
  -2346965.33847  -1762270.44346  24949273.2794   24949279.4374   24949274.1514
        44.0004         39.0004
  -3366320.23347  -2572870.65746  24177810.4504   24177813.6494   24177810.1754
        45.0004         40.0004
 -16383341.47948 -12593615.52447  22183560.9544   22183565.8894   22183561.4454
        49.0004         45.0004
 -13307628.29947 -10308889.74547  22989987.0184   22989992.2244   22989987.2944
        47.0004         43.0004
 -21143672.81949 -16441323.43348  20392424.7184   20392426.5344   20392424.7914
        57.0004         52.0004
  -6785260.98747  -5250987.10946  24234874.6014   24234877.7934   24234875.3144
        44.0004         40.0004
 -16757656.68748 -13024192.79048  21924753.6864   21924757.4074   21924753.6644
        53.0004         48.0004
 12  1  5  0 12 30.0000000  0 10G04G15G26G27G29G08G10G02G07G05
 -19159800.09748 -14912535.70047  21505078.3254   21505083.5014   21505077.9564
        52.0004         47.0004
 -13781255.25048 -10674183.65847  22790926.7444   22790930.4764   22790926.0624
        50.0004         46.0004
 -22371251.55549 -17115945.15148  20932252.4474   20932256.8514   20932252.4404
        56.0004         51.0004
  -2448635.67947  -1841494.01346  24929926.0234   24929931.4914   24929927.2914
        44.0004         39.0004
  -3419753.48647  -2614506.92446  24167641.8604   24167645.4524   24167641.9344
        45.0004         40.0004
 -16368645.82248 -12582164.35347  22186356.9984   22186361.8974   22186357.8724
        49.0004         45.0004
 -13280082.40347 -10287425.41447  22995228.8374   22995233.8404   22995230.1864
        47.0004         43.0004
 -21137623.31449 -16436609.54348  20393575.9614   20393577.8724   20393576.4234
        57.0004         52.0004
  -6718141.33147  -5198686.07646  24247646.6704   24247650.3224   24247648.3284
        45.0004         40.0004
 -16774672.24648 -13037451.65848  21921515.6854   21921519.2594   21921515.1234
        53.0004         48.0004
 12  1  5  0 13  0.0000000  0 10G04G15G26G27G29G08G10G02G07G05
 -19100655.63448 -14866449.11647  21516332.9544   21516338.1784   21516333.0944
        52.0004         47.0004
 -13845087.95648 -10723923.39647  22778778.8574   22778783.3764   22778778.7084
        50.0004         46.0004
 -22366706.95949 -17112403.89248  20933117.1694   20933121.6574   20933116.9904
        56.0004         51.0004
  -2550435.45247  -1920818.44446  24910554.1404   24910560.3304   24910555.0194
        44.0004         40.0004
  -3472742.29247  -2655796.88546  24157557.7144   24157562.4234   24157558.1514
        45.0004         40.0004
 -16353362.20148 -12570255.02347  22189265.4764   22189270.5524   22189266.2274
        49.0004         45.0004
 -13252516.96847 -10265945.87047  23000473.6884   23000478.0794   23000475.8624
        47.0004         42.0004
 -21131129.78849 -16431549.65748  20394811.4174   20394813.2744   20394811.7434
        57.0004         52.0004
  -6650599.58147  -5146056.15946  24260499.8514   24260503.3204   24260498.5564
        44.0004         40.0004
 -16791694.01648 -13050715.35248  21918276.6414   21918280.4254   21918276.0594
        53.0004         48.0004
 12  1  5  0 13 30.0000000  0 10G04G15G26G27G29G08G10G02G07G05
 -19041078.89848 -14820025.69147  21527670.2384   21527675.5514   21527670.5214
        52.0004         47.0004
 -13908600.95548 -10773414.02747  22766693.2254   22766697.9304   22766693.4264
        51.0004         47.0004
 -22361753.87549 -17108544.33148  20934060.0414   20934064.3454   20934059.9534
        56.0004         51.0004
  -2652365.38147  -2000244.28446  24891157.9964   24891164.3444   24891158.3514
        44.0004         39.0004
  -3525288.80947  -2696742.21646  24147558.8244   24147563.7034   24147559.0714
        45.0004         41.0004
 -16337493.20048 -12557889.55147  22192285.4384   22192290.1714   22192285.4734
        49.0004         45.0004
 -13224934.56947 -10244453.07347  23005723.3974   23005729.1834   23005723.1574
        47.0004         42.0004
 -21124194.17349 -16426145.27948  20396131.2674   20396133.3704   20396131.6634
        57.0004         52.0004
  -6582640.35947  -5093100.91946  24273432.8754   24273436.5854   24273431.9404
        44.0004         40.0004
 -16808724.72248 -13063986.01548  21915035.5884   21915039.5544   21915035.2894
        53.0004         48.0004
 12  1  5  0 14  0.0000000  0 10G04G15G26G27G29G08G10G02G07G05
 -18981067.99748 -14773263.96447  21539090.1894   21539094.4764   21539090.3874
        52.0004         47.0004
 -13971790.63948 -10822652.74547  22754668.8764   22754672.9924   22754668.2554
        51.0004         46.0004
 -22356391.00249 -17104365.45348  20935080.3244   20935084.6594   20935080.3954
        56.0004         51.0004
  -2754420.14647  -2079767.40446  24871737.9744   24871743.5874   24871737.2114
        44.0004         39.0004
  -3577388.55747  -2737339.38346  24137646.7574   24137649.0304   24137646.0584
        45.0004         41.0004
 -16321035.55748 -12545065.40947  22195417.7064   22195421.6134   22195417.8264
        49.0004         45.0004
 -13197331.15347 -10222943.93547  23010975.3414   23010980.4204   23010977.7654
        47.0004         43.0004
 -21116813.03449 -16420393.74548  20397535.9984   20397537.9974   20397536.4494
        57.0004         52.0004
  -6514262.91547  -5039819.78846  24286443.6324   24286447.2154   24286443.1654
        44.0004         40.0004
 -16825761.24048 -13077261.20448  21911793.8464   21911797.7424   21911793.3224
        53.0004         48.0004
 12  1  5  0 14 30.0000000  0 10G04G15G26G27G29G08G10G02G07G05
 -18920625.84048 -14726166.18647  21550592.1254   21550596.1384   21550591.2204
        51.0004         47.0004
 -14034658.84748 -10871640.95947  22742704.8314   22742709.5364   22742704.3774
        51.0004         46.0004
 -22350621.96149 -17099870.08548  20936178.0304   20936182.2944   20936178.0124
        56.0004         51.0004
  -2856599.91547  -2159387.92546  24852292.4314   24852297.9444   24852292.5824
        44.0004         39.0004
  -3629043.05547  -2777589.61246  24127815.0104   24127819.0904   24127814.9234
        45.0004         40.0004
 -16303991.12848 -12531784.03547  22198661.4344   22198665.0224   22198660.8524
        49.0004         45.0004
 -13169708.04947 -10201419.43547  23016233.3004   23016237.6834   23016232.3664
        47.0004         42.0004
 -21108988.03449 -16414296.35448  20399024.8564   20399026.9744   20399025.1104
        57.0004         52.0004
  -6445471.25447  -4986215.93046  24299534.4394   24299537.7844   24299534.0024
        44.0004         40.0004
 -16842806.20548 -13090542.98048  21908550.3274   21908553.6094   21908550.0554
        53.0004         48.0004
 12  1  5  0 15  0.0000000  0 10G04G15G26G27G29G08G10G02G07G05
 -18859751.07348 -14678731.31847  21562176.3044   21562180.6814   21562176.0454
        51.0004         47.0004
 -14097203.01648 -10920376.68347  22730803.7644   22730807.5014   22730802.8364
        51.0004         46.0004
 -22344445.79549 -17095057.47048  20937353.6184   20937357.6664   20937353.5314
        56.0004         51.0004
  -2958900.04247  -2239102.21546  24832826.6534   24832832.3514   24832826.7524
        44.0004         39.0004
  -3680248.41947  -2817489.88446  24118069.8824   24118075.5894   24118070.0864
        45.0004         40.0004
 -16286357.28248 -12518043.37247  22202016.5734   22202021.1144   22202016.3944
        49.0004         45.0004
 -13142061.91847 -10179877.00347  23021492.1704   23021498.6784   23021494.4094
        47.0004         42.0004
 -21100715.99949 -16407850.62048  20400599.0174   20400601.2094   20400599.4214
        57.0004         52.0004
  -6376264.61347  -4932288.66546  24312703.1974   24312706.9434   24312704.5904
        44.0004         39.0004
 -16859856.59348 -13103828.99348  21905305.6854   21905309.7554   21905305.5234
        53.0004         48.0004
 12  1  5  0 15 30.0000000  0 10G04G15G26G27G29G08G10G02G07G05
 -18798448.47548 -14630963.07347  21573841.6664   21573845.7614   21573841.2194
        51.0004         47.0004
 -14159425.94048 -10968862.06547  22718962.4774   22718967.1364   22718962.3474
        50.0004         46.0004
 -22337867.82149 -17089931.75748  20938605.1684   20938609.8194   20938605.0564
        56.0004         51.0004
  -3061321.90147  -2318911.37746  24813336.4574   24813342.5594   24813337.0444
        44.0004         39.0004
  -3731007.67147  -2857042.53046  24108412.4664   24108416.1374   24108411.5784
        44.0004         40.0004
 -16268137.87448 -12503846.41947  22205483.2184   22205488.3234   22205483.8384
        49.0004         45.0004
 -13114395.58247 -10158318.82847  23026758.4294   23026763.1934   23026759.3534
        47.0004         42.0004
 -21091999.98449 -16401058.93348  20402257.4894   20402259.8524   20402257.8734
        57.0004         52.0004
  -6306648.56947  -4878042.42146  24325950.5784   24325953.5914   24325949.6794
        44.0004         39.0004
 -16876916.12048 -13117122.10548  21902059.4164   21902062.6744   21902058.7364
        53.0004         48.0004
 12  1  5  0 16  0.0000000  0 10G04G15G26G27G29G08G10G02G07G05
 -18736714.96348 -14582859.05247  21585589.0824   21585592.8354   21585588.8574
        51.0004         47.0004
 -14221323.45348 -11017093.87447  22707183.0644   22707187.3484   22707183.4074
        51.0004         46.0004
 -22330885.64649 -17084491.08748  20939933.8404   20939938.3674   20939933.9834
        56.0004         51.0004
  -3163859.44147  -2398810.68246  24793824.0824   24793828.5634   24793824.0214
        44.0004         39.0004
  -3781315.62547  -2896243.50346  24098838.2494   24098843.0814   24098837.9444
        44.0004         40.0004
 -16249328.40248 -12489189.67747  22209061.4194   22209066.5164   22209062.9924
        49.0004         45.0004
 -13086704.42047 -10136741.30047  23032026.8874   23032032.6444   23032027.4714
        47.0004         43.0004
 -21082835.50449 -16393917.79148  20404001.7814   20404003.6104   20404001.9104
        57.0004         52.0004
  -6236621.24547  -4823475.69346  24339276.0804   24339280.0154   24339277.1374
        44.0004         39.0004
 -16893980.90248 -13130419.32148  21898811.8504   21898816.0214   21898811.5734
        53.0004         49.0004
 12  1  5  0 16 30.0000000  0 10G04G15G26G27G29G08G10G02G07G05
 -18674552.28648 -14534420.61547  21597418.1884   21597422.1014   21597417.8064
        51.0004         46.0004
 -14282896.13948 -11065072.54847  22695467.2954   22695471.7574   22695467.4354
        51.0004         46.0004
 -22323501.76749 -17078737.39748  20941338.7664   20941343.0904   20941338.7964
        56.0004         51.0004
  -3266511.29547  -2478799.04146  24774289.7444   24774295.1464   24774289.9764
        44.0004         39.0004
  -3831172.00447  -2935092.59446  24089351.3194   24089356.6544   24089350.3254
        45.0004         40.0004
 -16229929.86948 -12474073.92747  22212753.8834   22212758.5884   22212754.3104
        49.0004         45.0004
 -13058988.28047 -10115144.31947  23037301.4264   23037307.3064   23037302.9484
        47.0004         42.0004
 -21073222.59749 -16386427.22148  20405830.7964   20405833.1224   20405831.1294
        57.0004         52.0004
  -6166185.56047  -4768590.75146  24352679.4954   24352684.7654   24352679.8454
        43.0004         39.0004
 -16911051.47848 -13143721.06048  21895563.8824   21895567.0974   21895563.3714
        53.0004         49.0004
 12  1  5  0 17  0.0000000  0 10G04G15G26G27G29G08G10G02G07G05
 -18611960.15348 -14485647.54247  21609328.7054   21609332.6374   21609328.5144
        51.0004         46.0004
 -14344141.93248 -11112796.56147  22683812.3774   22683816.3284   22683812.1574
        51.0004         46.0004
 -22315716.33649 -17072670.81148  20942820.2774   20942824.9784   20942820.2294
        56.0004         51.0004
  -3369273.87847  -2558873.68946  24754734.4464   24754739.7334   24754734.9004
        44.0004         39.0004
  -3880574.77347  -2973588.24146  24079950.3384   24079954.8924   24079949.5264
        45.0004         40.0004
 -16209941.00248 -12458498.17147  22216557.7084   22216562.4934   22216558.1364
        49.0004         45.0004
 -13031245.13547 -10093526.28647  23042580.2534   23042586.9704   23042581.4134
        47.0004         43.0004
 -21063159.42249 -16378585.79148  20407745.8764   20407747.8364   20407746.0634
        57.0004         52.0004
  -6095341.87847  -4713387.90646  24366160.9234   24366164.9824   24366159.6374
        43.0004         39.0004
 -16928126.49948 -13157026.26648  21892314.2994   21892317.9844   21892313.8944
        53.0004         49.0004
 12  1  5  0 17 30.0000000  0 10G04G15G26G27G29G08G10G02G07G05
 -18548943.64148 -14436543.77447  21621320.7224   21621324.9814   21621320.3664
        51.0004         47.0004
 -14405064.70248 -11160268.85647  22672218.3524   22672224.1124   22672218.3974
        51.0004         46.0004
 -22307534.82049 -17066295.58748  20944377.3284   20944381.4584   20944377.4564
        56.0004         51.0004
  -3472148.87647  -2639035.93546  24735158.0004   24735164.4544   24735157.9944
        44.0004         39.0004
  -3929526.92147  -3011732.76246  24070634.3164   24070639.6334   24070634.9844
        45.0004         40.0004
 -16189365.64248 -12442465.40547  22220473.1054   22220478.2754   22220473.5434
        49.0004         45.0004
 -13003477.88547 -10071889.47047  23047865.2224   23047870.0644   23047866.9834
        47.0004         42.0004
 -21052649.49449 -16370396.25148  20409745.9864   20409747.6624   20409746.2844
        57.0004         52.0004
  -6024096.41347  -4657871.97946  24379719.0384   24379721.6504   24379718.8874
        43.0004         39.0004
 -16945209.73748 -13170337.86748  21889063.7994   21889067.4124   21889063.5914
        53.0004         49.0004
 12  1  5  0 18  0.0000000  0 10G04G15G26G27G29G08G10G02G07G05
 -18485501.60948 -14387108.43547  21633393.0104   21633397.7114   21633392.7024
        51.0004         46.0004
 -14465661.75848 -11207487.36447  22660687.5864   22660691.8654   22660687.9804
        51.0004         46.0004
 -22298957.10049 -17059611.63448  20946009.8044   20946014.1104   20946009.7264
        56.0004         51.0004
  -3575131.79247  -2719282.25846  24715560.1234   24715568.1064   24715561.0584
        44.0004         39.0004
  -3978025.40347  -3049523.76546  24061406.0814   24061410.7944   24061404.9774
        45.0004         41.0004
 -16168201.55148 -12425973.89847  22224500.9004   22224505.2254   22224500.4264
        49.0004         45.0004
 -12975683.54047 -10050231.54447  23053154.6024   23053160.0854   23053154.4114
        47.0004         42.0004
 -21041690.21049 -16361856.54848  20411831.3924   20411833.3504   20411831.5864
        57.0004         52.0004
  -5952448.83847  -4602042.74846  24393352.1094   24393356.0924   24393352.2054
        43.0004         39.0004
 -16962299.02848 -13183654.18148  21885811.1804   21885815.0724   21885810.7924
        53.0004         49.0004
 12  1  5  0 18 30.0000000  0 10G04G15G26G27G29G08G10G02G07G05
 -18421633.62948 -14337341.18847  21645546.7204   21645551.4384   21645546.7204
        51.0004         46.0004
 -14525931.21848 -11254450.57647  22649219.1364   22649223.0224   22649218.8444
        51.0004         46.0004
 -22289982.88449 -17052618.72348  20947717.4184   20947721.6064   20947717.2074
        56.0004         51.0004
  -3678218.80647  -2799609.69146  24695943.2604   24695950.0284   24695943.7054
        43.0004         39.0004
  -4026067.61647  -3086959.26646  24052263.3644   24052269.3084   24052263.0944
        45.0004         41.0004
 -16146447.12848 -12409022.39147  22228640.0234   22228645.8534   22228640.8084
        49.0004         45.0004
 -12947859.32347 -10028550.34447  23058448.9314   23058454.0684   23058448.9184
        47.0004         43.0004
 -21030279.33649 -16352964.96548  20414003.0014   20414004.8234   20414003.5144
        57.0004         52.0004
  -5880399.23047  -4545900.22346  24407063.5594   24407067.5564   24407061.6924
        43.0004         39.0004
 -16979392.32648 -13196973.61948  21882558.6254   21882562.7394   21882558.2484
        53.0004         49.0004
 12  1  5  0 19  0.0000000  0 10G04G15G26G27G29G08G10G02G07G05
 -18357342.24048 -14287244.01147  21657780.3144   21657785.9264   21657780.4874
        51.0004         46.0004
 -14585874.46548 -11301159.60047  22637812.8194   22637816.8684   22637812.3234
        51.0004         46.0004
 -22280615.75249 -17045319.64848  20949499.6774   20949504.1104   20949499.6904
        56.0004         51.0004
  -3781409.34147  -2880017.79246  24676305.9194   24676312.2844   24676304.8874
        43.0004         38.0004
  -4073654.36547  -3124039.86746  24043207.2274   24043211.5684   24043206.7314
        45.0004         40.0004
 -16124104.07248 -12391612.21147  22232891.0844   22232897.4714   22232891.7574
        49.0004         45.0004
 -12920006.01347 -10006846.47747  23063749.1984   23063754.1514   23063750.1354
        47.0004         42.0004
 -21018418.11149 -16343722.44548  20416259.7894   20416262.0224   20416260.0944
        57.0004         52.0004
  -5807951.60447  -4489447.54346  24420850.3124   24420854.4234   24420849.9734
        43.0004         39.0004
 -16996491.56548 -13210297.68548  21879304.4964   21879308.5144   21879304.3364
        53.0004         49.0004
 12  1  5  0 19 30.0000000  0 10G04G15G26G27G29G08G10G02G07G05
 -18292629.19448 -14236818.27547  21670095.0864   21670099.7334   21670095.5644
        51.0004         46.0004
 -14645491.69748 -11347614.56847  22626466.4424   22626471.6634   22626466.9734
        51.0004         46.0004
 -22270857.56649 -17037715.85848  20951357.0694   20951360.9044   20951357.0514
        56.0004         51.0004
  -3884701.72547  -2960505.25746  24656649.6244   24656656.7984   24656648.3694
        43.0004         38.0004
  -4120785.33647  -3160765.29446  24034239.1974   24034244.3664   24034239.2284
        45.0004         41.0004
 -16101173.19248 -12373743.97847  22237255.4044   22237260.7614   22237256.2874
        49.0004         45.0004
 -12892123.14447  -9985119.57447  23069055.4644   23069061.2584   23069056.4944
        47.0004         42.0004
 -21006106.81349 -16334129.22248  20418602.5244   20418604.8954   20418602.9474
        57.0004         52.0004
  -5735108.57847  -4432686.75946  24434712.1614   24434716.0644   24434711.9274
        43.0004         39.0004
 -17013596.71348 -13223626.36548  21876049.9504   21876053.6134   21876049.3664
        53.0004         49.0004
 12  1  5  0 20  0.0000000  0 10G04G15G26G27G29G08G10G02G07G05
 -18227492.88148 -14186062.71147  21682490.6454   21682495.1064   21682490.0234
        51.0004         46.0004
 -14704779.77148 -11393813.06247  22615185.0294   22615189.0184   22615184.8814
        51.0004         46.0004
 -22260707.31549 -17029806.56148  20953288.2924   20953292.6444   20953288.1214
        56.0004         51.0004
  -3988090.82047  -3041068.08146  24636975.2514   24636982.0034   24636974.2384
        43.0004         38.0004
  -4167457.03147  -3197132.85146  24025357.7684   24025362.4634   24025357.4764
        46.0004         41.0004
 -16077651.73248 -12355415.55847  22241731.1054   22241736.3104   22241731.7774
        49.0004         45.0004
 -12864207.39347  -9963367.03747  23074367.9614   23074372.1274   23074368.3744
        47.0004         42.0004
 -20993342.00649 -16324182.61548  20421031.5774   20421033.9474   20421031.9434
        57.0004         52.0004
  -5661869.30647  -4375617.21746  24448648.0964   24448652.3354   24448648.8124
        44.0004         39.0004
 -17030705.28948 -13236957.71648  21872794.3094   21872797.8454   21872794.0604
        53.0004         49.0004
 12  1  5  0 20 30.0000000  0 10G04G15G26G27G29G08G10G02G07G05
 -18161936.78848 -14134980.05847  21694965.8954   21694969.8004   21694965.8744
        51.0004         46.0004
 -14763741.00848 -11439756.87447  22603965.7714   22603969.8164   22603965.4104
        51.0004         46.0004
 -22250169.39849 -17021595.18548  20955293.4914   20955297.7284   20955293.3554
        56.0004         51.0004
  -4091576.76747  -3121706.39046  24617280.7524   24617289.5414   24617281.4404
        43.0004         38.0004
  -4213670.78247  -3233143.57846  24016564.3794   24016567.3694   24016564.6714
        46.0004         41.0004
 -16053542.24148 -12336628.92647  22246318.6704   22246323.7654   22246320.2734
        49.0004         45.0004
 -12836260.26847  -9941590.07347  23079686.3374   23079690.3044   23079686.7624
        47.0004         42.0004
 -20980125.65649 -16313884.15448  20423546.4174   20423548.8374   20423546.5144
        57.0004         52.0004
  -5588238.20447  -4318242.34546  24462660.1184   24462663.9194   24462659.3804
        44.0004         39.0004
 -17047819.13048 -13250293.16648  21869537.3934   21869541.3704   21869537.0824
        53.0004         49.0004
 12  1  5  0 21  0.0000000  0 10G04G15G26G27G29G08G10G02G07G05
 -18095962.16648 -14083571.27247  21707520.3484   21707524.7394   21707520.5024
        51.0004         46.0004
 -14822375.03048 -11485445.74047  22592807.3234   22592812.4234   22592807.1184
        51.0004         46.0004
 -22239245.35849 -17013082.93748  20957372.3714   20957376.3944   20957372.5074
        56.0004         51.0004
  -4195157.41547  -3202418.48146  24597570.9144   24597578.3064   24597571.5304
        43.0004         38.0004
  -4259425.79847  -3268796.81946  24007856.8304   24007860.8434   24007856.7014
        46.0004         41.0004
 -16028844.73748 -12317384.09847  22251019.2264   22251023.8454   22251019.9714
        49.0004         45.0004
 -12808280.64347  -9919787.76647  23085008.7984   23085015.4344   23085010.3524
        47.0004         42.0004
 -20966457.58549 -16303233.71448  20426147.6054   20426149.7424   20426147.9784
        57.0004         52.0004
  -5514217.48547  -4260563.88746  24476745.5234   24476748.6204   24476743.2024
        43.0004         39.0004
 -17064938.07648 -13263632.58148  21866280.0254   21866283.6094   21866279.8194
        53.0004         49.0004
 12  1  5  0 21 30.0000000  0 10G04G15G26G27G29G08G10G02G07G05
 -18029566.39148 -14031834.32047  21720154.8804   21720159.4624   21720154.9634
        51.0004         46.0004
 -14880677.98848 -11530876.59347  22581713.0094   22581716.8044   22581712.7464
        51.0004         46.0004
 -22227933.30449 -17004268.34348  20959524.9944   20959529.0854   20959525.0424
        56.0004         51.0004
  -4298826.74447  -3283199.67046  24577842.6834   24577850.9824   24577844.0434
        43.0004         38.0004
  -4304717.87147  -3304089.32146  23999238.2504   23999242.7134   23999238.1764
        46.0004         41.0004
 -16003556.05548 -12297678.62247  22255831.3434   22255835.8974   22255832.1734
        49.0004         45.0004
 -12780263.93047  -9897956.57747  23090340.3744   23090345.4234   23090342.0224
        47.0004         42.0004
 -20952333.51849 -16292227.95048  20428835.4404   20428837.3424   20428835.7294
        57.0004         52.0004
  -5439805.43147  -4202580.49946  24490906.0234   24490909.5004   24490903.7464
        43.0004         39.0004
 -17082058.34348 -13276973.04048  21863022.0734   21863025.7374   21863021.5754
        53.0004         49.0004
 12  1  5  0 22  0.0000000  0 10G04G15G26G27G29G08G10G02G07G05
 -17962756.10248 -13979774.37747  21732868.8024   21732873.5364   21732868.1844
        51.0004         46.0004
 -14938654.83148 -11576053.36347  22570680.2064   22570684.5154   22570679.8154
        51.0004         47.0004
 -22216240.32149 -16995156.91848  20961749.8684   20961754.5334   20961749.6854
        56.0004         51.0004
  -4402587.84647  -3364052.37846  24558099.1234   24558106.5794   24558098.1774
        43.0004         38.0004
  -4349551.57047  -3339024.65246  23990707.7624   23990711.8374   23990706.8574
        46.0004         41.0004
 -15977681.58148 -12277516.67547  22260754.3414   22260760.0094   22260756.1704
        49.0004         45.0004
 -12752214.25547  -9876099.69447  23095679.3394   23095685.2784   23095680.0904
        47.0004         42.0004
 -20937758.29649 -16280870.64448  20431608.8524   20431610.8234   20431609.1824
        57.0004         52.0004
  -5365009.36747  -4144297.87646  24505140.2454   24505142.1274   24505138.4514
        43.0004         39.0004
 -17099185.18049 -13290318.62448  21859763.3224   21859766.5774   21859762.9084
        54.0004         49.0004
 12  1  5  0 22 30.0000000  0 10G04G15G26G27G29G08G10G02G07G05
 -17895529.05948 -13927389.68247  21745661.3294   21745665.6734   21745661.5224
        51.0004         46.0004
 -14996302.18948 -11620973.35147  22559709.8804   22559714.8114   22559709.8004
        51.0004         47.0004
 -22204164.74849 -16985747.36648  20964047.7744   20964052.2734   20964047.7514
        56.0004         51.0004
  -4506434.93347  -3444972.07846  24538336.8664   24538344.0274   24538337.3374
        43.0004         38.0004
  -4393922.48547  -3373599.35646  23982262.7984   23982266.9844   23982262.9074
        45.0004         40.0004
 -15951218.60048 -12256896.15347  22265791.1864   22265795.7964   22265791.4044
        49.0004         45.0004
 -12724127.48047  -9854213.90247  23101023.1874   23101029.0554   23101023.9524
        47.0004         42.0004
 -20922728.10049 -16269158.81848  20434469.2584   20434471.1214   20434469.6724
        57.0004         52.0004
  -5289828.22747  -4085715.18046  24519444.6904   24519449.6964   24519445.5554
        43.0004         39.0004
 -17116314.85449 -13303666.41148  21856503.2064   21856506.7134   21856502.5394
        54.0004         49.0004
 12  1  5  0 23  0.0000000  0 10G04G15G26G27G29G08G10G02G07G05
 -17827887.12148 -13874681.69347  21758533.5254   21758538.3484   21758532.9614
        51.0004         46.0004
 -15053620.05348 -11665636.62847  22548803.1294   22548807.3584   22548802.8324
        52.0004         47.0004
 -22191708.73249 -16976041.37048  20966418.1264   20966422.5564   20966418.1654
        56.0004         51.0004
  -4610366.08847  -3525957.30346  24518559.8814   24518566.5754   24518559.4024
        43.0004         38.0004
  -4437830.71347  -3407813.54546  23973908.0964   23973912.8474   23973908.6134
        45.0004         41.0004
 -15924167.60148 -12235817.43947  22270937.4754   22270942.8874   22270939.3234
        49.0004         45.0004
 -12696003.07747  -9832298.78647  23106375.3384   23106380.5104   23106376.8284
        47.0004         42.0004
 -20907243.56449 -16257092.96048  20437415.8214   20437417.4994   20437415.9474
        57.0004         52.0004
  -5214264.27947  -4026834.22046  24533825.7544   24533828.4874   24533824.8714
        43.0004         39.0004
 -17133447.49349 -13317016.50248  21853243.1524   21853246.8674   21853242.8834
        54.0004         49.0004
 12  1  5  0 23 30.0000000  0 10G04G15G26G27G29G08G10G02G07G05
 -17759831.57248 -13821651.41047  21771483.2814   21771489.0594   21771483.1214
        51.0004         46.0004
 -15110608.52448 -11710043.21747  22537958.9694   22537963.1404   22537958.5374
        52.0004         47.0004
 -22178874.39049 -16966040.57648  20968860.2914   20968864.7254   20968860.4174
        56.0004         51.0004
  -4714379.36547  -3607006.52346  24498766.6324   24498773.7254   24498767.0904
        43.0004         38.0004
  -4481275.86047  -3441666.92346  23965640.5014   23965644.0334   23965639.4524
        45.0004         41.0004
 -15896529.13348 -12214280.96147  22276197.0964   22276203.2484   22276198.7214
        49.0004         45.0004
 -12667840.39047  -9810353.83247  23111734.1274   23111739.1424   23111734.5164
        47.0004         42.0004
 -20891304.28349 -16244672.75748  20440448.8364   20440450.6214   20440449.3574
        57.0004         52.0004
  -5138320.56047  -3967657.29446  24548276.5044   24548280.8044   24548275.5504
        43.0004         39.0004
 -17150583.25848 -13330369.03748  21849981.7054   21849985.6844   21849981.3234
        53.0004         49.0004
 12  1  5  0 24  0.0000000  0 10G04G15G26G27G29G08G10G02G07G05
 -17691363.95848 -13768300.03947  21784512.9664   21784516.9524   21784512.8674
        51.0004         46.0004
 -15167267.55648 -11754193.10947  22527176.7434   22527180.9594   22527176.4134
        52.0004         47.0004
 -22165663.72349 -16955746.53948  20971374.1494   20971378.5174   20971374.3144
        56.0004         51.0004
  -4818472.51547  -3688117.97546  24478958.4384   24478964.7254   24478957.9944
        43.0004         39.0004
  -4524256.96247  -3475158.69946  23957461.7284   23957465.1324   23957462.7404
        45.0004         41.0004
 -15868303.38048 -12192286.85047  22281568.8154   22281574.3094   22281569.7104
        49.0004         45.0004
 -12639638.53747  -9788378.37047  23117100.6114   23117106.2664   23117101.8784
        46.0004         42.0004
 -20874910.02849 -16231898.01148  20443568.6214   20443570.5824   20443568.8764
        57.0004         52.0004
  -5061998.88847  -3908185.89146  24562800.8794   24562803.6564   24562800.4704
        43.0004         39.0004
 -17167721.96248 -13343723.83748  21846720.8044   21846724.1894   21846720.6194
        53.0004         49.0004
 12  1  5  0 24 30.0000000  0 10G04G15G26G27G29G08G10G02G07G05
 -17622484.89048 -13714628.04447  21797619.8974   21797625.2924   21797619.5824
        51.0004         46.0004
 -15223596.28648 -11798085.60447  22516457.7404   22516461.1404   22516457.4314
        51.0004         46.0004
 -22152077.52749 -16945159.88148  20973959.6924   20973964.0334   20973959.8934
        56.0004         51.0004
  -4922642.49147  -3769289.29546  24459135.9064   24459141.8034   24459136.2114
        43.0004         39.0004
  -4566773.09447  -3508288.11346  23949371.3864   23949375.1754   23949370.4474
        46.0004         41.0004
 -15839490.30548 -12169835.09347  22287052.2234   22287056.4274   22287052.7194
        49.0004         45.0004
 -12611396.09247  -9766371.27647  23122475.6024   23122480.8374   23122476.3494
        46.0004         42.0004
 -20858059.80249 -16218767.96748  20446774.8024   20446776.9214   20446775.4264
        57.0004         52.0004
  -4985300.76447  -3848421.14246  24577394.0344   24577398.9254   24577394.1984
        43.0004         38.0004
 -17184862.61148 -13357080.16948  21843458.9244   21843462.0124   21843458.3164
        53.0004         49.0004
 12  1  5  0 25  0.0000000  0 10G04G15G26G27G29G08G10G02G07G05
 -17553194.73548 -13660635.73347  21810805.1464   21810810.6424   21810805.1004
        51.0004         46.0004
 -15279593.59748 -11841719.87947  22505801.8854   22505805.6134   22505801.4144
        51.0004         47.0004
 -22138117.12349 -16934281.62948  20976616.0274   20976620.4274   20976616.1924
        56.0004         51.0004
  -5026886.07447  -3850517.96146  24439298.9114   24439305.4404   24439299.7154
        43.0004         39.0004
  -4608822.30247  -3541053.73946  23941368.5724   23941373.6894   23941368.5934
        46.0004         41.0004
 -15810089.37748 -12146925.26147  22292646.8034   22292651.5444   22292647.4014
        49.0004         45.0004
 -12583110.90647  -9744330.86947  23127857.8694   23127863.3594   23127858.2104
        46.0004         42.0004
 -20840752.83149 -16205282.01648  20450068.3654   20450070.3934   20450068.8704
        57.0004         52.0004
  -4908227.40347  -3788364.02346  24592061.5024   24592064.8514   24592060.9034
        43.0004         38.0004
 -17202003.96348 -13370437.05648  21840196.8614   21840200.7814   21840196.5354
        53.0004         49.0004
 12  1  5  0 25 30.0000000  0 10G04G15G26G27G29G08G10G02G07G05
 -17483496.85948 -13606325.71447  21824068.7924   21824073.1754   21824068.1594
        51.0004         46.0004
 -15335261.59748 -11885097.51047  22495208.5274   22495212.1464   22495208.2134
        51.0004         47.0004
 -22123786.20349 -16923114.66748  20979343.3394   20979347.5404   20979343.2434
        56.0004         51.0004
  -5131202.97347  -3931803.77246  24419447.8714   24419454.6704   24419447.6874
        44.0004         39.0004
  -4650406.41647  -3573456.97746  23933456.8844   23933460.3554   23933455.6684
        46.0004         41.0004
 -15780103.07048 -12123559.30147  22298352.7014   22298357.5304   22298353.7164
        49.0004         44.0004
 -12554784.26247  -9722258.17347  23133248.9424   23133254.1634   23133249.9294
        46.0004         42.0004
 -20822990.72049 -16191441.41848  20453448.6164   20453450.6054   20453448.7254
        57.0004         52.0004
  -4830783.17047  -3728017.90346  24606798.4254   24606802.1514   24606798.8684
        43.0004         38.0004
 -17219147.94348 -13383795.98048  21836934.4214   21836938.0024   21836934.1634
        53.0004         49.0004
 12  1  5  0 26  0.0000000  0 10G04G15G26G27G29G08G10G02G07G05
 -17413385.92948 -13551693.83347  21837409.9594   21837414.8644   21837410.3084
        50.0004         46.0004
 -15390593.82548 -11928213.52447  22484678.8434   22484683.5984   22484678.1874
        52.0004         47.0004
 -22109080.03749 -16911655.30548  20982141.6494   20982146.1284   20982141.8224
        56.0004         51.0004
  -5235584.17247  -4013139.67846  24399585.1214   24399591.8074   24399584.6804
        44.0004         39.0004
  -4691518.00647  -3605491.98747  23925633.3644   23925636.3814   23925632.8834
        46.0004         42.0004
 -15749525.27248 -12099732.42247  22304171.3654   22304176.9254   22304172.8614
        49.0004         44.0004
 -12526408.35047  -9700147.07947  23138647.8274   23138653.0944   23138648.9554
        46.0004         42.0004
 -20804766.51349 -16177240.74748  20456916.4954   20456918.6964   20456916.7934
        57.0004         52.0004
  -4752963.51947  -3667379.25746  24621606.9824   24621611.6524   24621603.4894
        43.0004         38.0004
 -17236287.50448 -13397151.46348  21833673.0344   21833676.9754   21833672.5574
        53.0004         49.0004
 12  1  5  0 26 30.0000000  0 10G04G15G26G27G29G08G10G02G07G05
 -17342874.51648 -13496749.89047  21850828.0684   21850832.7934   21850827.2944
        50.0004         46.0004
 -15445600.51548 -11971075.84547  22474211.5744   22474215.7064   22474211.3474
        52.0004         47.0004
 -22094011.45049 -16899913.53948  20985009.0594   20985013.7374   20985009.0964
        56.0004         51.0004
  -5340038.37947  -4094532.46346  24379707.8864   24379715.0114   24379708.2434
        44.0004         39.0004
  -4732167.49347  -3637166.91647  23917896.8564   23917902.2674   23917897.3074
        47.0004         42.0004
 -15718367.71648 -12075453.78647  22310100.5354   22310105.4624   22310101.6324
        49.0004         45.0004
 -12497993.42847  -9678005.59446  23144055.3174   23144060.6404   23144055.9444
        46.0004         41.0004
 -20786091.28849 -16162688.63148  20460470.3414   20460472.2834   20460470.5424
        57.0004         52.0004
  -4674782.09747  -3606458.74046  24636484.9224   24636488.7824   24636482.8294
        43.0004         38.0004
 -17253433.62148 -13410512.05048  21830410.2374   21830413.8754   21830409.6084
        53.0004         49.0004
 12  1  5  0 27  0.0000000  0 10G04G15G26G27G29G08G10G02G07G05
 -17271958.36648 -13441490.57047  21864322.9134   21864327.4494   21864323.0004
        50.0004         46.0004
 -15500276.18748 -12013680.25848  22463807.3554   22463811.9084   22463806.7474
        52.0004         48.0004
 -22078576.91549 -16887886.62648  20987946.1874   20987950.7754   20987946.2594
        56.0004         51.0004
  -5444557.67847  -4175975.96246  24359819.0154   24359825.2664   24359820.2364
        44.0004         40.0004
  -4772349.02847  -3668477.19547  23910250.8384   23910256.5504   23910250.4544
        47.0004         42.0004
 -15686625.16448 -12050719.31647  22316141.2324   22316145.4634   22316142.1524
        49.0004         44.0004
 -12469532.92647  -9655828.58146  23149470.8154   23149476.7354   23149472.3214
        46.0004         41.0004
 -20766959.21249 -16147780.53248  20464110.9324   20464113.0744   20464111.3724
        57.0004         52.0004
  -4596235.46247  -3545253.60146  24651430.2334   24651435.3734   24651431.3224
        43.0004         38.0004
 -17270580.12448 -13423872.95148  21827147.2284   21827151.2314   21827146.9024
        53.0004         49.0004
 12  1  5  0 27 30.0000000  0 10G04G15G26G27G29G08G10G02G07G05
 -17200637.80748 -13385916.11947  21877894.5984   21877899.7174   21877894.1414
        50.0004         46.0004
 -15554620.19548 -12056026.21247  22453465.9184   22453470.1784   22453465.3164
        52.0004         47.0004
 -22062777.14449 -16875575.11248  20990952.8654   20990957.0134   20990952.9764
        56.0004         51.0004
  -5549138.68847  -4257467.54346  24339917.5764   24339923.3284   24339917.8944
        44.0004         40.0004
  -4812061.18147  -3699421.70147  23902693.8944   23902698.8254   23902693.7914
        47.0004         42.0004
 -15654297.40948 -12025528.84447  22322293.0924   22322298.0744   22322293.9004
        49.0004         45.0004
 -12441025.01947  -9633614.64446  23154896.0434   23154900.5704   23154896.1514
        46.0004         41.0004
 -20747369.03749 -16132515.46748  20467838.7384   20467840.8804   20467839.2114
        57.0004         52.0004
  -4517324.77247  -3483764.78946  24666446.4944   24666452.3434   24666445.0624
        43.0004         38.0004
 -17287725.89148 -13437233.26448  21823884.2694   21823887.9764   21823884.0454
        53.0004         49.0004
 12  1  5  0 28  0.0000000  0 10G04G15G26G27G29G08G10G02G07G05
 -17128914.70848 -13330028.00347  21891543.5544   21891547.5644   21891543.1064
        50.0004         46.0004
 -15608632.40248 -12098113.63148  22443187.9944   22443192.2744   22443188.0654
        52.0004         48.0004
 -22046614.53549 -16862980.86248  20994028.5054   20994032.9744   20994028.5284
        56.0004         51.0004
  -5653779.44447  -4339005.68446  24320004.1834   24320011.3164   24320005.1824
        45.0004         40.0004
  -4851303.35347  -3730000.01947  23895226.1794   23895230.5224   23895225.7834
        47.0004         43.0004
 -15621385.26748 -11999882.99947  22328555.9614   22328561.1114   22328556.6804
        49.0004         45.0004
 -12412469.02747  -9611363.21546  23160329.2134   23160334.3284   23160330.1044
        46.0004         41.0004
 -20727321.08949 -16116893.70248  20471653.7474   20471655.7974   20471654.2534
        56.0004         52.0004
  -4438052.33147  -3421994.11046  24681533.3914   24681537.7804   24681530.9184
        43.0004         39.0004
 -17304870.90548 -13450592.99648  21820621.6384   21820625.8214   21820621.3344
        53.0004         49.0004
 12  1  5  0 28 30.0000000  0 10G04G15G26G27G29G08G10G02G07G05
 -17056793.24748 -13273829.48447  21905268.0394   21905272.1754   21905268.0774
        50.0004         46.0004
 -15662315.72948 -12139944.78447  22432972.1544   22432976.7294   22432971.4184
        52.0004         47.0004
 -22030093.66349 -16850107.44248  20997172.2524   20997176.6534   20997172.3454
        56.0004         51.0004
  -5758480.26747  -4420590.63646  24300080.5544   24300086.4654   24300080.8744
        45.0004         40.0004
  -4890078.12348  -3760214.10347  23887848.3514   23887853.0544   23887847.9874
        48.0004         43.0004
 -15587891.73348 -11973784.13647  22334929.3554   22334933.9034   22334929.9314
        49.0004         44.0004
 -12383866.37847  -9589075.45746  23165773.0584   23165778.4264   23165775.0474
        46.0004         41.0004
 -20706817.73449 -16100917.05748  20475555.5084   20475557.2444   20475555.8064
        56.0004         52.0004
  -4358423.41747  -3359945.64446  24696686.2534   24696690.6224   24696686.6794
        43.0004         39.0004
 -17322017.63148 -13463954.05648  21817358.5674   21817362.7324   21817358.3514
        53.0004         49.0004
 12  1  5  0 29  0.0000000  0 10G04G15G26G27G29G08G10G02G07G05
 -16984269.70148 -13217317.63947  21919068.5664   21919072.9664   21919068.1234
        50.0004         46.0004
 -15715664.87748 -12181515.53347  22422819.9044   22422824.3184   22422819.7954
        52.0004         47.0004
 -22013210.98449 -16836952.10148  21000385.0264   21000389.3384   21000385.0994
        56.0004         51.0004
  -5863233.57447  -4502216.49546  24280147.6234   24280152.3904   24280147.3064
        45.0004         40.0004
  -4928380.05048  -3790059.74747  23880558.6214   23880565.4174   23880558.6194
        48.0004         43.0004
 -15553813.11248 -11947229.35047  22341414.2404   22341419.3034   22341414.6984
        49.0004         44.0004
 -12355211.26347  -9566746.79447  23171226.0114   23171232.1484   23171226.7474
        46.0004         42.0004
 -20685853.97749 -16084581.67148  20479544.5654   20479546.8314   20479544.9504
        56.0004         52.0004
  -4278435.10147  -3297617.13946  24711907.4504   24711912.1104   24711908.8924
        43.0004         39.0004
 -17339160.58848 -13477312.20748  21814096.9034   21814100.5324   21814096.6284
        53.0004         49.0004
 12  1  5  0 29 30.0000000  0 10G04G15G26G27G29G08G10G02G07G05
 -16911348.43348 -13160495.89847  21932943.8644   21932949.2564   21932944.7974
        50.0004         46.0004
 -15768683.01748 -12222828.37047  22412730.7494   22412735.3014   22412730.8494
        52.0004         47.0004
 -21995971.69849 -16823518.88448  21003665.5154   21003669.8234   21003665.6954
        56.0004         51.0004
  -5968039.99147  -4583883.72646  24260202.7674   24260208.4374   24260204.0474
        45.0004         40.0004
  -4966211.08048  -3819538.45747  23873361.1164   23873365.6664   23873360.2844
        48.0004         44.0004
 -15519152.30648 -11920220.91647  22348010.0974   22348014.8394   22348010.3904
        49.0004         44.0004
 -12326505.93047  -9544379.00846  23176689.1334   23176693.9784   23176689.7994
        46.0004         41.0004
 -20664432.15049 -16067889.34448  20483621.2424   20483623.1914   20483621.5384
        56.0004         52.0004
  -4198092.88247  -3235012.86846  24727197.4694   24727201.2214   24727198.2124
        44.0004         39.0004
 -17356302.33748 -13490669.39848  21810834.6524   21810838.6674   21810834.4244
        53.0004         49.0004
 12  1  5  0 30  0.0000000  0 10G04G15G26G27G29G08G10G02G07G05
 -16838030.40848 -13103364.98247  21946896.3324   21946901.2374   21946896.0764
        50.0004         45.0004
 -15821369.74848 -12263882.96247  22402704.9644   22402709.5104   22402704.3814
        52.0004         47.0004
 -21978377.23749 -16809808.90248  21007013.5934   21007017.9764   21007013.4164
        56.0004         51.0004
  -6072896.61147  -4665590.09246  24240250.1694   24240254.2834   24240250.2174
        45.0004         41.0004
  -5003570.85248  -3848649.94747  23866251.7364   23866256.8694   23866250.5364
        48.0004         43.0004
 -15483910.15148 -11892759.48247  22354715.8254   22354721.3774   22354717.0694
        49.0004         44.0004
 -12297748.54147  -9521970.65647  23182160.5374   23182166.8404   23182161.8764
        46.0004         42.0004
 -20642552.57649 -16050840.33348  20487784.6834   20487786.9664   20487784.9094
        56.0004         52.0004
  -4117398.04447  -3172133.82646  24742552.9674   24742556.1374   24742554.1864
        44.0004         39.0004
 -17373441.91348 -13504024.91348  21807573.5294   21807576.8054   21807573.3114
        53.0004         49.0004
 12  1  5  0 30 30.0000000  0 10G04G15G26G27G29G08G10G02G07G05
 -16764316.65348 -13045925.70947  21960923.5074   21960928.5244   21960923.2014
        50.0004         45.0004
 -15873723.92348 -12304678.40147  22392742.1764   22392745.8634   22392741.7924
        52.0004         47.0004
 -21960429.24849 -16795823.44048  21010428.9934   21010433.4014   21010428.9324
        56.0004         51.0004
  -6177800.59047  -4747333.35646  24220287.5994   24220291.6844   24220287.9494
        45.0004         41.0004
  -5040458.33748  -3877393.45147  23859231.1144   23859235.9554   23859230.7054
        48.0004         43.0004
 -15448086.51748 -11864844.94747  22361533.6754   22361538.1804   22361533.2254
        49.0004         44.0004
 -12268937.58147  -9499520.56847  23187644.7084   23187648.7204   23187644.2954
        46.0004         42.0004
 -20620214.41449 -16033433.98548  20492035.5914   20492037.8674   20492035.8804
        56.0004         52.0004
  -4036352.74147  -3108981.68446  24757975.7294   24757978.6944   24757976.4234
        44.0004         39.0004
 -17390578.62248 -13517378.19248  21804312.4544   21804315.7554   21804311.9724
        53.0004         49.0004
 12  1  5  0 31  0.0000000  0 10G04G15G26G27G29G08G10G02G07G05
 -16690208.82948 -12988179.36747  21975025.5124   21975031.3284   21975025.8604
        50.0004         45.0004
 -15925746.04448 -12345215.09647  22382843.6034   22382846.8014   22382842.8014
        52.0004         47.0004
 -21942129.29449 -16781563.71848  21013911.5814   21013915.9294   21013911.5654
        56.0004         51.0004
  -6282749.60747  -4829111.71846  24200316.5444   24200320.4574   24200315.9744
        45.0004         41.0004
  -5076873.36347  -3905768.79147  23852302.2624   23852306.0624   23852302.2444
        47.0004         42.0004
 -15411682.24648 -11836477.96947  22368460.6794   22368465.7044   22368461.0364
        49.0004         44.0004
 -12240072.27847  -9477028.12747  23193135.5844   23193141.1694   23193137.9304
        46.0004         42.0004
 -20597417.64949 -16015670.27648  20496373.6124   20496375.8654   20496374.0364
        56.0004         52.0004
  -3954959.33047  -3045558.30346  24773464.1844   24773466.6334   24773464.1714
        44.0004         39.0004
 -17407712.01048 -13530728.86748  21801051.7944   21801055.4944   21801051.7294
        53.0004         49.0004
 12  1  5  0 31 30.0000000  0 10G04G15G26G27G29G08G10G02G07G05
 -16615710.01948 -12930128.36847  21989203.1644   21989206.5374   21989203.0314
        50.0004         45.0004
 -15977438.00248 -12385494.51847  22373005.7124   22373010.3744   22373005.5004
        52.0004         47.0004
 -21923481.35249 -16767032.83948  21017459.7624   21017464.3404   21017459.7084
        56.0004         51.0004
  -6387742.96947  -4910924.64646  24180336.3234   24180340.9024   24180336.4894
        45.0004         40.0004
  -5112816.95847  -3933776.76847  23845462.7894   23845466.1304   23845461.4524
        47.0004         42.0004
 -15374699.86848 -11807660.51647  22375498.5104   22375503.3774   22375498.6834
        49.0004         44.0004
 -12211153.25047  -9454493.82647  23198638.2974   23198644.6494   23198640.1974
        46.0004         42.0004
 -20574163.97849 -15997550.55148  20500798.7594   20500800.6834   20500798.7504
        56.0004         52.0004
  -3873221.86647  -2981866.82846  24789016.9924   24789022.1414   24789017.8014
        44.0004         39.0004
 -17424843.43648 -13544078.02348  21797791.9574   21797795.2294   21797791.4974
        53.0004         49.0004
 12  1  5  0 32  0.0000000  0 10G04G15G26G27G29G08G10G02G07G05
 -16540818.74548 -12871771.54347  22003454.7144   22003458.9034   22003454.1664
        50.0004         45.0004
 -16028796.34748 -12425513.98347  22363233.2874   22363237.4374   22363232.9464
        52.0004         47.0004
 -21904484.33849 -16752229.96148  21021074.6194   21021079.2684   21021074.6814
        56.0004         51.0004
  -6492774.93447  -4992767.64346  24160348.9014   24160354.0614   24160349.2814
        45.0004         40.0004
  -5148285.88147  -3961414.87547  23838710.5534   23838716.9424   23838711.5914
        46.0004         42.0004
 -15337137.41748 -11778391.05647  22382645.7904   22382651.4074   22382646.3854
        49.0004         44.0004
 -12182176.06147  -9431914.19947  23204152.8614   23204158.3684   23204154.6984
        46.0004         42.0004
 -20550450.06949 -15979072.19848  20505311.2744   20505313.2354   20505311.8144
        56.0004         52.0004
  -3791139.61347  -2917906.69146  24804639.1014   24804640.6674   24804638.1774
        44.0004         39.0004
 -17441969.41848 -13557422.91648  21794533.2104   21794536.7244   21794532.8984
        53.0004         49.0004
 12  1  5  0 32 30.0000000  0 10G04G15G26G27G29G08G10G02G07G05
 -16465538.18448 -12813111.39147  22017779.3654   22017784.6554   22017779.5774
        50.0004         45.0004
 -16079823.55748 -12465275.42347  22353522.6104   22353527.2194   22353522.0434
        52.0004         47.0004
 -21885141.56149 -16737157.66348  21024755.7544   21024760.1424   21024755.9014
        56.0004         51.0004
  -6597844.60147  -5074640.05246  24140354.6754   24140360.4724   24140354.1814
        45.0004         40.0004
  -5183281.65147  -3988684.29647  23832054.1844   23832057.6864   23832052.7694
        46.0004         42.0004
 -15298996.86448 -11748671.13847  22389903.6374   22389909.5584   22389904.3934
        49.0004         44.0004
 -12153141.24947  -9409289.67747  23209678.2544   23209685.3674   23209679.1304
        47.0004         42.0004
 -20526277.60149 -15960236.52848  20509911.0164   20509913.3434   20509911.3674
        56.0004         52.0004
  -3708716.38247  -2853680.84546  24820321.8134   24820323.8474   24820322.3664
        43.0004         39.0004
 -17459090.80349 -13570764.23348  21791274.7404   21791278.2144   21791274.1354
        54.0004         49.0004
 12  1  5  0 33  0.0000000  0 10G04G15G26G27G29G08G10G02G07G05
 -16389870.03448 -12754149.21847  22032178.6164   22032183.7954   22032179.4824
        50.0004         45.0004
 -16130518.67148 -12504778.09047  22343875.1144   22343880.0954   22343875.0374
        52.0004         47.0004
 -21865455.26049 -16721817.67448  21028501.9284   21028506.1354   21028502.0084
        56.0004         51.0004
  -6702949.80747  -5156540.11846  24120354.2684   24120359.8074   24120352.9204
        45.0004         40.0004
  -5217803.85347  -4015584.69646  23825483.1874   23825487.0494   23825482.6824
        46.0004         41.0004
 -15260279.19248 -11718501.51147  22397272.3334   22397275.4904   22397271.4034
        49.0004         44.0004
 -12124048.42647  -9386619.95647  23215215.7074   23215220.3054   23215216.5604
        47.0004         42.0004
 -20501646.76849 -15941043.68948  20514598.3494   20514600.5594   20514598.7084
        56.0004         52.0004
  -3625954.61047  -2789191.22746  24836070.2784   24836074.0214   24836070.3554
        43.0004         39.0004
 -17476207.39449 -13584101.82548  21788017.8864   21788021.4244   21788017.5834
        54.0004         49.0004
 12  1  5  0 33 30.0000000  0 10G04G15G26G27G29G08G10G02G07G05
 -16313815.31548 -12694885.82247  22046651.9794   22046655.2154   22046651.6244
        50.0004         45.0004
 -16180881.94448 -12544022.19647  22334292.0764   22334296.4034   22334292.1134
        52.0004         47.0004
 -21845427.13949 -16706211.33448  21032313.0364   21032317.5394   21032312.9244
        56.0004         51.0004
  -6808087.77847  -5238465.72446  24100345.9084   24100353.0344   24100346.4604
        45.0004         40.0004
  -5251851.54847  -4042115.34746  23819004.3054   23819009.1894   23819004.6834
        45.0004         41.0004
 -15220984.85948 -11687882.54047  22404748.9254   22404754.1674   22404749.0214
        49.0004         44.0004
 -12094896.10247  -9363903.86047  23220761.4834   23220766.3844   23220762.6614
        46.0004         42.0004
 -20476557.30649 -15921493.47348  20519372.6814   20519374.8924   20519372.9674
        56.0004         52.0004
  -3542856.46047  -2724439.49046  24851883.7844   24851886.9574   24851883.9304
        43.0004         38.0004
 -17493318.51649 -13597435.15348  21784761.8644   21784765.1194   21784761.3074
        54.0004         49.0004
 12  1  5  0 34  0.0000000  0 10G04G15G26G27G29G08G10G02G07G05
 -16237374.62448 -12635321.65947  22061197.7874   22061202.1184   22061197.4624
        50.0004         45.0004
 -16230912.08448 -12583006.69747  22324770.6824   22324775.6294   22324770.5644
        52.0004         47.0004
 -21825057.66649 -16690339.00448  21036189.3744   21036193.8664   21036189.4964
        56.0004         51.0004
  -6913254.93247  -5320414.09346  24080333.6834   24080340.0804   24080334.5524
        45.0004         40.0004
  -5285423.57647  -4068275.34346  23812614.6084   23812621.0634   23812615.5134
        45.0004         40.0004
 -15181113.64148 -11656814.04747  22412337.0304   22412341.4374   22412336.3664
        49.0004         44.0004
 -12065681.88747  -9341139.53547  23226322.3444   23226327.8194   23226323.3574
        46.0004         42.0004
 -20451008.22949 -15901585.12148  20524234.4944   20524236.6074   20524234.9264
        56.0004         52.0004
  -3459422.91047  -2659426.38146  24867761.9744   24867765.1604   24867761.4104
        43.0004         38.0004
 -17510422.28149 -13610762.75648  21781506.7314   21781510.1444   21781506.4664
        54.0004         49.0004
 12  1  5  0 34 30.0000000  0 10G04G15G26G27G29G08G10G02G07G05
 -16160551.38748 -12575459.40647  22075815.9114   22075821.7214   22075815.6184
        49.0004         45.0004
 -16280611.38448 -12621733.40548  22315314.0714   22315318.7394   22315314.0884
        52.0004         48.0004
 -21804350.96649 -16674203.89448  21040129.5434   21040133.9434   21040129.6734
        56.0004         51.0004
  -7018450.60247  -5402384.66546  24060316.0804   24060322.2614   24060315.8734
        45.0004         40.0004
  -5318521.68247  -4094066.06746  23806319.2634   23806322.1364   23806317.6744
        45.0004         40.0004
 -15140668.71648 -11625298.49847  22420032.7774   22420037.9134   22420032.6554
        49.0004         44.0004
 -12036406.87647  -9318327.82846  23231892.6294   23231897.3144   23231893.3154
        46.0004         41.0004
 -20425001.58249 -15881320.21048  20529183.2954   20529185.5224   20529183.7714
        56.0004         52.0004
  -3375658.24247  -2594155.27246  24883700.9154   24883705.0194   24883700.7944
        43.0004         38.0004
 -17527520.56148 -13624086.08948  21778253.2544   21778256.3504   21778252.9614
        53.0004         49.0004
 12  1  5  0 35  0.0000000  0 10G04G15G26G27G29G08G10G02G07G05
 -16083346.69048 -12515299.92647  22090507.9514   22090513.3684   22090507.8904
        49.0004         45.0004
 -16329979.31048 -12660201.91047  22305919.2684   22305923.5924   22305919.3314
        52.0004         47.0004
 -21783308.75049 -16657807.34848  21044133.5084   21044137.9394   21044133.7974
        56.0004         51.0004
  -7123671.75747  -5484375.10246  24040292.8774   24040298.2534   24040292.6414
        45.0004         40.0004
  -5351145.20647  -4119486.96446  23800110.0454   23800114.2744   23800109.9934
        44.0004         39.0004
 -15099650.25448 -11593336.05447  22427838.7544   22427842.7684   22427838.2724
        49.0004         44.0004
 -12007069.17747  -9295467.28947  23237476.1914   23237480.8774   23237476.2804
        46.0004         42.0004
 -20398536.59249 -15860698.15348  20534219.4474   20534221.8054   20534219.9124
        56.0004         52.0004
  -3291564.37247  -2528627.63446  24899702.7934   24899706.2694   24899703.5894
        42.0004         38.0004
 -17544611.83948 -13637403.96648  21775000.3764   21775004.1454   21774999.9144
        53.0004         49.0004
 12  1  5  0 35 30.0000000  0 10G04G15G26G27G29G08G10G02G07G05
 -16005760.78548 -12454843.40047  22105272.0174   22105277.5834   22105271.8024
        49.0004         45.0004
 -16379014.50348 -12698411.11747  22296588.2644   22296592.1184   22296588.3064
        52.0004         47.0004
 -21761931.25349 -16641149.54648  21048201.6704   21048206.0194   21048201.6114
        56.0004         51.0004
  -7228914.45147  -5566382.31846  24020265.6374   24020271.5794   24020266.3764
        45.0004         41.0004
  -5383292.42447  -4144536.74246  23793992.9284   23793997.4534   23793992.8774
        44.0004         39.0004
 -15058057.53648 -11560926.13847  22435753.3664   22435758.7714   22435753.6934
        49.0004         44.0004
 -11977666.33747  -9272555.96647  23243070.0624   23243075.6294   23243071.2854
        46.0004         42.0004
 -20371612.22049 -15839718.13748  20539343.2784   20539345.0574   20539343.9054
        56.0004         52.0004
  -3207142.22447  -2462844.22546  24915766.6714   24915772.5274   24915767.8914
        42.0004         38.0004
 -17561694.45148 -13650715.09448  21771749.7874   21771753.4234   21771749.6084
        53.0004         49.0004
 12  1  5  0 36  0.0000000  0 10G04G15G26G27G29G08G10G02G07G05
 -15927796.64448 -12394092.14947  22120107.9434   22120113.4514   22120109.0734
        49.0004         45.0004
 -16427718.48948 -12736362.27548  22287320.4714   22287324.4364   22287320.4514
        52.0004         48.0004
 -21740222.11649 -16624233.32648  21052332.8574   21052337.0694   21052333.1874
        56.0004         51.0004
  -7334177.74847  -5648405.58846  24000235.4684   24000239.4764   24000235.5394
        45.0004         41.0004
  -5414964.49847  -4169216.31946  23787964.4784   23787970.0824   23787964.0414
        44.0004         39.0004
 -15015893.63948 -11528071.13847  22443775.9494   22443781.9934   22443776.8094
        49.0004         44.0004
 -11948198.88247  -9249594.32547  23248678.2424   23248683.1884   23248678.6754
        46.0004         42.0004
 -20344229.96549 -15818381.33448  20544553.8034   20544556.0204   20544553.9054
        56.0004         52.0004
  -3122395.91747  -2396808.22546  24931894.3904   24931899.1424   24931893.1224
        42.0004         38.0004
 -17578769.52848 -13664020.34248  21768500.8094   21768504.2374   21768500.3264
        53.0004         49.0004
 12  1  5  0 36 30.0000000  0 10G04G15G26G27G29G08G10G02G07G05
 -15849454.72148 -12333046.51647  22135016.3864   22135021.7694   22135016.7324
        49.0004         45.0004
 -16476090.54448 -12774054.75048  22278115.3324   22278120.3164   22278115.3384
        52.0004         48.0004
 -21718181.96449 -16607059.16848  21056527.0104   21056531.2494   21056527.2474
        56.0004         51.0004
  -7439457.74247  -5730441.87346  23980200.8954   23980205.8014   23980202.1624
        45.0004         41.0004
  -5446160.03747  -4193524.53246  23782030.2894   23782032.3894   23782030.0534
        43.0004         39.0004
 -14973157.98748 -11494770.62847  22451909.1364   22451913.9944   22451909.3684
        49.0004         44.0004
 -11918664.56647  -9226580.57947  23254298.5024   23254304.0504   23254298.4644
        46.0004         42.0004
 -20316388.72149 -15796686.87848  20549851.9574   20549853.9704   20549852.4564
        56.0004         52.0004
  -3037326.39547  -2330520.36446  24948082.9614   24948087.9394   24948083.7994
        42.0004         38.0004
 -17595834.74249 -13677317.89048  21765253.2574   21765256.8034   21765253.0584
        54.0004         49.0004
 12  1  5  0 37  0.0000000  0 10G04G15G26G27G29G08G10G02G07G05
 -15770737.54548 -12271708.48347  22149996.0424   22150000.8114   22149995.7774
        49.0004         45.0004
 -16524131.21048 -12811489.03448  22268973.4844   22268978.1784   22268973.5174
        52.0004         48.0004
 -21695813.71949 -16589629.36148  21060783.4594   21060787.8404   21060783.3544
        56.0004         51.0004
  -7544752.69647  -5812489.81146  23960164.1644   23960169.4274   23960163.9294
        46.0004         41.0004
  -5476879.71247  -4217461.92746  23776183.5794   23776187.9654   23776183.2554
        44.0004         39.0004
 -14929852.53548 -11461026.10547  22460149.4084   22460155.1024   22460150.8384
        49.0004         44.0004
 -11889063.03447  -9203514.45947  23259931.6984   23259935.8064   23259932.7564
        46.0004         42.0004
 -20288089.43649 -15774635.49848  20555237.0904   20555239.2944   20555237.4694
        56.0004         52.0004
  -2951936.70547  -2263983.01946  24964332.3084   24964336.4844   24964333.7514
        42.0004         38.0004
 -17612890.42649 -13690608.00248  21762008.0634   21762011.4084   21762007.9174
        54.0004         49.0004
 12  1  5  0 37 30.0000000  0 10G04G15G26G27G29G08G10G02G07G05
 -15691646.98448 -12210079.48847  22165045.8794   22165051.7934   22165045.7684
        49.0004         45.0004
 -16571841.13148 -12848665.56748  22259895.0184   22259899.6604   22259894.6084
        52.0004         48.0004
 -21673119.57849 -16571945.60848  21065101.8224   21065106.3214   21065102.0424
        56.0004         51.0004
  -7650060.24847  -5894547.58246  23940123.6134   23940129.1854   23940124.7334
        46.0004         41.0004
  -5507123.90947  -4241028.88246  23770426.8624   23770431.6164   23770427.2224
        44.0004         39.0004
 -14885978.73748 -11426838.71647  22468498.6974   22468503.2284   22468499.1524
        49.0004         44.0004
 -11859393.35347  -9180395.24147  23265577.5624   23265582.6334   23265579.4354
        46.0004         42.0004
 -20259332.54649 -15752227.53148  20560709.2664   20560711.6134   20560709.7634
        56.0004         52.0004
  -2866229.48847  -2197198.24046  24980641.4994   24980645.4894   24980641.8574
        42.0004         38.0004
 -17629936.69949 -13703890.78948  21758763.6914   21758767.1824   21758763.4054
        54.0004         49.0004
 12  1  5  0 38  0.0000000  0 10G04G15G26G27G29G08G10G02G07G05
 -15612184.14048 -12148160.40947  22180167.3134   22180172.9634   22180166.9784
        49.0004         44.0004
 -16619219.64748 -12885583.88048  22250879.2334   22250883.5134   22250878.7524
        52.0004         48.0004
 -21650100.96949 -16554009.02148  21069482.4174   21069486.8034   21069482.5704
        55.0004         51.0004
  -7755377.20847  -5976612.67246  23920082.3574   23920089.0224   23920082.1984
        46.0004         41.0004
  -5536891.38447  -4264224.33446  23764763.9154   23764767.3454   23764763.0464
        44.0004         39.0004
 -14841536.78248 -11392208.61647  22476955.9544   22476960.8164   22476956.2574
        49.0004         44.0004
 -11829653.74447  -9157221.52347  23271236.6064   23271241.4344   23271236.3174
        46.0004         42.0004
 -20230117.35549 -15729462.44848  20566269.0004   20566271.1254   20566269.1914
        56.0004         52.0004
  -2780206.51247  -2130167.42546  24997011.8804   24997016.0144   24997011.0734
        42.0004         38.0004
 -17646972.01648 -13717165.05148  21755522.2824   21755525.7864   21755522.0824
        53.0004         49.0004
 12  1  5  0 38 30.0000000  0 10G04G15G26G27G29G08G10G02G07G05
 -15532349.25148 -12085951.42847  22195359.6374   22195365.2204   22195360.0064
        49.0004         44.0004
 -16666265.84248 -12922243.25148  22241926.6624   22241930.4464   22241926.1614
        52.0004         48.0004
 -21626758.84649 -16535820.35148  21073924.0444   21073928.7574   21073923.9964
        55.0004         51.0004
  -7860700.05147  -6058682.34946  23900040.0414   23900046.1244   23900039.9874
        46.0004         41.0004
  -5566180.98847  -4287047.34946  23759189.5954   23759194.4984   23759189.9064
        44.0004         39.0004
 -14796526.75348 -11357135.86047  22485521.2004   22485525.3854   22485521.8844
        48.0004         44.0004
 -11799841.90447  -9133991.52147  23276909.4434   23276914.3764   23276911.2614
        46.0004         42.0004
 -20200443.08849 -15706339.64148  20571915.6054   20571917.5534   20571916.1984
        56.0004         52.0004
  -2693869.08047  -2062891.57746  25013442.3124   25013446.0544   25013441.8254
        43.0004         38.0004
 -17663994.63148 -13730429.42048  21752282.7034   21752285.9614   21752282.2374
        53.0004         49.0004
 12  1  5  0 39  0.0000000  0 10G04G15G26G27G29G08G10G02G07G05
 -15452146.80948 -12023456.03847  22210622.6964   22210626.8734   22210622.4744
        49.0004         44.0004
 -16712982.52448 -12958645.83348  22233036.2484   22233041.0054   22233036.2704
        52.0004         48.0004
 -21603097.59949 -16517383.00848  21078426.5134   21078431.1034   21078426.2734
        55.0004         51.0004
  -7966028.91447  -6140756.71846  23879997.1574   23880002.0234   23879997.3684
        46.0004         41.0004
  -5594995.56947  -4309500.28946  23753705.5684   23753712.2564   23753706.0884
        44.0004         39.0004
 -14750952.15048 -11321623.17947  22494192.4454   22494197.9594   22494193.2954
        48.0004         44.0004
 -11769959.71047  -9110706.69646  23282595.7414   23282601.3044   23282595.6564
        46.0004         41.0004
 -20170312.73749 -15682861.44948  20577649.2524   20577651.2904   20577649.6184
        56.0004         52.0004
  -2607222.36047  -1995374.69646  25029930.7714   25029933.9964   25029930.4214
        43.0004         38.0004
 -17681006.55748 -13743685.46448  21749045.6874   21749049.0394   21749045.5174
        53.0004         49.0004
 12  1  5  0 39 30.0000000  0 10G04G15G26G27G29G08G10G02G07G05
 -15371574.46848 -11960672.41047  22225953.9044   22225959.9764   22225954.7304
        49.0004         44.0004
 -16759365.72348 -12994788.57148  22224210.3064   22224214.6264   22224209.7804
        52.0004         48.0004
 -21579115.29349 -16498695.48848  21082990.5814   21082994.8744   21082990.9344
        56.0004         51.0004
  -8071356.89847  -6222830.39247  23859953.8704   23859959.0094   23859955.2024
        46.0004         42.0004
  -5623331.14947  -4331579.96846  23748313.9594   23748318.5014   23748314.2784
        44.0004         40.0004
 -14704810.16748 -11285668.37347  22502974.3424   22502978.4774   22502975.5084
        48.0004         44.0004
 -11740001.88747  -9087362.93247  23288296.7164   23288302.4134   23288298.2504
        46.0004         42.0004
 -20139722.31649 -15659024.77648  20583470.2964   20583472.2174   20583470.4624
        56.0004         51.0004
  -2520264.51447  -1927615.39946  25046479.0544   25046482.1284   25046478.8284
        43.0004         38.0004
 -17698002.92348 -13756929.37748  21745810.9374   21745814.5754   21745810.6754
        53.0004         49.0004
 12  1  5  0 40  0.0000000  0 11G09G04G15G26G27G29G08G10G02G07G05
  -1805877.09748  -1348068.94546  24500408.6674   24500416.3664   24500410.6254
        50.0004         38.0004
 -15290639.20148 -11897605.99747  22241355.1614   22241360.8394   22241355.8234
        49.0004         44.0004
 -16805421.23748 -13030675.96148  22215445.4304   22215450.6564   22215445.3014
        52.0004         48.0004
 -21554819.27249 -16479763.51248  21087613.9314   21087618.1864   21087614.0764
        56.0004         51.0004
  -8176686.83647  -6304905.60147  23839910.6134   23839914.9484   23839910.4264
        46.0004         42.0004
  -5651192.55347  -4353290.12946  23743012.5454   23743016.9814   23743011.6794
        44.0004         39.0004
 -14658107.64348 -11249276.78547  22511861.0714   22511866.4414   22511861.8834
        48.0004         44.0004
 -11709972.48747  -9063963.38647  23294010.7544   23294017.4354   23294012.5944
        46.0004         42.0004
 -20108677.44549 -15634833.98348  20589378.1074   20589379.9514   20589378.6854
        56.0004         51.0004
  -2433003.23747  -1859619.67646  25063082.5914   25063088.7594   25063084.5404
        43.0004         38.0004
 -17714988.78048 -13770165.11748  21742579.1834   21742582.4204   21742578.9874
        53.0004         49.0004
 12  1  5  0 40 30.0000000  0 11G09G04G15G26G27G29G08G10G02G07G05
  -1912510.27047  -1431159.81546  24480117.9514   24480125.3054   24480118.5024
        45.0004         38.0004
 -15209338.40648 -11834254.74847  22256826.6174   22256830.7224   22256824.9994
        49.0004         44.0004
 -16851144.67648 -13066304.59848  22206744.7454   22206749.4524   22206744.6524
        52.0004         48.0004
 -21530207.57649 -16460585.56048  21092297.3764   21092301.5774   21092297.3224
        56.0004         51.0004
  -8282011.78447  -6386976.92147  23819868.9464   23819872.5834   23819867.9794
        46.0004         42.0004
  -5678575.38347  -4374627.41146  23737802.3564   23737805.9934   23737802.1864
        44.0004         39.0004
 -14610841.39648 -11212445.94347  22520855.1224   22520861.4684   22520856.1214
        48.0004         44.0004
 -11679865.95947  -9040503.76347  23299740.9394   23299745.9694   23299740.8854
        46.0004         42.0004
 -20077174.08149 -15610285.92648  20595372.7694   20595375.1274   20595372.9304
        56.0004         51.0004
  -2345436.74947  -1791386.12246  25079746.3174   25079750.6184   25079747.1364
        43.0004         38.0004
 -17731959.08249 -13783388.72348  21739349.5014   21739353.0844   21739348.9904
        54.0004         49.0004
 12  1  5  0 41  0.0000000  0 11G09G04G15G26G27G29G08G10G02G07G05
  -2019175.66247  -1514275.77746  24459819.3434   24459826.8824   24459820.4594
        43.0004         38.0004
 -15127675.12048 -11770621.05347  22272366.9374   22272371.8124   22272366.2784
        49.0004         44.0004
 -16896537.36348 -13101675.49548  22198106.6144   22198111.5094   22198106.4594
        52.0004         48.0004
 -21505282.90649 -16441163.73548  21097040.2254   21097044.9284   21097040.4124
        56.0004         51.0004
  -8387330.27847  -6469043.20147  23799825.7774   23799831.0184   23799826.9404
        47.0004         42.0004
  -5705481.15947  -4395592.97146  23732681.8114   23732687.7604   23732682.1744
        45.0004         40.0004
 -14563013.62248 -11175177.54047  22529956.9714   22529962.2254   22529958.4954
        48.0004         44.0004
 -11649682.46947  -9016984.16247  23305483.4674   23305488.7584   23305485.2654
        46.0004         42.0004
 -20045213.68349 -15585381.73548  20601454.7374   20601456.7264   20601455.0024
        56.0004         51.0004
  -2257568.48147  -1722917.40946  25096467.6134   25096472.5314   25096466.8174
        43.0004         39.0004
 -17748914.02049 -13796600.37148  21736123.0474   21736126.5474   21736123.1904
        54.0004         49.0004
 12  1  5  0 41 30.0000000  0 11G09G04G15G26G27G29G08G10G02G07G05
  -2125874.60647  -1597417.87946  24439515.8724   24439523.7324   24439517.1714
        43.0004         38.0004
 -15045655.05148 -11706709.32647  22287974.2864   22287979.9054   22287973.7714
        48.0004         44.0004
 -16941603.67048 -13136792.08748  22189531.5584   22189535.5574   22189531.2314
        52.0004         48.0004
 -21480051.53849 -16421502.91648  21101841.3904   21101846.0294   21101841.4574
        56.0004         51.0004
  -8492643.67247  -6551105.53547  23779785.0014   23779790.3874   23779785.8744
        47.0004         42.0004
  -5731913.66247  -4416189.73846  23727651.2254   23727655.5054   23727650.8164
        44.0004         39.0004
 -14514629.52148 -11137475.63047  22539164.7734   22539169.0994   22539164.4844
        48.0004         44.0004
 -11619425.15347  -8993407.05047  23311242.4524   23311246.2574   23311243.5594
        46.0004         42.0004
 -20012800.25749 -15560124.53748  20607622.8634   20607624.8974   20607623.1964
        56.0004         52.0004
  -2169404.82347  -1654218.52646  25113244.2544   25113249.5244   25113244.0864
        43.0004         38.0004
 -17765856.90148 -13809802.59548  21732899.0874   21732902.5134   21732898.7574
        53.0004         49.0004
 12  1  5  0 42  0.0000000  0 11G09G04G15G26G27G29G08G10G02G07G05
  -2232598.26547  -1680579.25046  24419208.5454   24419214.1614   24419207.6534
        43.0004         38.0004
 -14963273.56148 -11642515.97747  22303651.5904   22303657.4624   22303651.6974
        48.0004         44.0004
 -16986337.63348 -13171649.68047  22181017.9594   22181023.6024   22181018.0764
        52.0004         47.0004
 -21454509.34449 -16401599.89848  21106702.2144   21106706.4224   21106702.5274
        56.0004         51.0004
  -8597943.12147  -6633156.99547  23759748.0284   23759751.5844   23759748.7524
        47.0004         42.0004
  -5757866.88347  -4436413.04246  23722712.3874   23722717.5434   23722713.0654
        44.0004         39.0004
 -14465684.13848 -11099336.38047  22548478.9304   22548483.0564   22548478.6934
        48.0004         44.0004
 -11589086.38947  -8969766.45147  23317015.0454   23317020.6234   23317016.2334
        46.0004         42.0004
 -19979928.21549 -15534509.95948  20613878.1164   20613880.3774   20613878.4334
        56.0004         52.0004
  -2080942.28647  -1585286.73446  25130077.5914   25130083.0584   25130079.1964
        43.0004         38.0004
 -17782780.94749 -13822990.16548  21729678.4674   21729681.6194   21729678.1984
        54.0004         49.0004
 12  1  5  0 42 30.0000000  0 11G09G04G15G26G27G29G08G10G02G07G05
  -2339347.39747  -1763760.46546  24398894.4014   24398900.6624   24398894.5934
        43.0004         39.0004
 -14880535.81148 -11578045.02547  22319395.8914   22319401.8894   22319396.0244
        49.0004         44.0004
 -17030742.99848 -13206251.25148  22172569.1084   22172572.9094   22172568.8204
        52.0004         48.0004
 -21428661.61749 -16381458.80448  21111620.9444   21111625.0684   21111620.7894
        56.0004         51.0004
  -8703229.27947  -6715198.09747  23739712.0204   23739718.1934   23739713.0934
        47.0004         42.0004
  -5783344.04547  -4456265.36346  23717864.4744   23717870.5164   23717864.8804
        44.0004         40.0004
 -14416181.98948 -11060763.26147  22557897.8814   22557903.4234   22557898.8504
        48.0004         44.0004
 -11558668.06547  -8946063.86646  23322803.1404   23322807.6684   23322802.5474
        46.0004         41.0004
 -19946601.03749 -15508540.72948  20620220.0234   20620222.5144   20620220.2314
        56.0004         52.0004
  -1992186.34047  -1516126.32546  25146967.2494   25146973.0514   25146968.2594
        43.0004         38.0004
 -17799688.67049 -13836164.99948  21726460.9814   21726464.6394   21726460.7734
        54.0004         49.0004
 12  1  5  0 43  0.0000000  0 11G09G04G15G26G27G29G08G10G02G07G05
  -2446117.66647  -1846958.13546  24378577.8764   24378582.9794   24378577.3994
        43.0004         39.0004
 -14797442.19848 -11513296.77747  22335208.6174   22335213.2094   22335208.4054
        49.0004         44.0004
 -17074818.10748 -13240595.47348  22164181.2084   22164185.3694   22164180.7804
        52.0004         48.0004
 -21402509.00149 -16361080.13348  21116597.5374   21116601.8694   21116597.6714
        56.0004         51.0004
  -8808498.29247  -6797225.85047  23719679.6954   23719684.5254   23719680.5814
        47.0004         43.0004
  -5808344.06047  -4475745.94046  23713107.7044   23713113.0764   23713106.5524
        44.0004         39.0004
 -14366123.20248 -11021756.40747  22567423.6934   22567428.2554   22567424.5874
        48.0004         44.0004
 -11528168.11047  -8922297.67846  23328607.1294   23328613.6594   23328607.6984
        46.0004         41.0004
 -19912817.87049 -15482216.18848  20626648.9364   20626651.0244   20626649.3074
        56.0004         52.0004
  -1903138.06247  -1446738.13446  25163911.6264   25163917.1854   25163912.7824
        42.0004         38.0004
 -17816578.21849 -13849325.68248  21723247.1984   21723250.6984   21723246.6194
        54.0004         49.0004
 12  1  5  0 43 30.0000000  0 11G09G04G15G26G27G29G08G10G02G07G05
  -2552908.27647  -1930171.64946  24358254.9644   24358260.9174   24358255.6834
        43.0004         38.0004
 -14713996.23548 -11448273.97547  22351087.1634   22351091.6494   22351087.1164
        49.0004         44.0004
 -17118565.41948 -13274684.27048  22155856.5114   22155860.7884   22155856.2044
        52.0004         48.0004
 -21376055.33649 -16340466.88248  21121631.5734   21121635.7994   21121631.8574
        56.0004         51.0004
  -8913749.03247  -6879239.36147  23699652.1144   23699657.4234   23699652.8864
        47.0004         42.0004
  -5832868.39047  -4494855.82046  23708440.3334   23708445.2074   23708440.6634
        44.0004         39.0004
 -14315510.79348 -10982318.16847  22577055.4554   22577060.9054   22577055.1164
        48.0004         44.0004
 -11497587.02447  -8898468.26746  23334425.1264   23334431.0284   23334427.0174
        46.0004         41.0004
 -19878580.56549 -15455537.78648  20633163.8864   20633166.3204   20633164.1744
        56.0004         52.0004
  -1813801.51647  -1377125.31746  25180913.5974   25180917.0864   25180913.4364
        42.0004         38.0004
 -17833450.45749 -13862472.87848  21720036.3254   21720039.5664   21720035.9134
        54.0004         49.0004
 12  1  5  0 44  0.0000000  0 11G09G04G15G26G27G29G08G10G02G07G05
  -2659714.57447  -2013397.36946  24337930.7454   24337936.1354   24337931.6434
        43.0004         38.0004
 -14630197.61748 -11382976.38047  22367033.7964   22367038.9124   22367033.5164
        49.0004         44.0004
 -17161983.09648 -13308516.20748  22147594.1774   22147598.2164   22147593.8854
        52.0004         48.0004
 -21349300.68349 -16319619.09048  21126722.5794   21126726.9024   21126722.3624
        56.0004         51.0004
  -9018977.16147  -6961235.23347  23679627.5434   23679632.9624   23679627.1314
        47.0004         42.0004
  -5856915.55747  -4513593.83946  23703865.0914   23703870.3864   23703863.8964
        44.0004         40.0004
 -14264344.14648 -10942448.04547  22586791.9954   22586796.2074   22586792.1944
        48.0004         44.0004
 -11466921.58747  -8874573.13146  23340261.3234   23340267.2614   23340263.5374
        46.0004         41.0004
 -19843887.77349 -15428504.45548  20639765.9084   20639768.0834   20639766.4514
        56.0004         51.0004
  -1724177.37447  -1307288.38746  25197967.6494   25197973.6824   25197969.0974
        42.0004         38.0004
 -17850302.66849 -13875604.47648  21716829.6504   21716833.0514   21716829.1774
        54.0004         49.0004
 12  1  5  0 44 30.0000000  0 11G09G04G15G26G27G29G08G10G02G07G05
  -2766534.83147  -2096633.96446  24317603.3584   24317608.7924   24317603.6104
        43.0004         38.0004
 -14546049.51548 -11317406.46247  22383046.8534   22383050.5064   22383046.6204
        48.0004         44.0004
 -17205072.55948 -13342092.38548  22139394.6664   22139399.4094   22139394.2164
        52.0004         48.0004
 -21322248.32849 -16298539.33048  21131870.5674   21131875.2834   21131870.4264
        56.0004         51.0004
  -9124180.93147  -7043212.14547  23659607.8794   23659613.3394   23659608.2964
        47.0004         42.0004
  -5880486.58247  -4531960.87846  23699379.7654   23699384.1944   23699380.1114
        44.0004         40.0004
 -14212625.77048 -10902148.00247  22596632.8214   22596638.0814   22596633.8814
        48.0004         44.0004
 -11436171.76847  -8850612.23346  23346113.4134   23346118.5924   23346113.1644
        46.0004         41.0004
 -19808740.92449 -15401117.31848  20646454.2334   20646456.2374   20646454.6694
        56.0004         51.0004
  -1634268.97747  -1237229.95046  25215076.0864   25215081.1884   25215077.8464
        42.0004         37.0004
 -17867135.11549 -13888720.66948  21713626.3444   21713629.4794   21713626.1944
        54.0004         49.0004
 12  1  5  0 45  0.0000000  0 11G09G04G15G26G27G29G08G10G02G07G05
  -2873367.10347  -2179879.92146  24297272.8134   24297278.9684   24297274.0244
        43.0004         38.0004
 -14461554.57348 -11251566.27547  22399126.1534   22399129.9204   22399126.3924
        48.0004         44.0004
 -17247835.25248 -13375413.95348  22131257.3624   22131261.4424   22131257.0284
        53.0004         48.0004
 -21294901.13749 -16277229.83348  21137074.7134   21137078.7904   21137074.6984
        56.0004         51.0004
  -9229358.65447  -7125168.76347  23639593.9324   23639596.9934   23639594.1854
        47.0004         42.0004
  -5903582.59347  -4549957.81546  23694985.3244   23694988.4004   23694983.4704
        45.0004         40.0004
 -14160357.91848 -10861419.79947  22606579.1684   22606585.0474   22606579.3634
        48.0004         44.0004
 -11405337.24647  -8826585.35147  23351981.7384   23351986.9584   23351982.5454
        46.0004         42.0004
 -19773141.09249 -15373377.19948  20653228.4734   20653230.7944   20653229.0514
        56.0004         51.0004
  -1544079.84147  -1166952.76946  25232239.1824   25232244.3054   25232239.0844
        42.0004         37.0004
 -17883948.02949 -13901821.63348  21710427.0274   21710430.5114   21710426.5604
        54.0004         49.0004
 12  1  5  0 45 30.0000000  0 11G09G04G15G26G27G29G08G10G02G07G05
  -2980206.71047  -2263131.56846  24276941.7924   24276948.0824   24276943.5094
        43.0004         38.0004
 -14376712.47848 -11185455.58647  22415269.8724   22415274.4834   22415270.5104
        48.0004         43.0004
 -17290269.01448 -13408479.20248  22123182.3464   22123186.4364   22123181.8754
        53.0004         48.0004
 -21267259.11449 -16255690.58848  21142334.8204   21142338.9944   21142334.8844
        56.0004         51.0004
  -9334505.42947  -7207101.25147  23619582.3064   23619588.6504   23619584.1894
        47.0004         42.0004
  -5926201.58047  -4567583.00146  23690680.1894   23690682.7294   23690680.4614
        45.0004         41.0004
 -14107539.94148 -10820262.92747  22616629.2054   22616635.4474   22616630.9144
        48.0004         44.0004
 -11374414.82447  -8802489.96747  23357865.9734   23357872.4854   23357866.6764
        46.0004         42.0004
 -19737086.80349 -15345282.95748  20660089.3774   20660091.6094   20660089.7724
        56.0004         51.0004
  -1453610.27447  -1096457.05946  25249454.9214   25249457.6764   25249454.0604
        42.0004         37.0004
 -17900738.36249 -13914905.00148  21707232.1844   21707235.3654   21707231.6934
        54.0004         49.0004
 12  1  5  0 46  0.0000000  0 11G09G04G15G26G27G29G08G10G02G07G05
  -3087063.23547  -2346396.38146  24256608.0914   24256613.2804   24256608.0344
        43.0004         38.0004
 -14291537.21748 -11119085.27647  22431478.8514   22431483.6094   22431478.6354
        48.0004         43.0004
 -17332386.51648 -13441298.02248  22115167.5214   22115171.9634   22115167.4424
        53.0004         48.0004
 -21239336.42449 -16233932.64248  21147648.4074   21147652.6594   21147648.3994
        56.0004         51.0004
  -9439630.95547  -7289017.18747  23599578.6404   23599584.4974   23599579.1704
        46.0004         42.0004
  -5948356.05047  -4584846.21246  23686464.4224   23686468.1624   23686463.0904
        45.0004         41.0004
 -14054185.64348 -10778688.15347  22626782.9624   22626788.5844   22626784.2174
        48.0004         43.0004
 -11343415.48347  -8778334.65447  23363765.2454   23363769.8924   23363764.9754
        46.0004         42.0004
 -19700590.56649 -15316844.34448  20667034.3574   20667036.5734   20667034.6504
        56.0004         51.0004
  -1362874.67746  -1025754.04746  25266722.3154   25266725.3724   25266721.6604
        41.0004         37.0004
 -17917517.74149 -13927979.83548  21704038.9234   21704042.3094   21704038.7364
        54.0004         49.0004
 12  1  5  0 46 30.0000000  0 10G09G04G15G26G27G29G08G10G02G05
  -3193910.46547  -2429653.95946  24236274.5704   24236282.2414   24236275.7064
        43.0004         38.0004
 -14206007.52948 -11052438.77847  22447755.0504   22447759.4254   22447753.2024
        48.0004         43.0004
 -17374164.72948 -13473852.47048  22107216.9194   22107221.6094   22107216.7884
        53.0004         48.0004
 -21211112.10549 -16211939.67148  21153019.2784   21153023.5604   21153019.2274
        56.0004         51.0004
  -9544709.24847  -7370896.30947  23579584.2724   23579590.0734   23579583.3474
        46.0004         42.0004
  -5970022.91547  -4601729.52347  23682340.5984   23682346.1174   23682341.1554
        46.0004         42.0004
 -14000273.18148 -10736678.43147  22637043.5364   22637049.5644   22637043.0984
        48.0004         43.0004
 -11312314.92647  -8754100.47047  23369682.9804   23369688.5844   23369684.8784
        46.0004         42.0004
 -19663629.57249 -15288043.57448  20674067.6784   20674070.1624   20674067.9264
        56.0004         51.0004
 -17934261.77249 -13941027.12148  21700852.6944   21700856.0804   21700852.2994
        54.0004         49.0004
 12  1  5  0 47  0.0000000  0 10G09G04G15G26G27G29G08G10G02G05
  -3300758.19247  -2512911.90946  24215942.6484   24215948.7484   24215942.4944
        43.0004         38.0004
 -14120137.19048 -10985526.84047  22464095.0114   22464100.3474   22464094.6474
        48.0004         44.0004
 -17415616.67248 -13506152.67548  22099329.4834   22099333.4154   22099329.3314
        52.0004         48.0004
 -21182600.20749 -16189722.60248  21158444.7154   21158449.0594   21158445.0244
        56.0004         51.0004
  -9649749.88447  -7452746.09547  23559594.0674   23559599.6674   23559594.6014
        46.0004         42.0004
  -5991214.66547  -4618242.57947  23678308.3334   23678311.8644   23678307.9714
        47.0004         43.0004
 -13945815.99748 -10694244.26247  22647405.7054   22647411.0844   22647405.7284
        48.0004         44.0004
 -11281124.25447  -8729796.05947  23375618.3294   23375622.9464   23375618.9174
        46.0004         42.0004
 -19626216.88549 -15258890.82748  20681187.0374   20681189.5684   20681187.2664
        56.0004         51.0004
 -17950982.27949 -13954056.08648  21697671.0044   21697674.3804   21697670.7104
        54.0004         49.0004
 12  1  5  0 47 30.0000000  0 10G09G04G15G26G27G29G08G10G02G05
  -3407607.28047  -2596170.92646  24195610.8644   24195614.5414   24195609.5234
        43.0004         38.0004
 -14033932.38848 -10918354.29747  22480500.1184   22480505.2744   22480499.7594
        48.0004         44.0004
 -17456746.14848 -13538201.59448  22091502.4814   22091507.0714   22091502.0394
        53.0004         48.0004
 -21153806.71849 -16167286.10848  21163924.0694   21163928.2724   21163924.4104
        56.0004         51.0004
  -9754753.95547  -7534567.39247  23539612.2284   23539618.2554   23539613.6374
        46.0004         42.0004
  -6011935.44447  -4634388.62747  23674365.7354   23674369.8284   23674365.4854
        47.0004         43.0004
 -13890819.62148 -10651389.93547  22657871.3374   22657876.0964   22657871.8614
        48.0004         43.0004
 -11249846.04647  -8705423.44547  23381570.5484   23381576.9584   23381571.4584
        46.0004         42.0004
 -19588356.57349 -15229389.29048  20688391.7014   20688394.2314   20688391.9734
        56.0004         51.0004
 -17967682.09449 -13967068.92848  21694492.4114   21694496.3324   21694492.4714
        54.0004         49.0004
 12  1  5  0 48  0.0000000  0 10G09G04G15G26G27G29G08G10G02G05
  -3514447.81747  -2679423.24546  24175277.8954   24175284.0364   24175279.1964
        42.0004         38.0004
 -13947387.75448 -10850916.94447  22496967.5894   22496973.4624   22496968.4074
        49.0004         44.0004
 -17497546.72748 -13569994.25048  22083738.7034   22083742.9564   22083738.4974
        52.0004         48.0004
 -21124727.01349 -16144626.59448  21169457.6634   21169461.8144   21169457.5894
        55.0004         51.0004
  -9859711.71547  -7616352.61647  23519640.3254   23519644.9934   23519640.1654
        46.0004         42.0004
  -6032178.61648  -4650162.55247  23670513.6874   23670518.3004   23670512.6274
        48.0004         44.0004
 -13835278.84648 -10608111.40247  22668439.9184   22668444.6264   22668440.5694
        48.0004         43.0004
 -11218472.30247  -8680976.37646  23387540.2544   23387546.0704   23387540.6444
        46.0004         41.0004
 -19550042.14049 -15199533.89548  20695682.7424   20695685.1334   20695683.2374
        56.0004         51.0004
 -17984353.36149 -13980059.52348  21691320.5164   21691323.7284   21691320.1654
        54.0004         49.0004
 12  1  5  0 48 30.0000000  0 10G09G04G15G26G27G29G08G10G02G05
  -3621279.53347  -2762668.70046  24154948.8254   24154955.1434   24154948.0774
        42.0004         37.0004
 -13860507.47048 -10783218.05247  22513501.4304   22513507.4524   22513502.4424
        48.0004         44.0004
 -17538021.34148 -13601532.88348  22076037.0564   22076040.7614   22076036.6224
        53.0004         48.0004
 -21095365.31049 -16121747.34548  21175045.1374   21175049.2974   21175045.1534
        55.0004         51.0004
  -9964622.75747  -7698101.43547  23499676.5984   23499681.3824   23499676.7744
        46.0004         42.0004
  -6051946.73948  -4665566.28447  23666751.0474   23666756.7004   23666751.8534
        48.0004         44.0004
 -13779197.41748 -10564411.58447  22679113.9754   22679115.4204   22679112.8694
        48.0004         43.0004
 -11187004.00947  -8656455.63946  23393529.3694   23393534.6624   23393530.5744
        46.0004         41.0004
 -19511276.63949 -15169327.01948  20703060.0474   20703062.0244   20703060.0104
        56.0004         51.0004
 -18000997.61249 -13993029.07748  21688153.1524   21688156.6014   21688152.7474
        54.0004         49.0004
 12  1  5  0 49  0.0000000  0 10G09G04G15G26G27G29G08G10G02G05
  -3728103.20747  -2845907.89146  24134619.8934   24134625.9964   24134619.6754
        42.0004         38.0004
 -13773297.23348 -10715262.05047  22530095.9854   22530102.9384   22530097.1294
        48.0004         44.0004
 -17578173.49048 -13632820.27248  22068395.5004   22068399.5904   22068395.3094
        53.0004         48.0004
 -21065727.34049 -16098652.81948  21180684.6594   21180689.1064   21180685.0054
        55.0004         51.0004
 -10069488.03547  -7779814.58147  23479721.2054   23479726.4304   23479721.4244
        46.0004         42.0004
  -6071243.78148  -4680602.93747  23663079.4334   23663083.4654   23663079.4424
        48.0004         44.0004
 -13722580.52048 -10520294.50947  22689887.2774   22689890.8754   22689886.7694
        48.0004         43.0004
 -11155443.54047  -8631863.07246  23399534.9434   23399540.1424   23399535.2724
        46.0004         41.0004
 -19472064.03049 -15138771.74048  20710521.7724   20710523.8354   20710522.0734
        56.0004         51.0004
 -18017617.27849 -14005979.45748  21684990.6134   21684993.9604   21684990.3884
        54.0004         49.0004
 12  1  5  0 49 30.0000000  0 10G09G04G15G26G27G29G08G10G02G05
  -3834911.54547  -2929135.12146  24114296.0014   24114301.5914   24114295.5974
        42.0004         38.0004
 -13685754.32048 -10647046.80247  22546755.9164   22546762.5334   22546755.6464
        48.0004         44.0004
 -17617999.13448 -13663853.22148  22060817.2944   22060821.0114   22060817.1264
        53.0004         48.0004
 -21035810.70849 -16075341.14848  21186377.8694   21186382.1654   21186377.9804
        55.0004         51.0004
 -10174300.29347  -7861486.42047  23459776.2804   23459781.6084   23459775.8204
        47.0004         42.0004
  -6090065.44848  -4695269.18647  23659498.4064   23659502.2774   23659497.3854
        48.0004         44.0004
 -13665425.00648 -10475757.74047  22700762.5114   22700766.2994   22700762.6594
        48.0004         43.0004
 -11123785.39347  -8607194.39146  23405558.9294   23405565.0554   23405559.1634
        46.0004         41.0004
 -19432400.42149 -15107865.02548  20718069.3504   20718071.7514   20718069.7654
        56.0004         51.0004
 -18034207.35649 -14018906.79148  21681833.6344   21681836.7334   21681833.1574
        54.0004         49.0004
 12  1  5  0 50  0.0000000  0 10G09G04G15G26G27G29G08G10G02G05
  -3941703.68847  -3012349.69446  24093972.8314   24093979.3934   24093975.1324
        42.0004         37.0004
 -13597882.41348 -10578575.20647  22563477.1934   22563482.5214   22563477.3674
        48.0004         43.0004
 -17657500.68748 -13694633.64448  22053300.3914   22053304.5544   22053300.2024
        53.0004         48.0004
 -21005619.37849 -16051815.42748  21192123.0964   21192127.4354   21192122.8854
        56.0004         51.0004
 -10279058.94047  -7943116.49347  23439840.9914   23439845.4324   23439841.6354
        47.0004         42.0004
  -6108413.99848  -4709566.76347  23656005.7664   23656011.3304   23656006.1864
        49.0004         45.0004
 -13607734.40748 -10430804.01847  22711740.4054   22711745.1344   22711741.7644
        48.0004         43.0004
 -11092030.29347  -8582450.17546  23411602.0834   23411607.7034   23411603.5374
        46.0004         41.0004
 -19392288.23549 -15076608.77148  20725702.2134   20725704.6594   20725702.4024
        56.0004         51.0004
 -18050768.73449 -14031811.75048  21678682.1264   21678685.3864   21678681.6874
        54.0004         49.0004
 12  1  5  0 50 30.0000000  0 10G09G04G15G26G27G29G08G10G02G05
  -4048476.41047  -3095549.14246  24073654.7404   24073661.0324   24073657.3664
        42.0004         38.0004
 -13509683.22748 -10509848.57647  22580261.3524   22580266.2964   22580260.5334
        48.0004         43.0004
 -17696678.53848 -13725161.81748  22045845.1454   22045849.2934   22045845.0094
        53.0004         48.0004
 -20975154.83049 -16028076.81448  21197920.3204   21197924.5864   21197920.4264
        55.0004         51.0004
 -10383760.56847  -8024702.13147  23419916.6854   23419921.3394   23419916.6124
        47.0004         42.0004
  -6126289.50248  -4723495.72347  23652604.2254   23652608.0194   23652604.5024
        49.0004         44.0004
 -13549510.10748 -10385434.42047  22722820.0604   22722824.0934   22722820.4794
        48.0004         43.0004
 -11060176.61547  -8557629.14447  23417663.5444   23417668.2194   23417665.0974
        46.0004         42.0004
 -19351727.65849 -15045003.13748  20733420.7104   20733423.2914   20733421.2144
        56.0004         51.0004
 -18067300.40249 -14044693.56348  21675535.9924   21675540.1374   21675535.7624
        54.0004         49.0004
 12  1  5  0 51  0.0000000  0 10G09G04G15G26G27G29G08G10G02G05
  -4155227.97547  -3178732.09646  24053342.4864   24053347.0154   24053343.2024
        42.0004         38.0004
 -13421159.62348 -10440869.17647  22597106.9624   22597112.7154   22597106.7094
        48.0004         43.0004
 -17735533.40148 -13755438.33048  22038451.4144   22038455.1574   22038450.9824
        53.0004         48.0004
 -20944420.40549 -16004127.90348  21203768.7904   21203773.2974   21203769.1794
        55.0004         51.0004
 -10488403.54447  -8106242.05847  23400003.6894   23400008.7384   23400003.4044
        47.0004         42.0004
  -6143693.28148  -4737057.10747  23649293.0224   23649296.8034   23649292.7784
        48.0004         43.0004
 -13490755.03248 -10339651.23747  22733999.9254   22734005.1074   22734001.8504
        48.0004         43.0004
 -11028224.01447  -8532731.01746  23423743.4344   23423747.7694   23423744.6944
        46.0004         41.0004
 -19310720.40749 -15013049.44348  20741224.1364   20741226.5724   20741224.3034
        56.0004         51.0004
 -18083802.28149 -14057552.15148  21672396.0224   21672399.3704   21672395.8014
        54.0004         49.0004
 12  1  5  0 51 30.0000000  0 10G09G04G15G26G27G29G08G10G02G05
  -4261954.88347  -3261895.84346  24033031.9334   24033037.2934   24033032.4464
        42.0004         38.0004
 -13332313.03648 -10371638.09247  22614012.8724   22614018.9434   22614013.1394
        48.0004         43.0004
 -17774065.77748 -13785463.53348  22031118.2624   22031122.6584   22031118.6564
        53.0004         48.0004
 -20913417.59849 -15979969.86148  21209668.3504   21209672.8634   21209668.5494
        55.0004         51.0004
 -10592984.66247  -8187733.78847  23380102.0964   23380107.3264   23380102.0834
        47.0004         42.0004
  -6160625.27848  -4750250.84747  23646070.1204   23646074.2124   23646070.7364
        48.0004         44.0004
 -13431470.01148 -10293455.11547  22745281.9354   22745287.0594   22745284.0924
        48.0004         43.0004
 -10996170.88347  -8507754.57746  23429843.2424   23429849.1744   23429843.5624
        46.0004         41.0004
 -19269266.43049 -14980747.65448  20749112.9904   20749115.1674   20749113.2774
        56.0004         51.0004
 -18100272.54649 -14070386.10348  21669261.3534   21669265.6454   21669260.8324
        54.0004         49.0004
 12  1  5  0 52  0.0000000  0 10G09G04G15G26G27G29G08G10G02G05
  -4368655.09947  -3345038.80446  24012727.7784   24012733.6104   24012728.6284
        43.0004         38.0004
 -13243145.98948 -10302157.29647  22630981.5254   22630986.5034   22630980.4304
        48.0004         43.0004
 -17812276.11948 -13815237.80548  22023846.9744   22023851.6814   22023846.7914
        53.0004         48.0004
 -20882148.93449 -15955604.65148  21215618.6134   21215623.2784   21215618.5304
        55.0004         51.0004
 -10697501.44347  -8269175.39247  23360213.7634   23360219.3284   23360214.2524
        47.0004         42.0004
  -6177086.27148  -4763077.57947  23642937.7374   23642944.3204   23642937.9724
        48.0004         43.0004
 -13371657.21247 -10246847.74547  22756664.4204   22756667.5764   22756664.4434
        47.0004         43.0004
 -10964016.27447  -8482699.06546  23435961.6514   23435967.6264   23435964.2214
        46.0004         41.0004
 -19227367.08549 -14948098.82048  20757086.0894   20757088.2944   20757086.6554
        56.0004         51.0004
 -18116710.89749 -14083195.20548  21666133.9934   21666137.1694   21666133.7424
        54.0004         49.0004
 12  1  5  0 52 30.0000000  0 10G09G04G15G26G27G29G08G10G02G05
  -4475324.72547  -3428157.90946  23992429.6994   23992434.7394   23992429.7474
        43.0004         38.0004
 -13153659.70147 -10232427.75047  22648010.0844   22648015.1454   22648009.4074
        47.0004         43.0004
 -17850164.79648 -13844761.42748  22016637.5574   22016641.5344   22016637.4364
        53.0004         48.0004
 -20850615.89949 -15931033.43748  21221618.8834   21221623.5254   21221618.9694
        55.0004         51.0004
 -10801950.50547  -8350564.23747  23340337.9054   23340343.4674   23340338.2264
        47.0004         43.0004
  -6193076.27448  -4775537.32747  23639895.4764   23639899.6214   23639895.4734
        48.0004         42.0004
 -13311317.74547 -10199829.96747  22768146.6524   22768149.6324   22768147.8174
        47.0004         43.0004
 -10931758.58747  -8457563.21246  23442099.6754   23442106.0714   23442102.1454
        46.0004         41.0004
 -19185022.15249 -14915102.78848  20765144.1924   20765146.3784   20765144.3894
        56.0004         51.0004
 -18133115.71349 -14095978.17348  21663011.6524   21663015.6554   21663011.2634
        54.0004         49.0004
 12  1  5  0 53  0.0000000  0 10G09G04G15G26G27G29G08G10G02G05
  -4581960.97547  -3511251.00746  23972138.0734   23972142.9004   23972137.9324
        43.0004         39.0004
 -13063855.86648 -10162450.75247  22665098.4974   22665104.4154   22665098.4594
        48.0004         43.0004
 -17887731.95048 -13874034.51748  22009488.3474   22009493.4474   22009488.0344
        53.0004         48.0004
 -20818820.56649 -15906257.83648  21227669.4234   21227674.2694   21227669.3764
        55.0004         51.0004
 -10906328.88647  -8431898.00047  23320474.8124   23320480.2024   23320475.7024
        47.0004         43.0004
  -6208595.71947  -4787630.38947  23636942.2114   23636945.9724   23636942.6364
        47.0004         42.0004
 -13250453.37048 -10152403.17547  22779729.2204   22779733.6154   22779729.9754
        48.0004         43.0004
 -10899396.33847  -8432345.88947  23448259.7844   23448263.9614   23448257.4574
        46.0004         42.0004
 -19142232.18149 -14881759.97048  20773286.7274   20773288.8444   20773287.0234
        56.0004         51.0004
 -18149485.72649 -14108734.02048  21659896.9834   21659900.4634   21659896.8074
        54.0004         49.0004
 12  1  5  0 53 30.0000000  0 10G09G04G15G26G27G29G08G10G02G05
  -4688560.82247  -3594315.73246  23951852.2944   23951855.8344   23951851.3714
        43.0004         38.0004
 -12973736.47748 -10092227.87047  22682247.8884   22682254.1114   22682247.3414
        48.0004         43.0004
 -17924977.78848 -13903057.24448  22002401.1124   22002405.5774   22002400.7534
        53.0004         48.0004
 -20786764.87349 -15881279.35948  21233769.4004   21233773.9924   21233769.3704
        55.0004         51.0004
 -11010633.63447  -8513174.37847  23300625.2714   23300631.7644   23300626.1834
        47.0004         43.0004
  -6223644.79347  -4799356.92447  23634078.3284   23634083.5174   23634077.8134
        47.0004         42.0004
 -13189065.41948 -10104568.41647  22791410.8694   22791416.4124   22791411.6534
        48.0004         43.0004
 -10866928.20747  -8407046.06646  23454437.0914   23454442.8634   23454438.9764
        46.0004         41.0004
 -19098997.61649 -14848070.71348  20781514.0934   20781516.1024   20781514.3794
        56.0004         51.0004
 -18165820.21149 -14121462.17848  21656788.0804   21656792.1724   21656787.7684
        54.0004         49.0004
 12  1  5  0 54  0.0000000  0 10G09G04G15G26G27G29G08G10G02G05
  -4795123.40747  -3677351.41646  23931573.2054   23931578.0834   23931573.7804
        43.0004         38.0004
 -12883305.45448 -10021762.16447  22699456.4094   22699461.2964   22699457.5974
        48.0004         43.0004
 -17961905.24348 -13931831.88348  21995373.6984   21995378.3864   21995373.6654
        53.0004         48.0004
 -20754452.80049 -15856101.11448  21239918.2664   21239922.8774   21239918.5174
        55.0004         51.0004
 -11114863.95347  -8594392.75547  23280791.8804   23280796.9434   23280792.2604
        47.0004         43.0004
  -6238225.98347  -4810718.92347  23631302.1954   23631307.8404   23631304.0084
        47.0004         42.0004
 -13127157.76648 -10056328.69047  22803191.2904   22803194.9454   22803192.5874
        48.0004         43.0004
 -10834355.04847  -8381664.39147  23460635.7124   23460641.6604   23460637.4224
        46.0004         42.0004
 -19055321.63149 -14814037.49048  20789825.2384   20789827.3994   20789825.7944
        55.0004         51.0004
 -18182120.08349 -14134163.37148  21653686.9454   21653690.1194   21653686.6644
        54.0004         49.0004
 12  1  5  0 54 30.0000000  0 10G09G04G15G26G27G29G08G10G02G05
  -4901644.89047  -3760355.07046  23911303.5264   23911308.8674   23911303.7734
        43.0004         38.0004
 -12792564.01747  -9951054.56447  22716723.4394   22716729.6344   22716722.9204
        47.0004         43.0004
 -17998513.39948 -13960357.70448  21988407.7784   21988412.0424   21988407.6004
        53.0004         48.0004
 -20721885.67849 -15830724.13048  21246115.6784   21246120.0894   21246115.8304
        55.0004         51.0004
 -11219016.42347  -8675550.47147  23260970.9974   23260976.9204   23260971.6554
        47.0004         43.0004
  -6252338.96747  -4821716.10147  23628617.7004   23628622.0814   23628618.4814
        47.0004         42.0004
 -13064731.64448 -10007684.95647  22815071.4834   22815074.2724   22815071.6254
        48.0004         43.0004
 -10801674.81947  -8356199.30247  23466855.1424   23466860.6114   23466855.5654
        46.0004         42.0004
 -19011203.70549 -14779659.89848  20798220.2054   20798222.7654   20798220.4974
        55.0004         51.0004
 -18198383.47349 -14146836.12748  21650592.1944   21650595.4084   21650591.5884
        54.0004         49.0004
 12  1  5  0 55  0.0000000  0 10G09G04G15G26G27G29G08G10G02G05
  -5008120.69847  -3843323.13846  23891039.9394   23891045.6724   23891041.8664
        43.0004         38.0004
 -12701512.53847  -9880105.39247  22734051.9314   22734057.4924   22734051.0654
        47.0004         43.0004
 -18034801.07948 -13988633.80048  21981502.1334   21981506.4674   21981502.1034
        53.0004         48.0004
 -20689063.86749 -15805148.68448  21252361.3894   21252365.9214   21252361.4144
        55.0004         51.0004
 -11323086.52547  -8756643.99847  23241167.3384   23241172.3384   23241167.0124
        47.0004         42.0004
  -6265982.64547  -4832347.52847  23626021.3574   23626025.6724   23626021.5374
        47.0004         43.0004
 -13001786.67248  -9958636.91847  22827047.7804   22827053.0864   22827048.1224
        48.0004         43.0004
 -10768884.66547  -8330648.54047  23473095.5864   23473098.9274   23473097.4884
        46.0004         42.0004
 -18966643.02549 -14744937.30248  20806699.9214   20806702.3114   20806700.1924
        55.0004         51.0004
 -18214607.66049 -14159478.34348  21647504.2084   21647507.7034   21647503.9854
        54.0004         49.0004
 12  1  5  0 55 30.0000000  0 10G09G04G15G26G27G29G08G10G02G05
  -5114549.05147  -3926254.23046  23870788.4834   23870794.9964   23870789.3774
        43.0004         38.0004
 -12610153.79147  -9808916.77947  22751435.6784   22751440.4124   22751435.3544
        47.0004         43.0004
 -18070770.07148 -14016661.57448  21974657.6984   21974661.7084   21974657.5064
        53.0004         48.0004
 -20655990.30649 -15779377.06248  21258654.9254   21258659.4274   21258655.1744
        55.0004         51.0004
 -11427072.50747  -8837671.98647  23221379.0634   23221385.6754   23221379.6894
        47.0004         43.0004
  -6279158.80847  -4842614.66047  23623516.7164   23623518.5834   23623514.8114
        47.0004         43.0004
 -12938325.85048  -9909186.93347  22839125.1154   22839129.6774   22839125.1914
        48.0004         43.0004
 -10735984.28447  -8305011.88546  23479355.0064   23479360.3394   23479355.7984
        46.0004         41.0004
 -18921641.01649 -14709870.80648  20815263.3774   20815266.0244   20815263.6324
        55.0004         51.0004
 -18230792.43149 -14172089.84348  21644424.9544   21644428.2354   21644424.5234
        54.0004         49.0004
 12  1  5  0 56  0.0000000  0 10G09G04G15G26G27G29G08G10G02G05
  -5220928.49747  -4009147.19646  23850544.2334   23850550.2124   23850545.2314
        43.0004         38.0004
 -12518491.07447  -9737491.31647  22768879.2094   22768882.7224   22768879.2754
        47.0004         43.0004
 -18106422.16948 -14044442.40448  21967873.4294   21967877.5814   21967873.2964
        53.0004         48.0004
 -20622668.50049 -15753412.00948  21264996.0934   21265000.1614   21264996.2324
        55.0004         51.0004
 -11530972.68547  -8918633.11747  23201608.8424   23201614.6524   23201609.3004
        47.0004         43.0004
  -6291868.70747  -4852518.49747  23621095.6194   23621100.8274   23621095.4674
        47.0004         43.0004
 -12874352.40248  -9859337.49847  22851298.5654   22851303.8604   22851299.7294
        48.0004         43.0004
 -10702973.77847  -8279289.44346  23485636.1434   23485640.8974   23485637.8524
        46.0004         41.0004
 -18876199.82549 -14674462.10048  20823910.8524   20823913.2824   20823910.9744
        55.0004         51.0004
 -18246938.06049 -14184670.84548  21641352.7054   21641355.3624   21641352.5324
        54.0004         49.0004
 12  1  5  0 56 30.0000000  0 10G09G04G15G26G27G29G08G10G02G05
  -5327255.47347  -4091999.30046  23830311.1634   23830316.5634   23830311.4684
        43.0004         38.0004
 -12426525.97747  -9665830.23547  22786379.3554   22786384.0764   22786379.2694
        47.0004         42.0004
 -18141757.04848 -14071976.07048  21961148.7674   21961153.5724   21961148.4614
        53.0004         48.0004
 -20589099.93949 -15727254.68248  21271384.1744   21271388.5414   21271384.0724
        55.0004         51.0004
 -11634783.95147  -8999524.96647  23181853.6524   23181859.0944   23181853.9744
        47.0004         43.0004
  -6304112.89348  -4862059.43147  23618766.2454   23618771.3514   23618765.9194
        48.0004         43.0004
 -12809867.75847  -9809089.71647  22863569.6764   22863575.4374   22863569.4054
        47.0004         43.0004
 -10669851.35547  -8253479.78646  23491939.7144   23491944.5134   23491940.7214
        45.0004         41.0004
 -18830319.81349 -14638711.44948  20832641.8614   20832644.2094   20832642.2134
        55.0004         51.0004
 -18263043.11549 -14197220.21148  21638287.4634   21638291.3264   21638286.7374
        54.0004         49.0004
 12  1  5  0 57  0.0000000  0 10G09G04G15G26G27G29G08G10G02G05
  -5433526.73047  -4174807.97846  23810088.6644   23810095.7374   23810088.4764
        43.0004         38.0004
 -12334260.35047  -9593934.96847  22803936.5344   22803940.9724   22803937.1004
        47.0004         42.0004
 -18176775.65048 -14099263.27948  21954485.3704   21954489.6944   21954485.3654
        53.0004         48.0004
 -20555286.50749 -15700906.54048  21277818.4674   21277822.4744   21277818.4714
        55.0004         51.0004
 -11738503.15847  -9080345.08347  23162116.1974   23162122.2664   23162117.2984
        47.0004         43.0004
  -6315891.59648  -4871237.61747  23616524.7754   23616529.7864   23616524.8614
        48.0004         43.0004
 -12744873.28447  -9758444.67647  22875937.6734   22875941.6944   22875937.6594
        47.0004         43.0004
 -10636615.70647  -8227581.89046  23498264.8164   23498269.9674   23498264.5294
        45.0004         41.0004
 -18784001.56849 -14602619.31748  20841455.5014   20841457.9384   20841455.6744
        55.0004         51.0004
 -18279106.33449 -14209737.01148  21635230.5224   21635234.4754   21635230.4734
        54.0004         49.0004
 12  1  5  0 57 30.0000000  0 10G09G04G15G26G27G29G08G10G02G05
  -5539740.27247  -4257571.67946  23789877.2274   23789882.4214   23789877.1984
        43.0004         38.0004
 -12241696.71947  -9521807.50547  22821551.6874   22821554.8704   22821550.0834
        47.0004         42.0004
 -18211478.35248 -14126304.32848  21947881.5204   21947885.4294   21947881.3074
        53.0004         48.0004
 -20521231.09649 -15674369.83848  21284298.7544   21284303.2204   21284298.9864
        55.0004         51.0004
 -11842127.81447  -9161091.54347  23142396.2784   23142403.0324   23142396.0004
        47.0004         43.0004
  -6327206.23547  -4880054.19847  23614371.5824   23614375.8794   23614370.6004
        47.0004         42.0004
 -12679371.34147  -9707404.18747  22888401.0224   22888406.7884   22888401.0054
        47.0004         42.0004
 -10603266.16447  -8201595.26246  23504610.1604   23504615.9334   23504610.5384
        45.0004         41.0004
 -18737246.47949 -14566186.78548  20850353.0494   20850355.5034   20850353.4314
        55.0004         51.0004
 -18295127.11849 -14222220.73448  21632182.4384   21632185.6394   21632182.2474
        54.0004         49.0004
 12  1  5  0 58  0.0000000  0 10G09G04G15G26G27G29G08G10G02G05
  -5645891.50947  -4340286.84446  23769677.2904   23769682.9304   23769676.5734
        43.0004         39.0004
 -12148835.46447  -9449448.10747  22839221.0524   22839225.6764   22839221.2734
        47.0004         42.0004
 -18245864.58548 -14153098.78948  21941338.3514   21941342.5674   21941337.7184
        53.0004         48.0004
 -20486933.67649 -15647644.55548  21290825.1244   21290829.4674   21290825.1564
        55.0004         51.0004
 -11945653.55647  -9241760.92047  23122697.2714   23122704.0454   23122697.5984
        47.0004         43.0004
  -6338055.66647  -4888508.29347  23612306.8544   23612311.9174   23612306.7484
        47.0004         43.0004
 -12613362.46147  -9655968.70447  22900962.4834   22900967.4974   22900962.9444
        47.0004         42.0004
 -10569799.63647  -8175517.46346  23510978.5084   23510984.3584   23510980.6034
        45.0004         41.0004
 -18690053.57349 -14529413.08748  20859333.4014   20859335.9064   20859333.7294
        55.0004         51.0004
 -18311102.86149 -14234669.35448  21629142.2054   21629145.8114   21629141.8704
        54.0004         49.0004
 12  1  5  0 58 30.0000000  0 10G09G04G15G26G27G29G08G10G02G05
  -5751979.89247  -4422953.04146  23749489.8194   23749495.1544   23749488.3494
        43.0004         39.0004
 -12055681.54247  -9376860.67647  22856948.0374   22856952.9174   22856948.7304
        47.0004         42.0004
 -18279937.62148 -14179649.19548  21934854.3344   21934858.5514   21934854.0454
        53.0004         48.0004
 -20452399.81249 -15620735.02748  21297396.4214   21297401.2144   21297396.6494
        55.0004         50.0004
 -12049080.52947  -9322353.33047  23103016.6174   23103021.5584   23103016.4824
        47.0004         43.0004
  -6348443.60948  -4896602.79447  23610330.4964   23610334.2624   23610330.0954
        48.0004         43.0004
 -12546851.63947  -9604142.09547  22913619.5314   22913625.6224   22913619.6324
        47.0004         42.0004
 -10536217.76347  -8149349.78246  23517369.0544   23517373.9044   23517369.6334
        45.0004         41.0004
 -18642426.60549 -14492301.16748  20868396.5144   20868398.9884   20868396.4184
        55.0004         51.0004
 -18327035.23149 -14247084.21248  21626109.8774   21626113.7334   21626109.3734
        54.0004         49.0004
 12  1  5  0 59  0.0000000  0 10G09G04G15G26G27G29G08G10G02G05
  -5858001.53647  -4505567.22246  23729314.0434   23729320.1314   23729314.5424
        44.0004         39.0004
 -11962235.85747  -9304045.88647  22874730.5094   22874735.3314   22874730.0284
        47.0004         42.0004
 -18313696.99148 -14205955.18448  21928430.0234   21928434.0364   21928430.2074
        53.0004         49.0004
 -20417630.13349 -15593641.76048  21304013.6554   21304017.4154   21304013.6154
        55.0004         51.0004
 -12152404.52848  -9402865.49947  23083354.7664   23083358.7534   23083355.1324
        48.0004         43.0004
  -6358369.59048  -4904337.33747  23608440.3394   23608446.1244   23608440.7244
        48.0004         43.0004
 -12479839.48047  -9551924.83147  22926372.3364   22926376.7774   22926371.5354
        47.0004         42.0004
 -10502518.28847  -8123090.48246  23523781.3094   23523788.1114   23523782.4594
        45.0004         41.0004
 -18594365.49549 -14454850.95648  20877542.2844   20877544.8204   20877542.6874
        55.0004         51.0004
 -18342921.98049 -14259463.52448  21623087.3104   21623090.7234   21623087.0674
        54.0004         49.0004
 12  1  5  0 59 30.0000000  0 10G09G04G15G26G27G29G08G10G02G05
  -5963951.18847  -4588125.29646  23709152.6744   23709157.8994   23709153.0914
        44.0004         39.0004
 -11868497.93747  -9231003.37347  22892567.9724   22892573.1834   22892568.7644
        47.0004         42.0004
 -18347140.93248 -14232015.38548  21922066.0404   21922069.5644   21922066.0204
        53.0004         49.0004
 -20382624.18449 -15566364.38148  21310675.0504   21310679.1224   21310675.2384
        55.0004         51.0004
 -12255620.27047  -9483293.31147  23063712.5834   23063719.1594   23063712.3724
        47.0004         43.0004
  -6367831.75548  -4911710.46547  23606639.5794   23606644.9604   23606640.6584
        48.0004         43.0004
 -12412325.42947  -9499316.48447  22939219.3514   22939224.5114   22939219.1834
        47.0004         42.0004
 -10468697.58947  -8096736.70846  23530219.0444   23530223.9094   23530219.7044
        45.0004         41.0004
 -18545868.23149 -14417060.87748  20886770.4344   20886773.6464   20886770.4094
        55.0004         50.0004
 -18358759.64149 -14271804.56648  21620073.6874   21620076.3954   21620073.0994
        54.0004         49.0004
 12  1  5  1  0  0.0000000  0 10G09G04G15G26G27G29G08G10G02G05
  -6069830.00147  -4670628.17846  23689004.4444   23689009.6654   23689004.8824
        44.0004         40.0004
 -11774474.09347  -9157738.06747  22910461.0244   22910464.7724   22910460.3884
        47.0004         42.0004
 -18380273.89748 -14257833.26648  21915761.4764   21915765.3054   21915760.8414
        53.0004         49.0004
 -20347388.44849 -15538907.95248  21317379.7844   21317384.2534   21317379.8674
        55.0004         51.0004
 -12358729.07647  -9563637.80747  23044089.9034   23044097.9614   23044090.6964
        47.0004         43.0004
  -6376835.15748  -4918726.11147  23604926.7704   23604931.6984   23604927.5894
        48.0004         43.0004
 -12344315.63847  -9446321.84947  22952161.3234   22952165.5854   22952161.3474
        47.0004         43.0004
 -10434758.86347  -8070290.95946  23536676.6664   23536682.1754   23536678.0044
        45.0004         41.0004
 -18496940.26449 -14378935.20048  20896081.2824   20896083.9274   20896081.5494
        55.0004         50.0004
 -18374551.12349 -14284109.61048  21617067.9774   21617072.2174   21617067.3014
        54.0004         49.0004
 12  1  5  1  0 30.0000000  0 10G09G04G15G26G27G29G08G10G02G05
  -6175632.80947  -4753071.83246  23668870.2094   23668876.9074   23668870.1614
        44.0004         40.0004
 -11680164.53647  -9084250.12347  22928407.9874   22928411.1734   22928407.1064
        47.0004         42.0004
 -18413095.06548 -14283408.18048  21909515.4444   21909519.5364   21909515.2754
        53.0004         49.0004
 -20311922.76649 -15511272.33848  21324128.8014   21324133.0984   21324128.8244
        55.0004         51.0004
 -12461726.04747  -9643895.14947  23024490.9594   23024497.5334   23024491.0964
        47.0004         43.0004
  -6385378.42848  -4925383.21747  23603302.6274   23603306.1344   23603301.6484
        48.0004         43.0004
 -12275810.00947  -9392940.84547  22965196.6134   22965201.6014   22965198.4524
        47.0004         43.0004
 -10400698.41947  -8043750.37646  23543158.0224   23543163.9934   23543159.4254
        45.0004         41.0004
 -18447580.30849 -14340472.90348  20905474.1104   20905476.6624   20905474.5964
        55.0004         50.0004
 -18390292.90149 -14296375.93348  21614072.5704   21614076.2754   21614072.2134
        54.0004         49.0004
 12  1  5  1  1  0.0000000  0 10G09G04G15G26G27G29G08G10G02G05
  -6281356.54847  -4835453.87146  23648751.6064   23648757.9834   23648751.8574
        44.0004         40.0004
 -11585570.83147  -9010540.76847  22946409.0034   22946413.1594   22946408.7164
        47.0004         42.0004
 -18445603.98648 -14308739.79448  21903328.7174   21903333.3684   21903328.3274
        53.0004         48.0004
 -20276229.15449 -15483459.11848  21330921.4534   21330925.3894   21330921.2524
        55.0004         51.0004
 -12564608.13047  -9724062.97447  23004914.6884   23004919.1724   23004914.8424
        47.0004         43.0004
  -6393461.87348  -4931682.01147  23601764.1654   23601768.8204   23601763.2354
        48.0004         43.0004
 -12206810.59647  -9339175.06847  22978327.7424   22978332.3554   22978328.3294
        47.0004         43.0004
 -10366514.87047  -8017113.85946  23549663.2364   23549667.8194   23549663.7464
        45.0004         41.0004
 -18397788.97749 -14301674.47848  20914949.3204   20914951.6204   20914949.5334
        55.0004         50.0004
 -18405983.76549 -14308602.56448  21611086.8834   21611090.7684   21611086.7074
        54.0004         50.0004
 12  1  5  1  1 30.0000000  0 10G09G04G15G26G27G29G08G10G02G05
  -6387000.78447  -4917773.94946  23628648.5954   23628654.1324   23628648.5454
        45.0004         40.0004
 -11490697.58947  -8936613.60547  22964462.6214   22964466.6824   22964462.2414
        47.0004         42.0004
 -18477804.23348 -14333830.87348  21897201.5644   21897205.6414   21897201.1814
        53.0004         48.0004
 -20240311.69949 -15455471.47148  21337756.0044   21337760.2514   21337755.9974
        55.0004         51.0004
 -12667374.86748  -9804140.89847  22985358.4444   22985362.6674   22985359.0344
        48.0004         43.0004
  -6401088.87348  -4937625.09747  23600312.2664   23600316.3804   23600311.7604
        48.0004         43.0004
 -12137321.23447  -9285027.52847  22991550.9124   22991554.9444   22991550.6464
        47.0004         43.0004
 -10332209.37847  -7990382.31946  23556190.6024   23556196.2814   23556190.2534
        45.0004         40.0004
 -18347569.48749 -14262542.42448  20924506.1934   20924508.0264   20924506.4974
        55.0004         50.0004
 -18421625.16649 -14320790.65348  21608110.2004   21608114.2124   21608110.2124
        54.0004         50.0004
 12  1  5  1  2  0.0000000  0 10G09G04G15G26G27G29G08G10G02G05
  -6492559.32047  -5000027.23446  23608560.9854   23608567.2224   23608562.4584
        45.0004         40.0004
 -11395543.62547  -8862467.70147  22982569.4834   22982574.1304   22982570.2524
        47.0004         42.0004
 -18509692.72548 -14358679.02748  21891133.1044   21891137.3644   21891132.8134
        53.0004         49.0004
 -20204169.62049 -15427308.79648  21344633.4294   21344637.9114   21344633.5874
        55.0004         51.0004
 -12770020.36748  -9884124.36647  22965826.2894   22965831.0204   22965826.0104
        48.0004         43.0004
  -6408257.16148  -4943210.76347  23598946.8744   23598952.5894   23598947.4564
        48.0004         43.0004
 -12067341.07147  -9230497.53947  23004867.8124   23004872.5344   23004868.8754
        47.0004         42.0004
 -10297777.46947  -7963552.29146  23562743.0154   23562748.5194   23562744.8404
        45.0004         40.0004
 -18296919.91649 -14223075.23948  20934144.7124   20934146.5704   20934144.8774
        55.0004         50.0004
 -18437212.72049 -14332936.78848  21605143.8614   21605147.6204   21605143.2924
        54.0004         49.0004
 12  1  5  1  2 30.0000000  0 10G09G04G15G26G27G29G08G10G02G05
  -6598031.24847  -5082213.02946  23588490.2924   23588495.8574   23588490.6934
        45.0004         40.0004
 -11300113.14347  -8788106.31847  23000728.3284   23000733.8024   23000728.5684
        47.0004         42.0004
 -18541272.78948 -14383286.85848  21885123.8424   21885128.0004   21885123.5384
        53.0004         49.0004
 -20167807.29249 -15398974.50948  21351552.9494   21351557.1734   21351553.1404
        55.0004         51.0004
 -12872543.89948  -9964012.82247  22946315.4034   22946322.0694   22946315.1014
        48.0004         44.0004
  -6414969.74348  -4948441.34047  23597670.1434   23597674.5844   23597670.8084
        48.0004         43.0004
 -11996874.57947  -9175588.59547  23018276.2094   23018282.1414   23018277.3884
        47.0004         42.0004
 -10263220.41447  -7936624.72846  23569319.6604   23569324.8944   23569321.1414
        45.0004         40.0004
 -18245843.03649 -14183275.08548  20943864.0144   20943866.0504   20943864.6454
        55.0004         50.0004
 -18452747.46849 -14345041.79248  21602188.0464   21602191.7424   21602187.7974
        54.0004         50.0004
 12  1  5  1  3  0.0000000  0 10G09G04G15G26G27G29G08G10G02G05
  -6703413.93647  -5164329.30046  23568437.2254   23568442.5314   23568437.0994
        45.0004         41.0004
 -11204408.93647  -8713531.64147  23018941.3984   23018946.4264   23018941.1954
        47.0004         42.0004
 -18572545.63648 -14407655.30448  21879172.7734   21879176.5934   21879172.6634
        53.0004         49.0004
 -20131226.79949 -15370470.22748  21358514.2274   21358518.2814   21358514.1254
        55.0004         50.0004
 -12974942.74348 -10043804.10147  22926830.3484   22926835.6744   22926830.9334
        48.0004         44.0004
  -6421227.90548  -4953317.83047  23596479.8424   23596484.3484   23596479.3764
        48.0004         43.0004
 -11925924.15547  -9120302.57247  23031777.9624   23031782.0014   23031778.3124
        47.0004         42.0004
 -10228536.98747  -7909598.72046  23575919.2484   23575924.6144   23575920.5904
        45.0004         40.0004
 -18194340.51149 -14143143.26348  20953664.8544   20953666.5244   20953664.8254
        55.0004         50.0004
 -18468228.37949 -14357104.84148  21599242.2514   21599245.2714   21599241.9184
        54.0004         49.0004
 12  1  5  1  3 30.0000000  0 10G09G04G15G26G27G29G08G10G02G05
  -6808702.94847  -5246372.57046  23548402.3144   23548406.6844   23548401.6824
        45.0004         41.0004
 -11108431.23647  -8638743.85047  23037204.7194   23037209.9994   23037204.4284
        47.0004         42.0004
 -18603509.61648 -14431783.06248  21873280.3464   21873284.7194   21873279.9844
        53.0004         49.0004
 -20094428.77949 -15341796.43148  21365516.6494   21365521.0414   21365516.7124
        55.0004         51.0004
 -13077212.44548 -10123494.73947  22907369.5984   22907374.8804   22907369.1604
        48.0004         44.0004
  -6427030.63848  -4957839.46847  23595376.7654   23595379.7934   23595375.5684
        48.0004         43.0004
 -11854490.12347  -9064639.70347  23045371.2454   23045376.7394   23045372.7044
        47.0004         42.0004
 -10193724.40747  -7882472.06546  23582543.6814   23582548.9674   23582544.6804
        45.0004         40.0004
 -18142411.62349 -14102679.21148  20963546.3954   20963548.6304   20963546.5664
        55.0004         50.0004
 -18483652.79749 -14369123.86948  21596306.6874   21596310.6194   21596306.4224
        54.0004         49.0004
 12  1  5  1  4  0.0000000  0 10G09G04G15G26G27G29G08G10G02G05
  -6913896.88147  -5328341.75946  23528382.7854   23528389.1334   23528384.0364
        45.0004         40.0004
 -11012183.88747  -8563745.94347  23055520.0414   23055526.1144   23055520.3574
        46.0004         42.0004
 -18634167.77648 -14455672.51648  21867446.5954   21867450.6124   21867446.3574
        53.0004         49.0004
 -20057417.17749 -15312956.21148  21372559.7704   21372563.5894   21372559.6574
        55.0004         50.0004
 -13179351.86348 -10203083.86347  22887933.7914   22887937.9424   22887933.2274
        48.0004         44.0004
  -6432380.70148  -4962008.36247  23594356.8364   23594361.5994   23594357.2444
        48.0004         43.0004
 -11782576.29947  -9008602.96747  23059056.2974   23059060.5904   23059057.1224
        47.0004         42.0004
 -10158783.09547  -7855245.09046  23589194.1764   23589198.3484   23589193.7794
        45.0004         40.0004
 -18090058.99049 -14061884.95748  20973508.6704   20973511.1054   20973508.5704
        55.0004         50.0004
 -18499021.00949 -14381099.09648  21593382.2674   21593385.5694   21593382.1104
        54.0004         49.0004
 12  1  5  1  4 30.0000000  0 10G09G04G15G26G27G29G08G10G02G05
  -7018992.69947  -5410234.49746  23508384.4084   23508389.0914   23508384.8374
        45.0004         41.0004
 -10915668.86747  -8488539.47647  23073886.1664   23073892.1064   23073887.0524
        46.0004         42.0004
 -18664519.86748 -14479323.47948  21861670.2474   21861674.6144   21861670.4304
        53.0004         49.0004
 -20020193.53549 -15283950.76048  21379642.9954   21379647.1254   21379642.9554
        55.0004         50.0004
 -13281357.90248 -10282569.05747  22868520.2654   22868526.0054   22868521.2724
        48.0004         44.0004
  -6437278.93247  -4965825.16547  23593424.6704   23593429.1964   23593425.0734
        47.0004         43.0004
 -11710184.76547  -8952194.00547  23072832.2454   23072836.9084   23072831.7864
        47.0004         42.0004
 -10123711.70047  -7827916.76446  23595867.2744   23595872.7334   23595867.8924
        45.0004         40.0004
 -18037283.29849 -14020761.04748  20983551.4624   20983553.8614   20983551.7064
        55.0004         50.0004
 -18514331.62849 -14393029.44448  21590469.0484   21590472.4804   21590468.7414
        54.0004         49.0004
 12  1  5  1  5  0.0000000  0 10G09G04G15G26G27G29G08G10G02G05
  -7123987.88647  -5492048.83546  23488404.5244   23488408.6224   23488404.6824
        45.0004         40.0004
 -10818888.68647  -8413126.37247  23092302.4524   23092308.5654   23092303.1754
        46.0004         42.0004
 -18694567.41948 -14502737.13948  21855952.9944   21855956.7674   21855952.3694
        53.0004         49.0004
 -19982760.49849 -15254782.14948  21386766.2194   21386770.4084   21386766.6204
        55.0004         50.0004
 -13383228.12148 -10361948.42147  22849135.3944   22849141.1064   22849135.7784
        48.0004         44.0004
  -6441726.40548  -4969290.73647  23592578.2594   23592584.4544   23592578.8854
        48.0004         43.0004
 -11637318.05647  -8895414.76647  23086698.1804   23086702.9824   23086699.3174
        47.0004         42.0004
 -10088509.41347  -7800486.44546  23602566.0304   23602571.2734   23602567.0754
        45.0004         40.0004
 -17984086.17649 -13979308.75248  20993674.3344   20993677.1234   20993674.2484
        55.0004         50.0004
 -18529583.98049 -14404914.39548  21587566.0454   21587569.7114   21587565.9694
        54.0004         49.0004
 12  1  5  1  5 30.0000000  0 10G09G04G15G26G27G29G08G10G02G05
  -7228877.22347  -5573780.68646  23468445.1774   23468449.7394   23468445.9954
        45.0004         40.0004
 -10721843.51847  -8337506.79946  23110770.6664   23110774.6904   23110770.4004
        46.0004         41.0004
 -18724309.44248 -14525912.72148  21850293.2994   21850297.2234   21850292.9844
        53.0004         49.0004
 -19945118.25949 -15225450.52448  21393929.0864   21393933.8424   21393929.2974
        55.0004         50.0004
 -13484957.60448 -10441218.11647  22829778.1554   22829782.8654   22829778.2854
        48.0004         44.0004
  -6445722.38848  -4972404.47647  23591818.9584   23591823.4264   23591818.6974
        48.0004         43.0004
 -11563976.40147  -8838265.44347  23100655.6294   23100660.3874   23100655.0844
        47.0004         42.0004
 -10053173.18747  -7772951.74246  23609289.2344   23609296.0584   23609291.6654
        45.0004         40.0004
 -17930466.58549 -13937527.26348  21003878.1614   21003880.6784   21003878.7504
        55.0004         50.0004
 -18544774.69949 -14416751.31148  21584675.8714   21584679.0914   21584675.2154
        54.0004         49.0004
 12  1  5  1  6  0.0000000  0 10G09G04G15G26G27G29G08G10G02G05
  -7333660.04447  -5655429.53646  23448505.3884   23448509.9114   23448505.7244
        45.0004         40.0004
 -10624538.07647  -8261684.39546  23129286.9294   23129291.3664   23129286.2784
        46.0004         41.0004
 -18753749.39248 -14548852.93148  21844690.3544   21844694.9884   21844690.0054
        53.0004         49.0004
 -19907271.18749 -15195959.29848  21401131.2064   21401135.6744   21401131.4274
        55.0004         50.0004
 -13586546.19548 -10520378.02647  22810446.2504   22810450.5494   22810446.6094
        49.0004         44.0004
  -6449270.30648  -4975169.07447  23591143.7184   23591147.5414   23591143.3024
        48.0004         43.0004
 -11490164.19147  -8780749.45047  23114701.4094   23114706.0214   23114701.7584
        47.0004         43.0004
 -10017704.28247  -7745313.64946  23616039.2934   23616045.5564   23616041.5054
        45.0004         40.0004
 -17876428.16849 -13895419.40448  21014160.9394   21014163.5944   21014161.0174
        55.0004         50.0004
 -18559905.23249 -14428541.35048  21581796.7144   21581800.1004   21581796.4344
        54.0004         50.0004
 12  1  5  1  6 30.0000000  0 10G09G04G15G26G27G29G08G10G02G05
  -7438332.46047  -5736992.37746  23428585.9494   23428591.0214   23428586.3184
        45.0004         41.0004
 -10526973.25847  -8185659.92146  23147852.1424   23147858.4734   23147852.5474
        46.0004         41.0004
 -18782885.78948 -14571556.62048  21839145.8724   21839150.4094   21839145.7034
        53.0004         49.0004
 -19869220.28749 -15166309.23748  21408371.7434   21408376.6314   21408371.9784
        55.0004         50.0004
 -13687989.52248 -10599424.74447  22791142.4374   22791146.4164   22791143.3564
        49.0004         44.0004
  -6452369.90048  -4977584.32047  23590554.0124   23590558.3134   23590553.7034
        48.0004         43.0004
 -11415882.59247  -8722867.70247  23128836.3684   23128840.7384   23128836.9154
        47.0004         42.0004
  -9982100.19547  -7717570.22146  23622814.6014   23622820.6334   23622815.5634
        45.0004         40.0004
 -17821970.88349 -13852985.17448  21024523.9234   21024526.4714   21024524.7754
        55.0004         50.0004
 -18574972.85149 -14440282.33448  21578929.3894   21578932.5754   21578928.7014
        54.0004         50.0004
 12  1  5  1  7  0.0000000  0 10G09G04G15G26G27G29G08G10G02G05
  -7542891.61747  -5818466.95746  23408688.4774   23408693.8364   23408689.7214
        45.0004         40.0004
 -10429151.40647  -8109435.12846  23166467.1914   23166472.5844   23166466.3594
        46.0004         41.0004
 -18811719.99948 -14594024.81048  21833659.2554   21833663.1234   21833658.8154
        53.0004         49.0004
 -19830967.69249 -15136502.00848  21415651.4294   21415655.9824   21415651.4594
        55.0004         50.0004
 -13789284.91348 -10678356.18347  22771866.4674   22771870.6904   22771866.5384
        49.0004         44.0004
  -6455022.25248  -4979651.08047  23590048.5264   23590054.3624   23590048.7184
        48.0004         43.0004
 -11341134.05747  -8664622.10447  23143060.1724   23143065.9204   23143061.3854
        47.0004         42.0004
  -9946359.82547  -7689720.62046  23629615.6094   23629622.0814   23629617.5644
        45.0004         41.0004
 -17767095.81049 -13810225.39248  21034966.5924   21034969.0634   21034966.8284
        55.0004         50.0004
 -18589976.68749 -14451973.63748  21576074.2484   21576077.7764   21576074.0324
        54.0004         50.0004
 12  1  5  1  7 30.0000000  0 10G09G04G15G26G27G29G08G10G02G05
  -7647334.75247  -5899851.10746  23388814.5354   23388819.9484   23388815.5374
        45.0004         41.0004
 -10331075.04747  -8033012.01747  23185130.9244   23185137.2794   23185130.1944
        46.0004         42.0004
 -18840253.18848 -14616258.45148  21828229.5324   21828233.4004   21828228.9384
        53.0004         49.0004
 -19792515.79749 -15106539.49248  21422968.3804   21422973.0504   21422968.5574
        55.0004         50.0004
 -13890429.90248 -10757170.43647  22752618.2864   22752622.4924   22752618.9464
        49.0004         44.0004
  -6457228.69748  -4981370.40947  23589629.0504   23589633.4994   23589628.7494
        48.0004         43.0004
 -11265921.26747  -8606014.75047  23157372.9714   23157376.0764   23157373.5064
        47.0004         42.0004
  -9910482.37847  -7661764.18646  23636443.6464   23636449.2034   23636444.9964
        45.0004         41.0004
 -17711804.46849 -13767141.24048  21045488.3594   21045490.3634   21045488.7674
        55.0004         50.0004
 -18604915.74349 -14463614.47048  21573231.2794   21573234.6264   21573231.0264
        54.0004         50.0004
 12  1  5  1  8  0.0000000  0 10G09G04G15G26G27G29G08G10G02G05
  -7751661.18947  -5981144.32846  23368962.0934   23368967.2144   23368962.4834
        45.0004         41.0004
 -10232748.75847  -7956394.15146  23203841.3814   23203847.0304   23203841.2634
        46.0004         41.0004
 -18868488.44648 -14638259.94648  21822856.3914   21822860.7634   21822856.3284
        53.0004         49.0004
 -19753869.28649 -15076425.31848  21430323.0154   21430326.8764   21430323.3544
        55.0004         50.0004
 -13991424.14648 -10835867.22047  22733399.5514   22733405.5314   22733399.7644
        49.0004         44.0004
  -6458992.65248  -4982744.92047  23589293.1944   23589298.3844   23589293.1424
        48.0004         43.0004
 -11190248.56147  -8547049.02447  23171772.5594   23171777.9074   23171774.5704
        47.0004         42.0004
  -9874469.05447  -7633701.88746  23643296.9434   23643302.3754   23643298.8254
        45.0004         41.0004
 -17656100.60249 -13723735.63748  21056088.4054   21056090.6204   21056088.4324
        55.0004         50.0004
 -18619790.98549 -14475205.57048  21570400.7254   21570404.0944   21570400.6514
        54.0004         50.0004
 12  1  5  1  8 30.0000000  0 10G09G04G15G26G27G29G08G10G02G05
  -7855864.30347  -6062341.45846  23349132.5144   23349138.0974   23349132.6724
        45.0004         41.0004
 -10134171.04047  -7879580.39046  23222600.3924   23222606.1814   23222600.6464
        46.0004         41.0004
 -18896422.82449 -14660026.97448  21817541.1784   21817544.6844   21817540.8504
        54.0004         49.0004
 -19715026.48049 -15046158.18848  21437714.2034   21437718.4254   21437714.2024
        55.0004         50.0004
 -14092260.79748 -10914441.20547  22714211.0754   22714215.6144   22714212.0574
        49.0004         44.0004
  -6460311.78648  -4983772.83247  23589043.0384   23589047.0664   23589041.6824
        48.0004         43.0004
 -11114114.69247  -8487723.94847  23186260.4244   23186265.5864   23186263.1694
        47.0004         42.0004
  -9838314.70347  -7605529.68746  23650176.9144   23650182.5724   23650176.8894
        45.0004         40.0004
 -17599981.50949 -13680006.48548  21066767.4414   21066769.7594   21066767.3564
        55.0004         50.0004
 -18634597.57649 -14486743.17648  21567582.8604   21567586.4114   21567582.6214
        54.0004         50.0004
 12  1  5  1  9  0.0000000  0 10G09G04G15G26G27G29G08G10G02G05
  -7959941.46947  -6143440.45746  23329326.9474   23329332.5174   23329326.8624
        45.0004         41.0004
 -10035344.33747  -7802572.59846  23241405.1924   23241410.1794   23241405.9634
        46.0004         41.0004
 -18924057.63648 -14681560.57348  21812282.2574   21812285.9694   21812282.0454
        53.0004         49.0004
 -19675989.31749 -15015739.59848  21445142.8994   21445146.8784   21445142.7574
        55.0004         50.0004
 -14192937.22548 -10992890.34447  22695052.4144   22695058.0214   22695052.8014
        49.0004         44.0004
  -6461187.57148  -4984455.25447  23588875.6994   23588880.7844   23588875.9814
        48.0004         43.0004
 -11037522.06947  -8428041.41047  23200836.7834   23200841.6014   23200837.7204
        47.0004         42.0004
  -9802018.68847  -7577247.10146  23657083.6834   23657088.1794   23657083.9684
        45.0004         40.0004
 -17543448.64049 -13635954.90848  21077525.2194   21077527.5814   21077526.0544
        55.0004         50.0004
 -18649334.31749 -14498226.35148  21564778.8044   21564782.0424   21564778.4484
        54.0004         50.0004
 12  1  5  1  9 30.0000000  0 10G09G04G15G26G27G29G08G10G02G05
  -8063894.00247  -6224442.35846  23309544.5014   23309550.5724   23309544.7964
        45.0004         41.0004
  -9936275.08147  -7725375.82246  23260258.8614   23260264.9034   23260258.3614
        46.0004         41.0004
 -18951397.88648 -14702864.65448  21807079.0774   21807083.7094   21807078.8814
        53.0004         49.0004
 -19636764.54949 -14985174.82848  21452606.8804   21452611.0934   21452606.7534
        55.0004         50.0004
 -14293454.88248 -11071215.74947  22675923.9774   22675929.6444   22675924.9994
        49.0004         44.0004
  -6461625.22648  -4984796.27147  23588793.2274   23588797.0264   23588792.3694
        48.0004         44.0004
 -10960477.21447  -8368006.48847  23215497.5464   23215502.0344   23215497.9674
        46.0004         42.0004
  -9765584.02447  -7548856.48746  23664016.2634   23664020.8084   23664016.9624
        45.0004         40.0004
 -17486507.55549 -13591585.23748  21088360.8544   21088363.0634   21088360.9424
        55.0004         50.0004
 -18664004.36049 -14509657.55148  21561987.1294   21561990.6824   21561987.0054
        54.0004         50.0004
 12  1  5  1 10  0.0000000  0 10G09G04G15G26G27G29G08G10G02G05
  -8167714.34247  -6305341.24046  23289788.1794   23289794.1374   23289789.3644
        46.0004         41.0004
  -9836960.74847  -7647988.05446  23279156.4984   23279164.0774   23279157.2874
        45.0004         41.0004
 -18978439.21449 -14723935.81748  21801933.7014   21801938.1504   21801933.2114
        54.0004         49.0004
 -19597349.52249 -14954461.80648  21460107.5464   21460111.5814   21460107.5764
        55.0004         50.0004
 -14393806.07148 -11149411.47147  22656829.2114   22656833.4924   22656829.3414
        49.0004         44.0004
  -6461621.15248  -4984793.09947  23588793.4904   23588796.9764   23588793.3844
        48.0004         44.0004
 -10882977.62147  -8307617.21447  23230245.3034   23230248.5284   23230246.0124
        46.0004         42.0004
  -9729004.97047  -7520353.33146  23670976.6244   23670982.6604   23670977.4544
        45.0004         40.0004
 -17429154.61449 -13546894.64148  21099274.4364   21099276.9584   21099274.5944
        55.0004         50.0004
 -18678601.62549 -14521032.02248  21559209.1884   21559212.6684   21559208.8194
        54.0004         50.0004
 12  1  5  1 10 30.0000000  0 10G09G04G15G26G27G29G08G10G02G05
  -8271402.98347  -6386137.50946  23270058.2534   23270062.2224   23270057.7624
        46.0004         41.0004
  -9737407.36547  -7570414.01746  23298100.3874   23298107.7454   23298102.4724
        46.0004         41.0004
 -19005186.22049 -14744777.61748  21796843.8504   21796848.3894   21796843.5344
        54.0004         49.0004
 -19557750.04849 -14923605.06448  21467642.7144   21467647.0324   21467642.6044
        55.0004         50.0004
 -14493991.80348 -11227478.24247  22637764.4254   22637769.8464   22637763.9204
        49.0004         45.0004
  -6461180.54448  -4984449.76747  23588877.0134   23588881.7454   23588877.1504
        48.0004         44.0004
 -10805029.48947  -8246878.43547  23245076.8664   23245081.1154   23245078.1774
        46.0004         42.0004
  -9692284.07547  -7491739.67746  23677964.1664   23677970.1674   23677964.7424
        45.0004         40.0004
 -17371394.93049 -13501887.09548  21110265.6574   21110268.2814   21110265.7804
        54.0004         50.0004
 -18693128.61549 -14532351.75248  21556444.8544   21556448.6274   21556444.4964
        54.0004         50.0004
 12  1  5  1 11  0.0000000  0 10G09G04G15G26G27G29G08G10G02G05
  -8374954.95047  -6466827.27846  23250352.4404   23250357.8004   23250352.5964
        46.0004         41.0004
  -9637615.38347  -7492654.05846  23317090.7714   23317098.7014   23317090.3484
        46.0004         41.0004
 -19031638.33748 -14765389.64348  21791809.9404   21791814.0854   21791809.5294
        53.0004         49.0004
 -19517966.15949 -14892604.62648  21475213.5354   21475218.1844   21475213.6424
        55.0004         50.0004
 -14594007.28148 -11305412.34547  22618731.0304   22618737.0904   22618733.3184
        49.0004         45.0004
  -6460302.25848  -4983765.38147  23589045.0834   23589048.3854   23589043.9114
        48.0004         44.0004
 -10726633.31647  -8185790.53247  23259996.6214   23260000.6414   23259997.0664
        46.0004         42.0004
  -9655418.20747  -7463013.04346  23684980.2534   23684985.8904   23684981.8234
        45.0004         40.0004
 -17313227.63549 -13456561.93948  21121334.7714   21121337.2764   21121335.2244
        54.0004         50.0004
 -18707581.92849 -14543614.06048  21553694.4184   21553697.8214   21553694.1264
        54.0004         50.0004
 12  1  5  1 11 30.0000000  0 10G09G04G15G26G27G29G08G10G02G05
  -8478366.26347  -6547407.44746  23230674.4694   23230678.5164   23230674.4444
        46.0004         41.0004
  -9537585.59847  -7414708.80946  23336126.5484   23336133.0394   23336124.9804
        45.0004         41.0004
 -19057795.32148 -14785771.69348  21786832.6564   21786836.9854   21786832.2234
        53.0004         49.0004
 -19477998.82249 -14861461.23548  21482818.4024   21482823.3464   21482818.6464
        55.0004         50.0004
 -14693848.42048 -11383210.61547  22599732.1754   22599737.2494   22599732.1204
        49.0004         45.0004
  -6458986.47348  -4982740.09547  23589294.4684   23589298.7634   23589293.9704
        48.0004         44.0004
 -10647790.65047  -8124354.70347  23274999.7324   23275003.3304   23275000.8384
        46.0004         42.0004
  -9618404.95447  -7434171.56246  23692022.9624   23692029.6634   23692023.4854
        45.0004         40.0004
 -17254652.49449 -13410918.97948  21132481.1284   21132483.7374   21132481.3974
        54.0004         50.0004
 -18721959.17249 -14554817.10348  21550958.8474   21550962.3914   21550958.4544
        54.0004         50.0004
 12  1  5  1 12  0.0000000  0 10G09G04G15G26G27G29G08G10G02G05
  -8581636.92147  -6627878.02146  23211023.0574   23211027.7634   23211022.6484
        46.0004         41.0004
  -9437323.61547  -7336582.63346  23355205.1644   23355212.3094   23355205.7344
        45.0004         41.0004
 -19083661.00849 -14805926.75148  21781910.8594   21781914.1844   21781910.8654
        54.0004         49.0004
 -19437853.18649 -14830178.91048  21490458.7854   21490462.7624   21490458.8834
        54.0004         50.0004
 -14793515.30248 -11460873.09847  22580766.4384   22580771.9334   22580765.9574
        49.0004         45.0004
  -6457237.47648  -4981377.21247  23589627.1494   23589631.1254   23589627.5614
        48.0004         43.0004
 -10568506.32447  -8062574.72947  23290086.0344   23290091.7614   23290087.6794
        46.0004         42.0004
  -9581245.84647  -7405216.44546  23699094.9144   23699099.8664   23699096.4614
        45.0004         40.0004
 -17195674.19949 -13364961.87748  21143704.5314   21143707.1994   21143705.2644
        54.0004         50.0004
 -18736262.16449 -14565962.28948  21548236.7474   21548240.4114   21548236.6354
        54.0004         50.0004
 12  1  5  1 12 30.0000000  0 10G09G04G15G26G27G29G08G10G02G05
  -8684760.81947  -6708234.23247  23191398.6464   23191402.9344   23191399.4854
        46.0004         42.0004
  -9336828.41647  -7258274.70946  23374329.0344   23374336.2004   23374327.8094
        45.0004         41.0004
 -19109232.46248 -14825852.53348  21777043.9624   21777048.5904   21777043.7154
        53.0004         49.0004
 -19397528.12249 -14798756.77248  21498132.3274   21498136.3734   21498132.2554
        55.0004         50.0004
 -14893002.06248 -11538395.22247  22561835.7294   22561839.3914   22561836.4134
        49.0004         45.0004
  -6455053.59148  -4979675.48947  23590042.8504   23590046.9854   23590042.9194
        48.0004         43.0004
 -10488780.18547  -8000450.49447  23305257.4794   23305262.4064   23305258.2184
        46.0004         42.0004
  -9543936.94247  -7376144.59746  23706195.4574   23706199.7824   23706195.3164
        45.0004         40.0004
 -17136291.35049 -13318689.53748  21155004.8294   21155007.1664   21155004.8264
        54.0004         50.0004
 -18750486.44849 -14577046.13648  21545530.4604   21545533.2444   21545529.9914
        54.0004         50.0004
 12  1  5  1 13  0.0000000  0 10G09G04G15G26G27G29G08G10G02G05
  -8787740.37947  -6788477.97746  23171801.8474   23171805.9844   23171801.9094
        46.0004         41.0004
  -9236107.92247  -7179791.25746  23393495.2634   23393502.6834   23393495.7964
        45.0004         41.0004
 -19134516.54448 -14845554.40348  21772232.9984   21772236.7934   21772232.8954
        53.0004         49.0004
 -19357031.19349 -14767200.70648  21505838.8944   21505842.8504   21505838.6344
        55.0004         50.0004
 -14992311.24948 -11615778.98147  22542937.6614   22542942.3794   22542937.5634
        50.0004         45.0004
  -6452441.53448  -4977640.12347  23590539.3594   23590543.6934   23590539.9234
        48.0004         43.0004
 -10408619.69647  -7937987.79547  23320511.9004   23320516.6714   23320512.3114
        46.0004         42.0004
  -9506482.86247  -7346959.63546  23713321.8584   23713326.9314   23713322.5834
        45.0004         40.0004
 -17076510.34549 -13272106.93948  21166380.8924   21166382.8074   21166381.0504
        54.0004         50.0004
 -18764636.27349 -14588071.95448  21542837.4924   21542841.2864   21542837.0334
        54.0004         50.0004
 12  1  5  1 13 30.0000000  0 10G09G04G15G26G27G29G08G10G02G05
  -8890568.52647  -6868603.72347  23152233.7174   23152239.3344   23152235.3064
        46.0004         42.0004
  -9135159.90547  -7101130.49446  23412704.9654   23412712.5714   23412704.3094
        45.0004         40.0004
 -19159509.89748 -14865029.72648  21767476.9924   21767480.8444   21767476.8434
        53.0004         49.0004
 -19316360.57949 -14735509.31648  21513577.9794   21513581.9994   21513577.6574
        55.0004         50.0004
 -15091435.70448 -11693018.78847  22524074.1634   22524080.2304   22524074.3944
        50.0004         45.0004
  -6449398.34948  -4975268.79447  23591118.4564   23591124.3834   23591118.3774
        48.0004         43.0004
 -10328023.29647  -7875185.42647  23335849.0034   23335854.8114   23335849.9514
        46.0004         42.0004
  -9468878.28047  -7317657.38046  23720477.8054   23720482.7344   23720479.3524
        45.0004         40.0004
 -17016328.44849 -13225211.96648  21177832.7764   21177835.1924   21177832.9214
        54.0004         50.0004
 -18778706.04649 -14599035.38648  21540160.2344   21540163.0854   21540160.0674
        54.0004         50.0004
 12  1  5  1 14  0.0000000  0 10G09G04G15G26G27G29G08G10G02G05
  -8993239.73247  -6948607.20047  23132696.5124   23132701.1944   23132696.4304
        46.0004         42.0004
  -9033984.27147  -7022292.38146  23431958.6594   23431964.7904   23431958.0884
        45.0004         40.0004
 -19184210.86849 -14884277.22948  21762776.6154   21762780.4474   21762776.0984
        54.0004         49.0004
 -19275515.50749 -14703681.98848  21521350.5414   21521354.7024   21521350.6084
        55.0004         50.0004
 -15190369.99948 -11770110.42747  22505248.1404   22505252.9634   22505248.9414
        50.0004         45.0004
  -6445922.99047  -4972560.70647  23591779.8044   23591785.5204   23591779.4084
        47.0004         42.0004
 -10246990.89047  -7812043.32047  23351268.8634   23351273.8834   23351268.6714
        46.0004         42.0004
  -9431118.97847  -7288234.57546  23727663.5324   23727667.3084   23727663.6484
        44.0004         40.0004
 -16955744.37849 -13178003.61148  21189361.5724   21189364.2504   21189362.0754
        54.0004         50.0004
 -18792691.31149 -14609933.00548  21537498.6994   21537501.8504   21537498.4284
        54.0004         50.0004
 12  1  5  1 14 30.0000000  0 10G09G04G15G26G27G29G08G10G02G05
  -9095757.27047  -7028490.92447  23113188.1904   23113193.9544   23113188.9434
        46.0004         42.0004
  -8932589.56947  -6943283.56546  23451252.5224   23451259.1984   23451252.0104
        45.0004         40.0004
 -19208626.59649 -14903302.46248  21758130.2634   21758134.2674   21758129.7834
        54.0004         49.0004
 -19234504.26949 -14671725.17948  21529154.4654   21529158.9274   21529154.5334
        55.0004         50.0004
 -15289117.63548 -11847056.61847  22486456.7674   22486462.4664   22486456.6034
        50.0004         46.0004
  -6442023.04747  -4969521.76047  23592522.2424   23592526.6894   23592521.7384
        47.0004         43.0004
 -10165530.99547  -7748568.10446  23366770.4274   23366774.4554   23366770.0354
        46.0004         41.0004
  -9393210.23047  -7258695.30746  23734876.2634   23734882.9884   23734878.5724
        44.0004         40.0004
 -16894765.85649 -13130487.89248  21200965.1304   21200967.9824   21200965.3354
        54.0004         50.0004
 -18806597.52649 -14620769.01748  21534852.3684   21534855.8824   21534852.1124
        54.0004         50.0004
 12  1  5  1 15  0.0000000  0 10G09G04G15G26G27G29G08G10G02G05
  -9198114.26247  -7108249.55347  23093710.0824   23093713.1564   23093710.4194
        46.0004         42.0004
  -8830974.43047  -6864102.97946  23470589.4294   23470595.7074   23470590.1594
        44.0004         40.0004
 -19232754.36449 -14922103.30648  21753538.8874   21753542.9014   21753538.8144
        54.0004         49.0004
 -19193325.29749 -14639637.65648  21536990.8954   21536995.3294   21536990.9394
        55.0004         50.0004
 -15387672.10348 -11923852.27247  22467702.6364   22467707.6104   22467702.8584
        50.0004         45.0004
  -6437695.97248  -4966150.02147  23593346.5594   23593349.6034   23593346.1464
        48.0004         44.0004
 -10083642.60947  -7684758.99046  23382352.4994   23382358.4654   23382353.5884
        46.0004         41.0004
  -9355147.24447  -7229035.85446  23742120.9014   23742127.0044   23742119.7524
        45.0004         40.0004
 -16833390.31149 -13082662.80048  21212644.9594   21212646.9664   21212645.1544
        54.0004         50.0004
 -18820419.86149 -14631539.67348  21532222.2614   21532225.9144   21532222.0594
        54.0004         50.0004
 12  1  5  1 15 30.0000000  0 10G09G04G15G26G27G29G08G10G02G05
  -9300309.92247  -7187882.44947  23074263.4164   23074268.1514   23074263.1254
        47.0004         42.0004
  -8729143.13147  -6784753.96646  23489967.7764   23489973.4024   23489968.3714
        44.0004         40.0004
 -19256597.54549 -14940682.40148  21749002.0234   21749005.6544   21749001.7684
        54.0004         49.0004
 -19151982.81249 -14607422.72248  21544858.2044   21544862.0954   21544858.1554
        55.0004         50.0004
 -15486032.58848 -12000496.77747  22448984.8584   22448991.0644   22448985.4024
        50.0004         45.0004
  -6432945.28348  -4962448.19347  23594249.7294   23594254.2344   23594249.5004
        48.0004         43.0004
 -10001330.14847  -7620619.44446  23398017.2714   23398022.2504   23398017.5834
        46.0004         41.0004
  -9316931.06647  -7199257.04046  23749392.8884   23749397.8594   23749394.4604
        45.0004         40.0004
 -16771621.61949 -13034531.35748  21224398.8274   21224401.6444   21224399.2584
        54.0004         50.0004
 -18834158.68449 -14642245.25148  21529607.8724   21529611.2344   21529607.7014
        54.0004         50.0004
 12  1  5  1 16  0.0000000  0 10G09G04G15G26G27G29G08G10G02G05
  -9402339.20447  -7267385.71347  23054846.3614   23054851.3934   23054847.3154
        47.0004         42.0004
  -8627095.90347  -6705236.66446  23509387.7164   23509391.1084   23509387.2424
        44.0004         39.0004
 -19280154.39849 -14959038.38548  21744519.2594   21744523.1654   21744519.0084
        54.0004         49.0004
 -19110476.62249 -14575080.23748  21552756.0264   21552760.6154   21552756.1914
        55.0004         50.0004
 -15584193.87148 -12076986.08347  22430305.3214   22430311.3504   22430305.0164
        50.0004         45.0004
  -6427770.09547  -4958415.57347  23595233.4434   23595238.7174   23595234.6304
        47.0004         42.0004
  -9918593.90347  -7556149.66946  23413761.6104   23413765.9104   23413762.0534
        46.0004         41.0004
  -9278558.40747  -7169356.27846  23756695.0944   23756700.5284   23756695.3794
        45.0004         40.0004
 -16709458.51449 -12986092.57748  21236228.2314   21236230.6114   21236228.5094
        54.0004         50.0004
 -18847810.23649 -14652882.82348  21527010.0304   21527013.6894   21527009.6524
        54.0004         50.0004
 12  1  5  1 16 30.0000000  0 10G09G04G15G26G27G29G08G10G02G05
  -9504200.63247  -7346758.18847  23035462.6544   23035467.0754   23035463.8134
        47.0004         42.0004
  -8524836.31947  -6625553.91346  23528846.2224   23528851.3644   23528846.2124
        44.0004         40.0004
 -19303427.76749 -14977173.45948  21740090.6374   21740094.2744   21740090.2074
        54.0004         49.0004
 -19068810.27249 -14542612.93448  21560685.0494   21560689.2344   21560685.1474
        54.0004         50.0004
 -15682154.67848 -12153319.14547  22411662.9714   22411669.6134   22411663.8244
        50.0004         45.0004
  -6422173.61447  -4954054.66047  23596299.8524   23596304.1424   23596299.3884
        47.0004         43.0004
  -9835437.82947  -7491352.75646  23429584.6764   23429590.0564   23429585.3294
        46.0004         41.0004
  -9240029.44847  -7139333.74846  23764027.6094   23764032.2404   23764028.6384
        45.0004         40.0004
 -16646903.85149 -12937348.69448  21248132.3984   21248134.5594   21248132.5124
        54.0004         50.0004
 -18861374.75349 -14663452.57448  21524428.7554   21524432.1004   21524428.2264
        54.0004         50.0004
 12  1  5  1 17  0.0000000  0 10G09G04G15G26G27G29G08G10G02G05
  -9605891.07447  -7425997.42547  23016112.6344   23016116.6634   23016112.1314
        47.0004         42.0004
  -8422367.01347  -6545707.73246  23548345.7864   23548350.2604   23548346.4604
        44.0004         40.0004
 -19326418.20249 -14995088.07248  21735715.1064   21735719.3104   21735714.9874
        54.0004         49.0004
 -19026985.69349 -14510022.34048  21568644.0594   21568648.3694   21568643.9024
        54.0004         50.0004
 -15779912.34748 -12229493.93447  22393061.9454   22393067.5924   22393062.5174
        50.0004         46.0004
  -6416156.92648  -4949366.32547  23597444.6224   23597449.5504   23597444.6024
        48.0004         44.0004
  -9751864.47947  -7426230.70046  23445488.5834   23445493.6254   23445489.0174
        46.0004         41.0004
  -9201343.33747  -7109188.75046  23771388.7464   23771394.3564   23771390.7154
        45.0004         41.0004
 -16583959.64249 -12888301.26348  21260110.1854   21260112.4954   21260110.1124
        54.0004         50.0004
 -18874851.18149 -14673953.68548  21521864.3694   21521867.7844   21521863.9684
        54.0004         50.0004
 12  1  5  1 17 30.0000000  0 11G09G04G15G26G27G29G08G10G28G02G05
  -9707408.15247  -7505101.59147  22996794.2954   22996799.5034   22996793.7294
        47.0004         42.0004
  -8319690.90247  -6465700.42046  23567884.3294   23567889.6554   23567885.3144
        44.0004         40.0004
 -19349127.15549 -15012783.35048  21731393.8314   21731398.0934   21731393.5244
        54.0004         49.0004
 -18985005.93249 -14477310.82848  21576632.4754   21576636.8074   21576632.5734
        54.0004         50.0004
 -15877464.54048 -12305508.60747  22374498.0744   22374504.1374   22374497.6004
        50.0004         46.0004
  -6409722.39348  -4944352.41547  23598669.3904   23598673.3524   23598669.5504
        48.0004         44.0004
  -9667877.32347  -7360786.18946  23461471.4384   23461476.0574   23461471.3234
        45.0004         41.0004
  -9162499.55047  -7078920.87846  23778781.1284   23778786.0774   23778781.3714
        45.0004         40.0004
  -1230578.78046   -946159.46145  25208443.3794   25208448.2454   25208443.9964
        39.0004         34.0004
 -16520627.86349 -12838951.83548  21272161.9844   21272163.8854   21272162.4344
        54.0004         50.0004
 -18888238.55849 -14684385.40148  21519316.9264   21519320.1564   21519316.3224
        54.0004         50.0004
 12  1  5  1 18  0.0000000  0 11G09G04G15G26G27G29G08G10G28G02G05
  -9808746.64647  -7584066.57847  22977508.8774   22977514.4104   22977509.9214
        47.0004         42.0004
  -8216807.67847  -6385531.72946  23587462.0514   23587469.0014   23587461.4054
        44.0004         40.0004
 -19371553.44649 -15030258.38548  21727126.2944   21727130.3114   21727125.8854
        54.0004         49.0004
 -18942870.43549 -14444477.96048  21584650.4854   21584654.9624   21584650.5604
        54.0004         50.0004
 -15974805.91348 -12381359.00547  22355975.0634   22355979.9854   22355975.5044
        50.0004         46.0004
  -6402869.10248  -4939012.18747  23599974.0274   23599978.4234   23599973.4104
        48.0004         43.0004
  -9583476.30247  -7295019.18846  23477531.8424   23477536.8104   23477532.6504
        45.0004         41.0004
  -9123494.58247  -7048527.42846  23786203.5234   23786207.9254   23786203.3744
        45.0004         40.0004
  -1276790.66446   -982168.71945  25199649.0644   25199653.2044   25199649.4864
        40.0004         35.0004
 -16456907.24649 -12789299.41548  21284287.3354   21284289.6794   21284287.5594
        54.0004         50.0004
 -18901533.06649 -14694744.75948  21516786.7474   21516790.3154   21516786.2624
        54.0004         50.0004
 12  1  5  1 18 30.0000000  0 11G09G04G15G26G27G29G08G10G28G02G05
  -9909906.39047  -7662892.26947  22958259.3314   22958265.1724   22958259.4094
        47.0004         42.0004
  -8113722.71247  -6305205.84746  23607079.3914   23607083.7374   23607079.7294
        44.0004         40.0004
 -19393701.38249 -15047516.51348  21722911.6514   21722915.4554   21722911.4444
        54.0004         49.0004
 -18900584.38849 -14411527.78048  21592697.6574   21592701.5184   21592697.4404
        54.0004         50.0004
 -16071936.55748 -12457045.19647  22337491.4054   22337495.9354   22337492.6504
        50.0004         46.0004
  -6395601.65847  -4933349.23747  23601356.3204   23601360.1804   23601356.0164
        47.0004         43.0004
  -9498666.91047  -7228933.97746  23493669.4774   23493675.0774   23493670.6214
        45.0004         41.0004
  -9084330.28547  -7018009.80546  23793654.5174   23793660.8724   23793655.3034
        45.0004         40.0004
  -1322899.97546  -1018098.09746  25190874.4944   25190881.3124   25190875.7474
        40.0004         36.0004
 -16392802.49449 -12739347.66848  21296486.1354   21296487.8954   21296486.4224
        54.0004         50.0004
 -18914736.35849 -14705033.03748  21514274.1554   21514277.7354   21514273.7554
        54.0004         50.0004
 12  1  5  1 19  0.0000000  0 11G09G04G15G26G27G29G08G10G28G02G05
 -10010882.14847  -7741574.61347  22939044.0634   22939048.4014   22939044.5554
        47.0004         42.0004
  -8010436.00347  -6224722.76246  23626735.0204   23626738.0464   23626734.6834
        44.0004         40.0004
 -19415569.11649 -15064556.29348  21718750.7634   21718754.4094   21718750.3084
        54.0004         49.0004
 -18858147.06949 -14378459.71848  21600772.2894   21600776.9574   21600772.3224
        54.0004         50.0004
 -16168851.04348 -12532562.95547  22319048.9794   22319054.5644   22319048.9954
        50.0004         46.0004
  -6387918.95847  -4927362.71747  23602817.9284   23602823.4294   23602817.6334
        47.0004         43.0004
  -9413449.24847  -7162530.65046  23509887.8594   23509891.9614   23509887.0024
        45.0004         41.0004
  -9045002.94747  -6987365.15346  23801138.4694   23801145.0304   23801139.2464
        44.0004         40.0004
  -1368901.39346  -1053943.36946  25182122.6794   25182125.4764   25182123.9624
        41.0004         37.0004
 -16328312.59649 -12689095.81448  21308757.5844   21308760.3394   21308757.7154
        54.0004         49.0004
 -18927844.16249 -14715246.91348  21511780.1924   21511783.6224   21511780.0494
        54.0004         50.0004
 12  1  5  1 19 30.0000000  0 11G09G04G15G26G27G29G08G10G28G02G05
 -10111674.60547  -7820114.12047  22919864.1134   22919868.6764   22919863.5734
        47.0004         42.0004
  -7906953.35947  -6144086.99846  23646427.6664   23646430.5504   23646428.4014
        44.0004         40.0004
 -19437161.25549 -15081381.31848  21714641.7524   21714645.1794   21714641.5714
        54.0004         49.0004
 -18815564.28049 -14345278.31748  21608876.0994   21608880.2754   21608876.5794
        54.0004         50.0004
 -16265550.22248 -12607912.94047  22300647.5774   22300653.1404   22300648.3064
        51.0004         46.0004
  -6379826.17548  -4921056.64047  23604357.2784   23604363.3464   23604357.8844
        48.0004         43.0004
  -9327829.49747  -7095813.97546  23526179.8464   23526184.1654   23526180.6714
        45.0004         41.0004
  -9005515.18947  -6956595.48446  23808652.2994   23808658.0004   23808653.9544
        44.0004         40.0004
  -1414795.41046  -1089704.98646  25173390.2654   25173395.5264   25173389.7414
        41.0004         37.0004
 -16263442.68249 -12638547.84148  21321101.9674   21321104.8974   21321102.2444
        54.0004         49.0004
 -18940858.96149 -14725388.31548  21509303.5164   21509306.9574   21509303.3414
        54.0004         50.0004
 12  1  5  1 20  0.0000000  0 11G09G04G15G26G27G29G08G10G28G02G05
 -10212277.51547  -7898505.92047  22900719.6244   22900725.3504   22900720.2084
        47.0004         43.0004
  -7803274.02047  -6063297.97146  23666156.4654   23666161.5564   23666156.8204
        44.0004         40.0004
 -19458476.04449 -15097990.23248  21710585.7274   21710589.6114   21710585.4074
        54.0004         49.0004
 -18772834.97049 -14311982.73248  21617007.0574   21617011.5924   21617006.9164
        54.0004         49.0004
 -16362028.26048 -12683090.60447  22282288.4734   22282293.5294   22282289.1014
        51.0004         46.0004
  -6371321.69848  -4914429.75347  23605975.4804   23605980.6254   23605975.6504
        48.0004         43.0004
  -9241807.26447  -7028783.68746  23542549.3694   23542553.1304   23542550.1604
        45.0004         40.0004
  -8965862.95447  -6925697.66546  23816198.2094   23816204.6324   23816199.2804
        44.0004         40.0004
  -1460575.86546  -1125378.05846  25164678.5574   25164681.7164   25164680.1204
        41.0004         37.0004
 -16198191.20049 -12587702.54348  21333519.2544   21333521.7934   21333519.3924
        54.0004         49.0004
 -18953776.27549 -14735453.76848  21506845.3794   21506848.7414   21506844.8394
        54.0004         50.0004
 12  1  5  1 20 30.0000000  0 11G09G04G15G26G27G29G08G10G28G02G05
 -10312687.45947  -7976747.36347  22881613.7614   22881618.6324   22881612.2964
        47.0004         43.0004
  -7699399.77547  -5982357.05146  23685923.4124   23685928.1674   23685923.3524
        44.0004         40.0004
 -19479513.48049 -15114383.03048  21706582.2764   21706586.0844   21706581.9914
        54.0004         49.0004
 -18729960.46049 -14278574.00748  21625165.8254   21625170.2614   21625165.9744
        54.0004         49.0004
 -16458281.76148 -12758093.31147  22263972.1344   22263977.0304   22263972.1814
        51.0004         46.0004
  -6362406.40148  -4907482.78347  23607673.1484   23607677.4954   23607672.9274
        48.0004         43.0004
  -9155384.46747  -6961441.28346  23558994.3514   23558999.5904   23558996.1964
        45.0004         41.0004
  -8926044.39247  -6894670.22546  23823774.9434   23823780.7704   23823776.2934
        44.0004         40.0004
  -1506239.28546  -1160959.97346  25155987.3534   25155993.8424   25155986.1684
        41.0004         36.0004
 -16132558.78049 -12536560.40448  21346008.3604   21346011.2454   21346009.0604
        54.0004         49.0004
 -18966593.91649 -14745441.54748  21504406.2794   21504409.9224   21504405.6774
        54.0004         50.0004
 12  1  5  1 21  0.0000000  0 11G09G04G15G26G27G29G08G10G28G02G05
 -10412906.31548  -8054839.90747  22862541.7204   22862547.1954   22862542.1374
        48.0004         43.0004
  -7595338.01347  -5901270.01246  23705725.3244   23705731.2504   23705725.1024
        44.0004         40.0004
 -19500279.57149 -15130564.37848  21702630.1094   21702634.6744   21702629.8744
        54.0004         49.0004
 -18686947.87449 -14245057.69948  21633350.8104   21633355.1974   21633350.9474
        54.0004         50.0004
 -16554312.77048 -12832922.65247  22245697.5284   22245702.0394   22245697.8244
        51.0004         46.0004
  -6353086.82548  -4900220.82047  23609446.6314   23609450.8464   23609446.7924
        48.0004         43.0004
  -9068568.69647  -6893792.65446  23575515.1294   23575520.5054   23575516.3254
        45.0004         41.0004
  -8886063.59347  -6863516.39446  23831383.3654   23831389.4384   23831384.0334
        44.0004         40.0004
  -1551787.87046  -1196452.39545  25147317.0994   25147326.3524   25147322.0384
        40.0004         35.0004
 -16066552.38949 -12485126.87048  21358569.0914   21358572.0814   21358569.2314
        54.0004         49.0004
 -18979315.46349 -14755354.44548  21501985.4184   21501988.7594   21501985.1224
        54.0004         50.0004
 12  1  5  1 21 30.0000000  0 11G09G04G15G26G27G29G08G10G28G02G05
 -10512926.80248  -8132777.88147  22843508.2054   22843514.3534   22843508.4744
        48.0004         44.0004
  -7491086.74647  -5820035.31746  23725564.2684   23725569.8794   23725563.8494
        44.0004         39.0004
 -19520771.51949 -15146532.11148  21698730.7404   21698735.1824   21698730.2514
        54.0004         49.0004
 -18643795.04749 -14211432.10848  21641562.5304   21641566.8524   21641562.6734
        54.0004         50.0004
 -16650114.26948 -12907573.14347  22227468.1154   22227472.2214   22227468.6224
        51.0004         46.0004
  -6343360.52748  -4892641.88747  23611298.1724   23611301.6714   23611297.2034
        48.0004         43.0004
  -8981358.36347  -6825836.58746  23592110.5164   23592116.3944   23592112.3794
        45.0004         41.0004
  -8845915.24047  -6832231.97346  23839023.9714   23839028.5694   23839026.1484
        44.0004         40.0004
  -1597214.17346  -1231849.56645  25138674.9684   25138679.9814   25138671.6574
        40.0004         35.0004
 -16000169.13649 -12433399.67748  21371201.5834   21371204.0644   21371201.6144
        54.0004         49.0004
 -18991935.26049 -14765188.06248  21499583.8714   21499587.3984   21499583.5514
        54.0004         50.0004
 12  1  5  1 22  0.0000000  0 11G09G04G15G26G27G29G08G10G28G02G05
 -10612745.70448  -8210558.78847  22824512.8604   22824518.8934   22824513.7814
        48.0004         44.0004
  -7386648.23247  -5738654.70346  23745438.7694   23745443.1714   23745437.7034
        44.0004         39.0004
 -19540989.67549 -15162286.50948  21694883.3344   21694887.4194   21694883.4044
        54.0004         49.0004
 -18600503.59049 -14177698.49248  21649800.5884   21649805.2594   21649800.4234
        54.0004         49.0004
 -16745682.94748 -12982042.22947  22209281.7204   22209285.4434   22209282.0454
        51.0004         46.0004
  -6333228.65548  -4884746.90847  23613226.8384   23613229.4114   23613225.6284
        48.0004         43.0004
  -8893755.86947  -6757574.93546  23608779.8164   23608786.5984   23608782.8744
        45.0004         40.0004
  -8805597.92047  -6800815.91146  23846696.5764   23846703.1374   23846697.4624
        44.0004         40.0004
  -1642514.53546  -1267148.56745  25130050.8514   25130057.1204   25130053.6114
        40.0004         35.0004
 -15933410.31449 -12381379.82848  21383904.9634   21383907.8464   21383905.6984
        54.0004         49.0004
 -19004451.83349 -14774941.23648  21497202.0124   21497205.3304   21497201.8694
        54.0004         50.0004
 12  1  5  1 22 30.0000000  0 11G09G04G15G26G27G29G08G10G28G02G05
 -10712362.16048  -8288181.94347  22805558.1644   22805561.8004   22805557.7264
        48.0004         44.0004
  -7282026.86247  -5657131.60546  23765346.6154   23765351.6324   23765345.2724
        44.0004         39.0004
 -19560937.61449 -15177830.34148  21691087.8854   21691091.4474   21691087.6184
        54.0004         49.0004
 -18557077.98149 -14143860.35748  21658064.6484   21658068.6304   21658064.4914
        54.0004         49.0004
 -16841018.54348 -13056329.68547  22191140.5524   22191144.4104   22191139.8664
        51.0004         46.0004
  -6322695.51448  -4876539.24347  23615230.3894   23615234.1544   23615229.3954
        48.0004         43.0004
  -8805766.05847  -6689011.48846  23625526.1594   23625530.5214   23625526.1704
        45.0004         40.0004
  -8765112.67347  -6769268.99846  23854401.2154   23854405.4724   23854402.5384
        44.0004         40.0004
  -1687688.53346  -1302349.19445  25121455.2254   25121464.2524   25121456.5734
        40.0004         35.0004
 -15866279.93549 -12329070.45848  21396679.4104   21396682.2504   21396679.5764
        54.0004         49.0004
 -19016865.81149 -14784614.47848  21494839.6644   21494842.8914   21494839.4654
        54.0004         50.0004
 12  1  5  1 23  0.0000000  0 11G09G04G15G26G27G29G08G10G28G02G05
 -10811773.86548  -8365645.54447  22786640.7074   22786645.1144   22786641.0164
        48.0004         44.0004
  -7177225.71547  -5575468.42446  23785288.6214   23785295.2694   23785289.5574
        44.0004         39.0004
 -19580616.90749 -15193164.84048  21687342.9424   21687346.8214   21687342.7564
        54.0004         49.0004
 -18513520.23849 -14109919.25048  21666352.7934   21666357.4294   21666352.8574
        54.0004         49.0004
 -16936118.46948 -13130433.49547  22173042.0854   22173047.8844   22173043.2944
        51.0004         46.0004
  -6311763.06848  -4868020.46447  23617310.4524   23617314.8804   23617309.8984
        48.0004         43.0004
  -8717391.97647  -6620148.61646  23642342.2384   23642348.3234   23642343.7784
        45.0004         40.0004
  -8724459.34547  -6737591.10746  23862137.0484   23862142.7904   23862138.0304
        44.0004         40.0004
  -1732733.72546  -1337449.33345  25112885.6824   25112891.9224   25112888.1004
        40.0004         35.0004
 -15798779.73449 -12276472.91248  21409524.4414   21409527.1224   21409524.7034
        54.0004         49.0004
 -19029176.14949 -14794206.95948  21492497.2824   21492500.3344   21492497.2444
        54.0004         50.0004
 12  1  5  1 23 30.0000000  0 11G09G04G15G26G27G29G08G10G28G02G05
 -10910973.60148  -8442943.98147  22767763.3304   22767768.6374   22767762.0164
        48.0004         44.0004
  -7072242.66947  -5493663.51846  23805266.8044   23805273.2584   23805268.3344
        44.0004         39.0004
 -19600024.09949 -15208287.31048  21683649.6004   21683653.4474   21683649.3154
        54.0004         49.0004
 -18469828.67049 -14075873.86748  21674667.7104   21674671.7464   21674667.6624
        54.0004         49.0004
 -17030975.68848 -13204348.19747  22154991.5254   22154996.5274   22154992.2924
        51.0004         46.0004
  -6300428.80948  -4859188.55447  23619467.2924   23619471.9324   23619466.1294
        48.0004         43.0004
  -8628632.06247  -6550985.08446  23659232.8124   23659237.6314   23659234.7654
        45.0004         40.0004
  -8683632.38947  -6705777.91946  23869906.4894   23869910.7764   23869907.9914
        45.0004         40.0004
  -1777642.66646  -1372443.36646  25104342.3174   25104344.1594   25104338.2584
        40.0004         36.0004
 -15730907.46449 -12223585.44948  21422440.4124   21422442.9514   21422440.0674
        54.0004         49.0004
 -19041377.04149 -14803714.14548  21490175.2954   21490178.5234   21490174.8514
        54.0004         50.0004
 12  1  5  1 24  0.0000000  0 11G09G04G15G26G27G29G08G10G28G02G05
 -11009963.70748  -8520079.06347  22748925.2454   22748931.2754   22748925.7464
        48.0004         44.0004
  -6967085.20647  -5411722.67446  23825277.3394   23825283.9514   23825277.4854
        44.0004         39.0004
 -19619165.38549 -15223202.57848  21680006.9004   21680011.0984   21680006.9774
        54.0004         49.0004
 -18426010.00949 -14041729.46148  21683005.9714   21683010.2134   21683006.1434
        54.0004         49.0004
 -17125592.34948 -13278075.43947  22136987.3564   22136991.9184   22136987.2034
        51.0004         47.0004
  -6288699.12148  -4850048.52747  23621699.6974   23621703.7444   23621699.0944
        48.0004         44.0004
  -8539494.24747  -6481527.07446  23676195.8214   23676199.7464   23676196.6804
        45.0004         40.0004
  -8642635.89047  -6673832.63146  23877707.8404   23877712.7234   23877708.2454
        45.0004         40.0004
  -1822417.62346  -1407332.93746  25095820.2614   25095823.0684   25095822.7054
        40.0004         36.0004
 -15662669.64749 -12170413.14748  21435425.8964   21435427.9714   21435425.9574
        54.0004         49.0004
 -19053472.12649 -14813138.88648  21487873.7764   21487876.9984   21487873.3564
        54.0004         50.0004
 12  1  5  1 24 30.0000000  0 11G09G04G15G26G27G29G08G10G28G02G05
 -11108741.05748  -8597048.38947  22730127.6374   22730133.3784   22730128.4114
        48.0004         44.0004
  -6861756.07347  -5329648.07746  23845320.1204   23845328.9044   23845320.6574
        44.0004         39.0004
 -19638042.36749 -15237911.90748  21676414.7534   21676418.8904   21676414.5494
        54.0004         49.0004
 -18382066.61549 -14007487.84648  21691368.2114   21691371.9604   21691367.9684
        54.0004         49.0004
 -17219965.82748 -13351613.19747  22119028.5664   22119033.3964   22119028.7354
        51.0004         47.0004
  -6276575.84848  -4840601.82547  23624006.0334   23624010.6424   23624006.2674
        48.0004         44.0004
  -8449981.22247  -6411776.71746  23693229.1854   23693234.1634   23693229.2664
        45.0004         40.0004
  -8601468.88747  -6641754.46346  23885542.3434   23885546.9044   23885543.9684
        44.0004         40.0004
  -1867055.66046  -1442115.88846  25087325.8124   25087329.2414   25087325.6284
        40.0004         36.0004
 -15594068.02649 -12116957.35348  21448480.2904   21448482.7564   21448480.8854
        54.0004         49.0004
 -19065460.14449 -14822480.20248  21485592.5254   21485595.8104   21485592.4634
        54.0004         50.0004
 12  1  5  1 25  0.0000000  0 11G09G04G15G26G27G29G08G10G28G02G05
 -11207298.19048  -8673846.11647  22711374.0834   22711378.9774   22711373.9204
        48.0004         44.0004
  -6756252.84447  -5247437.82546  23865397.1434   23865404.6694   23865398.4394
        44.0004         39.0004
 -19656651.03749 -15252412.16848  21672873.9924   21672877.9454   21672873.5674
        54.0004         49.0004
 -18337995.71649 -13973146.88648  21699754.9294   21699758.2704   21699754.8834
        54.0004         49.0004
 -17314088.43248 -13424955.46647  22101117.0154   22101122.1394   22101117.5834
        51.0004         46.0004
  -6264056.58748  -4830846.55847  23626388.8774   23626391.7574   23626388.4914
        48.0004         43.0004
  -8360090.91347  -6341732.36146  23710333.6944   23710339.3564   23710335.6374
        45.0004         40.0004
  -8560125.60447  -6609538.95846  23893408.3454   23893414.5934   23893408.3384
        44.0004         40.0004
  -1911548.95446  -1476785.99146  25078861.2394   25078863.5634   25078863.0894
        40.0004         36.0004
 -15525099.66449 -12063215.79048  21461604.8774   21461606.6564   21461604.9994
        54.0004         49.0004
 -19077335.04049 -14831733.36848  21483333.1234   21483336.3614   21483332.6354
        54.0004         50.0004
 12  1  5  1 25 30.0000000  0 11G09G04G15G26G27G29G08G10G28G02G05
 -11305636.48048  -8750473.30747  22692660.8744   22692663.9274   22692661.4054
        48.0004         44.0004
  -6650582.47347  -5165097.33346  23885505.5114   23885513.2914   23885506.2834
        44.0004         39.0004
 -19674997.38649 -15266708.00748  21669382.5994   21669386.6364   21669382.3844
        54.0004         49.0004
 -18293803.75749 -13938711.58648  21708163.5144   21708167.6184   21708163.5014
        54.0004         49.0004
 -17407962.21748 -13498103.87047  22083253.6954   22083258.7104   22083254.4424
        51.0004         46.0004
  -6251147.47948  -4820787.50547  23628845.1854   23628849.8084   23628845.4254
        48.0004         43.0004
  -8269830.63047  -6271399.71646  23727511.4844   23727516.4434   23727512.5504
        45.0004         40.0004
  -8518609.81847  -6577189.01846  23901307.8554   23901314.4594   23901310.3694
        44.0004         39.0004
  -1955899.34746  -1511344.79446  25070418.1694   25070424.7804   25070419.7434
        40.0004         36.0004
 -15455770.76449 -12009193.29148  21474797.8564   21474799.9414   21474798.2924
        54.0004         49.0004
 -19089099.82149 -14840900.73048  21481094.1504   21481097.6854   21481093.9464
        54.0004         50.0004
 12  1  5  1 26  0.0000000  0 11G09G04G15G26G27G29G08G10G28G02G05
 -11403750.17348  -8826925.49847  22673989.6784   22673994.6194   22673990.5304
        48.0004         44.0004
  -6544744.42147  -5082626.17546  23905645.1274   23905653.4304   23905645.5434
        44.0004         39.0004
 -19693079.22349 -15280797.73648  21665941.9574   21665945.5044   21665941.5414
        54.0004         49.0004
 -18249490.03849 -13904181.41548  21716596.5724   21716600.7094   21716596.8944
        54.0004         49.0004
 -17501581.46248 -13571053.92047  22065438.9704   22065443.4564   22065438.4564
        51.0004         46.0004
  -6237847.19648  -4810423.67247  23631375.8374   23631379.8804   23631376.1374
        48.0004         44.0004
  -8179200.27847  -6200778.71346  23744756.0804   23744761.5794   23744758.4294
        45.0004         40.0004
  -8476917.44747  -6544701.47646  23909241.2244   23909246.8174   23909241.3204
        44.0004         39.0004
  -2000100.72646  -1545787.44446  25062009.4864   25062012.4114   25062010.0784
        40.0004         36.0004
 -15386080.40049 -11954889.11648  21488059.2124   21488061.3854   21488059.4084
        54.0004         49.0004
 -19100750.06049 -14849978.83248  21478877.0664   21478880.7714   21478876.8154
        54.0004         50.0004
 12  1  5  1 26 30.0000000  0 11G09G04G15G26G27G29G08G10G28G02G05
 -11501638.49548  -8903202.07347  22655362.1334   22655367.6544   22655362.3084
        48.0004         44.0004
  -6438742.74447  -5000027.51146  23925816.8194   23925824.4474   23925816.2404
        44.0004         39.0004
 -19710899.56249 -15294683.70648  21662550.8944   21662554.5494   21662550.6164
        54.0004         49.0004
 -18205058.40149 -13869559.35248  21725051.2434   21725055.5804   21725051.3834
        54.0004         49.0004
 -17594945.06348 -13643804.75647  22047671.9894   22047677.6114   22047672.1584
        51.0004         46.0004
  -6224159.57548  -4799757.97647  23633981.7154   23633984.8804   23633980.3984
        48.0004         43.0004
  -8088204.52847  -6129872.99546  23762073.1454   23762078.2324   23762074.3354
        45.0004         40.0004
  -8435049.50247  -6512077.14146  23917208.2514   23917215.6014   23917209.9834
        44.0004         39.0004
  -2044151.96846  -1580113.14145  25053623.3854   25053628.1634   25053622.1764
        40.0004         35.0004
 -15316031.97449 -11900305.93348  21501388.8214   21501391.1764   21501389.5034
        54.0004         49.0004
 -19112286.30449 -14858968.11748  21476682.1724   21476685.0224   21476682.1604
        54.0004         50.0004
 12  1  5  1 27  0.0000000  0 11G09G04G15G26G27G29G08G10G28G02G05
 -11599297.37348  -8979299.86847  22636778.8654   22636783.5924   22636778.6444
        49.0004         44.0004
  -6332579.12547  -4917302.65946  23946020.1894   23946027.0554   23946019.6494
        44.0004         39.0004
 -19728459.22849 -15308366.54748  21659208.8494   21659212.9494   21659208.6474
        54.0004         49.0004
 -18160509.49249 -13834845.91548  21733528.9534   21733533.2834   21733529.0294
        54.0004         49.0004
 -17688049.01648 -13716353.27847  22029955.6674   22029960.5204   22029955.8684
        51.0004         47.0004
  -6210085.22947  -4788790.93747  23636658.2524   23636664.1014   23636658.4024
        47.0004         42.0004
  -7996844.67647  -6058683.54946  23779458.8574   23779463.8424   23779459.6234
        45.0004         40.0004
  -8393003.87047  -6479314.33146  23925210.2634   23925217.4084   23925210.6294
        44.0004         39.0004
  -2088049.07246  -1614318.70145  25045269.6914   25045275.7724   25045271.6354
        40.0004         35.0004
 -15245626.12348 -11845444.24148  21514786.2444   21514789.1444   21514786.2904
        53.0004         49.0004
 -19123705.61549 -14867866.28148  21474509.2504   21474512.1554   21474509.0264
        54.0004         50.0004
 12  1  5  1 27 30.0000000  0 11G09G04G15G26G27G29G08G10G28G02G05
 -11696725.45448  -9055217.79847  22618239.7644   22618244.2434   22618240.4494
        49.0004         44.0004
  -6226257.08947  -4834454.37746  23966252.2934   23966259.2214   23966252.6134
        44.0004         39.0004
 -19745759.66249 -15321847.39848  21655916.7124   21655920.8154   21655916.5444
        54.0004         49.0004
 -18115847.02449 -13800043.98848  21742027.7674   21742032.0454   21742027.8424
        54.0004         49.0004
 -17780892.12248 -13788698.54347  22012287.0954   22012292.9804   22012287.1524
        51.0004         47.0004
  -6195626.87547  -4777524.69247  23639409.4824   23639415.4484   23639409.9724
        47.0004         43.0004
  -7905125.11447  -5987213.81246  23796912.3134   23796917.5434   23796913.5474
        45.0004         40.0004
  -8350780.81547  -6446413.29446  23933244.9274   23933251.8834   23933245.0854
        44.0004         39.0004
  -2131790.47846  -1648402.98745  25036946.2784   25036951.1594   25036948.8274
        40.0004         35.0004
 -15174865.79748 -11790306.33648  21528251.3754   21528254.5324   21528251.8104
        53.0004         49.0004
 -19135008.13849 -14876673.44348  21472358.0144   21472361.3654   21472357.7984
        54.0004         50.0004
 12  1  5  1 28  0.0000000  0 11G09G04G15G26G27G29G08G10G28G02G05
 -11793918.63648  -9130952.70747  22599743.5974   22599748.3454   22599744.2944
        49.0004         44.0004
  -6119778.39847  -4751484.02046  23986514.4634   23986520.5674   23986513.5424
        44.0004         39.0004
 -19762801.90649 -15335127.06048  21652674.0764   21652678.0584   21652673.9344
        54.0004         49.0004
 -18071071.96549 -13765154.32348  21750548.3014   21750552.5894   21750548.3964
        54.0004         49.0004
 -17873470.76848 -13860837.74147  21994669.9524   21994675.4434   21994670.1774
        51.0004         47.0004
  -6180786.54648  -4765960.80047  23642232.7094   23642238.7884   23642233.7744
        48.0004         43.0004
  -7813047.77047  -5915465.29546  23814434.5904   23814438.8104   23814435.3584
        45.0004         40.0004
  -8308378.70447  -6413372.71946  23941313.0244   23941319.4444   23941313.6294
        44.0004         39.0004
  -2175372.24346  -1682362.81545  25028654.1544   25028661.0624   25028654.3384
        40.0004         35.0004
 -15103751.82248 -11734892.86648  21541784.2644   21541786.9454   21541784.3994
        53.0004         49.0004
 -19146191.40749 -14885387.68848  21470229.9514   21470233.3494   21470229.4034
        54.0004         50.0004
 12  1  5  1 28 30.0000000  0 11G09G04G15G26G27G29G08G10G28G02G05
 -11890873.78048  -9206502.12447  22581292.8644   22581297.4084   22581293.3634
        48.0004         43.0004
  -6013144.94547  -4668393.06546  24006806.6384   24006813.2264   24006806.0724
        43.0004         38.0004
 -19779586.27749 -15348205.77848  21649480.4124   21649483.8834   21649480.0004
        54.0004         49.0004
 -18026185.93349 -13730178.18548  21759089.9484   21759094.2534   21759089.8384
        54.0004         49.0004
 -17965781.84648 -13932768.44247  21977104.6604   21977109.0254   21977105.1994
        51.0004         47.0004
  -6165565.39648  -4754100.15647  23645130.6494   23645134.9574   23645130.5364
        48.0004         43.0004
  -7720615.11547  -5843439.90646  23832023.3384   23832027.8384   23832024.6054
        45.0004         40.0004
  -8265795.89947  -6380191.36246  23949417.0234   23949422.9784   23949417.2974
        43.0004         39.0004
  -2218791.06746  -1716195.74845  25020393.6104   25020398.8674   25020393.8774
        40.0004         35.0004
 -15032285.77848 -11679205.05448  21555383.8374   21555386.0324   21555384.3994
        53.0004         49.0004
 -19157253.58749 -14894007.58448  21468125.0884   21468128.4654   21468124.8664
        54.0004         50.0004
 12  1  5  1 29  0.0000000  0 11G09G04G15G26G27G29G08G10G28G02G05
 -11987588.66948  -9281864.33547  22562888.7954   22562893.6034   22562889.6914
        48.0004         43.0004
  -5906360.26647  -4585184.28746  24027127.0744   24027132.1244   24027126.7484
        43.0004         38.0004
 -19796114.92249 -15361085.23148  21646335.1784   21646338.6004   21646334.7604
        54.0004         49.0004
 -17981191.76549 -13695117.78748  21767651.5564   21767655.9204   21767651.4754
        54.0004         49.0004
 -18057823.43748 -14004489.15447  21959588.9894   21959593.9904   21959589.4044
        51.0004         47.0004
  -6149965.98348  -4741944.77747  23648099.3524   23648103.7584   23648098.6504
        48.0004         43.0004
  -7627830.86747  -5771140.54946  23849679.8074   23849684.5234   23849680.5464
        45.0004         40.0004
  -8223032.55347  -6346869.30746  23957554.5144   23957559.2034   23957554.7324
        43.0004         39.0004
  -2262044.96846  -1749900.13246  25012159.1344   25012168.7844   25012161.2234
        40.0004         36.0004
 -14960470.40448 -11623245.03548  21569050.4344   21569052.5624   21569050.6674
        53.0004         49.0004
 -19168194.11649 -14902532.68048  21466043.0914   21466046.6174   21466042.7244
        54.0004         50.0004
 12  1  5  1 29 30.0000000  0 11G09G04G15G26G27G29G08G10G28G02G05
 -12084059.03148  -9357036.01147  22544530.9054   22544536.3694   22544532.1164
        48.0004         44.0004
  -5799425.06147  -4501858.20946  24047476.9384   24047481.9564   24047476.3994
        43.0004         38.0004
 -19812387.61349 -15373765.23548  21643238.5454   21643241.9514   21643238.0404
        54.0004         49.0004
 -17936089.77549 -13659973.37948  21776234.1914   21776238.4714   21776234.5954
        54.0004         49.0004
 -18149591.18048 -14075996.47347  21942126.1104   21942131.1454   21942125.9874
        51.0004         47.0004
  -6133988.43848  -4729494.76047  23651139.4684   23651143.2134   23651139.8984
        48.0004         43.0004
  -7534696.18447  -5698568.11946  23867403.1294   23867408.1004   23867402.8814
        45.0004         40.0004
  -8180086.15747  -6313404.63546  23965726.9724   23965732.7414   23965727.4504
        43.0004         39.0004
  -2305129.34146  -1783472.41646  25003964.0894   25003971.0784   25003965.0504
        40.0004         36.0004
 -14888305.97348 -11567013.01548  21582782.1704   21582784.8704   21582782.7074
        53.0004         49.0004
 -19179009.94549 -14910960.60348  21463984.7404   21463988.3184   21463984.3994
        54.0004         50.0004
 12  1  5  1 30  0.0000000  0 11G09G04G15G26G27G29G08G10G28G02G05
 -12180284.78848  -9432017.07147  22526221.2874   22526225.3854   22526221.4154
        48.0004         44.0004
  -5692344.61847  -4418418.94746  24067853.0924   24067857.0774   24067853.0654
        42.0004         38.0004
 -19828408.62149 -15386249.12148  21640189.5654   21640193.0184   21640189.3894
        54.0004         49.0004
 -17890885.10149 -13624748.95448  21784836.5424   21784841.0104   21784836.5954
        54.0004         49.0004
 -18241085.12948 -14147290.44947  21924715.6414   21924720.3024   21924716.1824
        51.0004         47.0004
  -6117637.87148  -4716754.04547  23654250.6394   23654255.8484   23654250.7824
        48.0004         43.0004
  -7441216.55047  -5625726.91646  23885190.6154   23885195.8804   23885190.6074
        45.0004         40.0004
  -8136958.64947  -6279798.82446  23973933.5654   23973939.8934   23973934.8524
        43.0004         39.0004
  -2348044.13446  -1816912.59746  24995796.7984   24995802.5224   24995796.9344
        41.0004         36.0004
 -14815797.03048 -11510512.56448  21596580.8344   21596582.6344   21596581.0454
        53.0004         49.0004
 -19189702.26949 -14919292.29148  21461950.3194   21461953.2754   21461949.9154
        54.0004         50.0004
 12  1  5  1 30 30.0000000  0 11G09G04G15G26G27G29G08G10G28G02G05
 -12276263.24448  -9506805.44247  22507956.7674   22507961.4214   22507956.1284
        48.0004         44.0004
  -5585121.44647  -4334868.47746  24088257.7474   24088260.7314   24088257.7314
        42.0004         38.0004
 -19844179.34449 -15398537.97448  21637188.6034   21637192.1624   21637188.1264
        54.0004         49.0004
 -17845579.78849 -13589446.11148  21793457.9884   21793462.1364   21793457.9514
        54.0004         49.0004
 -18332302.84648 -14218369.17747  21907356.9414   21907362.5144   21907357.1864
        51.0004         47.0004
  -6100916.48047  -4703724.39347  23657432.8394   23657437.0884   23657433.1714
        47.0004         42.0004
  -7347394.98547  -5552619.28046  23903044.9364   23903049.7724   23903044.5354
        44.0004         40.0004
  -8093649.34847  -6246051.35846  23982175.3414   23982182.2794   23982177.8574
        43.0004         39.0004
  -2390786.58546  -1850218.45646  24987664.3804   24987668.6494   24987665.5924
        41.0004         36.0004
 -14742945.66749 -11453745.28448  21610443.9814   21610446.0414   21610443.9324
        54.0004         49.0004
 -19200269.90949 -14927526.82448  21459939.2804   21459942.4744   21459938.9034
        54.0004         50.0004
 12  1  5  1 31  0.0000000  0 11G09G04G15G26G27G29G08G10G28G02G05
 -12371987.58748  -9581395.81447  22489739.8134   22489745.1354   22489740.0544
        48.0004         44.0004
  -5477754.17547  -4251205.73146  24108690.4574   24108692.3454   24108689.1334
        42.0004         38.0004
 -19859696.09149 -15410628.92748  21634235.4014   21634239.9284   21634235.1924
        54.0004         49.0004
 -17800171.48449 -13554063.01448  21802098.8224   21802103.2994   21802098.6024
        54.0004         49.0004
 -18423237.45648 -14289227.30247  21890052.8724   21890058.0044   21890053.2414
        51.0004         47.0004
  -6083821.76647  -4690403.84947  23660686.6194   23660691.0414   23660685.6824
        47.0004         42.0004
  -7253230.24447  -5479244.22646  23920963.7094   23920968.2044   23920964.9974
        44.0004         40.0004
  -8050153.19547  -6212158.28246  23990453.3294   23990459.4174   23990454.0684
        44.0004         39.0004
  -2433349.44646  -1883384.39246  24979562.7614   24979571.3074   24979564.8954
        41.0004         36.0004
 -14669749.55348 -11396709.36748  21624372.9324   21624374.8054   21624373.4624
        53.0004         49.0004
 -19210707.28549 -14935659.85248  21457953.3154   21457956.4344   21457953.3124
        54.0004         50.0004
 12  1  5  1 31 30.0000000  0 11G09G04G15G26G27G29G08G10G28G02G05
 -12467457.29348  -9655787.75247  22471573.4714   22471577.9904   22471574.1424
        49.0004         44.0004
  -5370247.48347  -4167434.33146  24129146.7254   24129149.2904   24129144.6014
        42.0004         38.0004
 -19874963.02049 -15422525.22248  21631330.3694   21631334.5194   21631330.2724
        54.0004         49.0004
 -17754664.80449 -13518603.26848  21810758.5324   21810762.4914   21810758.6174
        54.0004         49.0004
 -18513888.78048 -14359864.68647  21872803.3514   21872807.4624   21872803.5974
        52.0004         47.0004
  -6066358.28247  -4676795.93647  23664009.1334   23664013.0864   23664009.5934
        47.0004         43.0004
  -7158727.72547  -5405605.96646  23938946.2124   23938952.8544   23938948.0954
        44.0004         40.0004
  -8006471.75747  -6178120.82746  23998765.6844   23998771.1464   23998768.1214
        44.0004         39.0004
  -2475732.29046  -1916410.04346  24971498.5134   24971505.4194   24971499.5444
        40.0004         36.0004
 -14596212.66948 -11339407.90948  21638366.1894   21638368.5264   21638366.1304
        53.0004         49.0004
 -19221015.22749 -14943692.02448  21455991.4854   21455994.7854   21455990.8554
        54.0004         50.0004
 12  1  5  1 32  0.0000000  0 11G09G04G15G26G27G29G08G10G28G02G05
 -12562669.02748  -9729978.67447  22453454.9694   22453459.4274   22453455.2534
        49.0004         44.0004
  -5262603.56047  -4083556.01946  24149630.6094   24149634.0584   24149629.9824
        42.0004         38.0004
 -19889981.00349 -15434227.52648  21628472.7144   21628476.5344   21628471.9694
        54.0004         49.0004
 -17709061.23949 -13483068.02048  21819436.3594   21819440.7834   21819436.2064
        54.0004         49.0004
 -18604253.53448 -14430278.76647  21855607.2674   21855612.1174   21855606.7854
        52.0004         47.0004
  -6048527.94647  -4662902.13747  23667401.3574   23667407.4344   23667401.5174
        47.0004         43.0004
  -7063889.90147  -5331706.44746  23956995.1334   23956998.7824   23956993.9524
        44.0004         39.0004
  -7962603.59547  -6143937.88246  24007112.6474   24007118.8384   24007114.2074
        44.0004         39.0004
  -2517931.97546  -1949293.01046  24963469.1514   24963472.5264   24963466.9564
        40.0004         36.0004
 -14522337.26448 -11281842.66648  21652424.1984   21652426.2724   21652424.7174
        53.0004         49.0004
 -19231192.11849 -14951622.08348  21454054.8804   21454058.4174   21454054.4234
        54.0004         50.0004
 12  1  5  1 32 30.0000000  0 11G09G04G15G26G27G29G08G10G28G02G05
 -12657623.60548  -9803969.21447  22435385.0874   22435389.8254   22435385.5444
        49.0004         44.0004
  -5154828.23847  -3999575.30646  24170139.6744   24170144.1004   24170140.0314
        42.0004         38.0004
 -19904755.01249 -15445739.72748  21625660.9084   21625665.2614   21625660.7504
        54.0004         49.0004
 -17663366.44949 -13447461.69248  21828132.1774   21828136.3434   21828132.1134
        54.0004         49.0004
 -18694332.54448 -14500470.18947  21838465.2454   21838470.6544   21838465.6544
        52.0004         47.0004
  -6030336.16947  -4648726.70247  23670863.8664   23670867.9974   23670864.0034
        47.0004         42.0004
  -6968722.98647  -5257550.49146  23975103.3964   23975108.9594   23975102.6604
        44.0004         39.0004
  -7918551.47847  -6109611.60946  24015495.6724   24015501.8944   24015498.5414
        44.0004         39.0004
  -2559949.10846  -1982033.71245  24955472.1334   24955477.5314   24955473.8154
        40.0004         35.0004
 -14448128.43548 -11224017.62548  21666545.1694   21666547.8954   21666545.5714
        53.0004         49.0004
 -19241239.74749 -14959451.42448  21452143.1824   21452146.4934   21452142.7624
        54.0004         50.0004
 12  1  5  1 33  0.0000000  0 11G09G04G15G26G27G29G08G10G28G02G05
 -12752311.28948  -9877751.78447  22417367.6814   22417371.1434   22417367.5554
        49.0004         44.0004
  -5046917.51447  -3915489.09746  24190673.9064   24190677.8974   24190673.8924
        43.0004         38.0004
 -19919279.42349 -15457057.42548  21622897.0574   21622900.8344   21622896.8604
        54.0004         49.0004
 -17617575.48949 -13411780.43148  21836845.8334   21836850.0594   21836845.8504
        54.0004         49.0004
 -18784116.35848 -14570431.59247  21821379.6124   21821384.7464   21821380.2144
        52.0004         47.0004
  -6011777.99447  -4634265.80247  23674394.7794   23674399.8744   23674394.4234
        47.0004         42.0004
  -6873222.96747  -5183134.97246  23993277.1794   23993282.3254   23993275.7794
        44.0004         39.0004
  -7874307.91047  -6075136.16846  24023914.9994   24023921.2054   24023915.0154
        43.0004         39.0004
  -2601773.72446  -2014624.39546  24947512.1024   24947518.8424   24947514.3454
        40.0004         36.0004
 -14373581.08248 -11165928.79448  21680730.9824   21680733.8744   21680731.6764
        53.0004         48.0004
 -19251149.78149 -14967173.54748  21450257.1614   21450260.4704   21450256.8874
        54.0004         50.0004
 12  1  5  1 33 30.0000000  0 11G09G04G15G26G27G29G08G10G28G02G05
 -12846734.84148  -9951328.53447  22399399.2174   22399403.0834   22399399.6714
        49.0004         45.0004
  -4938879.01547  -3831303.31146  24211233.5804   24211238.4994   24211232.8794
        43.0004         38.0004
 -19933561.02149 -15468185.93148  21620179.9044   21620183.3834   21620179.2034
        54.0004         49.0004
 -17571695.73249 -13376029.96548  21845576.3374   21845580.5634   21845576.2044
        54.0004         49.0004
 -18873607.77148 -14640165.14247  21804350.4224   21804355.5664   21804350.3064
        52.0004         47.0004
  -5992861.15247  -4619525.38047  23677994.6704   23677998.8974   23677994.8054
        47.0004         42.0004
  -6777398.24847  -5108466.44946  24011511.3864   24011517.0284   24011512.3754
        44.0004         39.0004
  -7829877.36147  -6040515.00746  24032369.8494   24032375.7554   24032371.6704
        43.0004         38.0004
  -2643408.61046  -2047067.21945  24939591.8324   24939596.0954   24939592.0314
        40.0004         35.0004
 -14298702.74448 -11107582.05448  21694980.1154   21694982.8524   21694980.4534
        53.0004         48.0004
 -19260926.11449 -14974791.48248  21448397.0314   21448400.1574   21448396.8034
        54.0004         50.0004
 12  1  5  1 34  0.0000000  0 11G09G04G15G26G27G29G08G10G28G02G05
 -12940888.10948 -10024694.67847  22381482.3874   22381486.2524   22381482.0024
        49.0004         44.0004
  -4830711.76347  -3747017.21646  24231817.8204   24231821.9524   24231816.6284
        43.0004         38.0004
 -19947597.25649 -15479123.23848  21617508.3374   21617511.6864   21617508.2524
        54.0004         49.0004
 -17525725.69349 -13340209.15948  21854324.0904   21854328.3854   21854324.1314
        54.0004         49.0004
 -18962800.67348 -14709666.09047  21787377.6324   21787382.8244   21787378.1644
        52.0004         47.0004
  -5973584.28847  -4604504.45847  23681663.9404   23681667.5014   23681662.6724
        47.0004         42.0004
  -6681248.54047  -5033544.68246  24029808.2704   24029813.7944   24029809.3164
        44.0004         39.0004
  -7785255.55647  -6005744.83446  24040861.3604   24040866.4404   24040860.6214
        43.0004         38.0004
  -2684847.28546  -2079357.14645  24931705.2794   24931709.7174   24931707.3734
        40.0004         35.0004
 -14223491.82148 -11048976.14848  21709292.4604   21709294.8504   21709291.9374
        53.0004         48.0004
 -19270563.68249 -14982301.28848  21446562.4034   21446566.3144   21446561.8774
        54.0004         50.0004
 12  1  5  1 34 30.0000000  0 11G09G04G15G26G27G29G08G10G28G02G05
 -13034773.38248 -10097851.99747  22363615.9614   22363620.8184   22363616.1424
        49.0004         45.0004
  -4722423.59847  -3662636.88746  24252423.9504   24252429.3234   24252424.7624
        43.0004         38.0004
 -19961394.25249 -15489874.12948  21614882.6274   21614886.6814   21614882.4924
        54.0004         49.0004
 -17479672.43049 -13304323.49548  21863087.1384   21863091.9474   21863087.3274
        54.0004         49.0004
 -19051697.51948 -14778936.34847  21770460.4234   21770465.7774   21770461.0664
        52.0004         47.0004
  -5953954.34547  -4589208.42647  23685398.9154   23685403.4914   23685398.9084
        47.0004         42.0004
  -6584781.67147  -4958375.78646  24048165.9544   24048171.3064   24048165.7914
        44.0004         39.0004
  -7740446.60647  -5970828.81646  24049388.1214   24049393.9974   24049388.8454
        43.0004         38.0004
  -2726091.99646  -2111495.93646  24923856.8824   24923858.5914   24923857.0534
        40.0004         36.0004
 -14147955.52548 -10990116.71448  21723666.5624   21723668.6534   21723667.2614
        53.0004         48.0004
 -19280066.59649 -14989706.17848  21444754.3434   21444757.7724   21444754.0284
        54.0004         49.0004
 12  1  5  1 35  0.0000000  0 11G09G04G15G26G27G29G08G10G28G02G05
 -13128381.94748 -10170793.70147  22345802.9714   22345807.3934   22345802.5984
        49.0004         45.0004
  -4614011.02947  -3578159.64446  24273054.9994   24273058.5694   24273054.8014
        43.0004         38.0004
 -19974948.08049 -15500435.54248  21612303.6474   21612307.6684   21612303.4614
        54.0004         49.0004
 -17433532.06249 -13268369.97748  21871868.0524   21871872.3804   21871868.1994
        54.0004         49.0004
 -19140289.86048 -14847969.32647  21753602.0474   21753607.0184   21753602.1394
        52.0004         47.0004
  -5933967.63547  -4573634.38247  23689202.3114   23689206.7094   23689201.7904
        47.0004         42.0004
  -6487994.71847  -4882957.48546  24066584.2274   24066588.5124   24066584.4164
        44.0004         39.0004
  -7695444.03347  -5935761.93846  24057952.3764   24057958.5724   24057952.3164
        43.0004         38.0004
  -2767134.08546  -2143476.82745  24916048.7124   24916051.4794   24916048.9584
        40.0004         35.0004
 -14072089.93848 -10931000.68148  21738103.4004   21738105.8384   21738103.3544
        53.0004         48.0004
 -19289427.40849 -14997000.34148  21442973.2394   21442976.3494   21442973.3234
        54.0004         49.0004
 12  1  5  1 35 30.0000000  0 11G09G04G15G26G27G29G08G10G28G02G05
 -13221714.41748 -10243520.26847  22328042.8654   22328046.0884   22328042.9314
        49.0004         45.0004
  -4505479.95147  -3493590.03046  24293706.2344   24293710.5904   24293706.0014
        43.0004         38.0004
 -19988263.38649 -15510811.09448  21609769.8614   21609773.9514   21609769.7624
        54.0004         49.0004
 -17387310.01849 -13232352.79348  21880664.2184   21880667.7874   21880664.0004
        54.0004         49.0004
 -19228578.27548 -14916765.47747  21736801.0084   21736806.7094   21736801.7084
        52.0004         47.0004
  -5913629.69648  -4557786.64047  23693072.7704   23693077.2654   23693073.1044
        48.0004         43.0004
  -6390893.92347  -4807294.61546  24085060.3674   24085065.9874   24085062.8864
        44.0004         39.0004
  -7650250.42147  -5900546.21846  24066551.8564   24066557.7884   24066552.1834
        43.0004         38.0004
  -2807973.91946  -2175300.13746  24908275.5854   24908280.1944   24908278.4594
        40.0004         36.0004
 -13995900.30048 -10871632.14848  21752601.4144   21752604.0424   21752601.8704
        53.0004         48.0004
 -19298647.87649 -15004185.12848  21441218.3364   21441222.0874   21441217.9294
        54.0004         49.0004
 12  1  5  1 36  0.0000000  0 11G09G04G15G26G27G29G08G10G28G02G05
 -13314766.16848 -10316028.08947  22310334.5104   22310339.6994   22310333.9564
        50.0004         45.0004
  -4396830.97947  -3408928.56746  24314381.8364   24314386.4194   24314381.5634
        42.0004         38.0004
 -20001339.44349 -15521000.21548  21607281.2824   21607285.7624   21607280.9284
        54.0004         49.0004
 -17341006.46849 -13196272.11048  21889474.8624   21889479.1414   21889474.8274
        54.0004         49.0004
 -19316558.38148 -14985321.39047  21720059.6664   21720065.0914   21720059.4004
        52.0004         47.0004
  -5892941.15047  -4541665.69447  23697009.5974   23697014.3854   23697008.9834
        47.0004         42.0004
  -6293480.52447  -4731388.17546  24103598.8674   24103603.6844   24103600.7014
        44.0004         39.0004
  -7604863.11447  -5865179.56346  24075189.1964   24075195.3154   24075189.1924
        43.0004         38.0004
  -2848606.95346  -2206962.30646  24900543.4484   24900546.6874   24900544.2274
        40.0004         36.0004
 -13919387.06648 -10812011.46648  21767161.9104   21767164.6814   21767162.1014
        53.0004         48.0004
 -19307724.56249 -15011257.89448  21439491.4914   21439495.1334   21439491.2884
        54.0004         50.0004
 12  1  5  1 36 30.0000000  0 11G09G04G15G26G27G29G08G10G28G02G05
 -13407536.38748 -10388316.53547  22292679.7724   22292685.6994   22292681.5684
        50.0004         45.0004
  -4288068.56447  -3324178.69046  24335080.9384   24335082.8884   24335078.0324
        42.0004         37.0004
 -20014179.56349 -15531005.48548  21604838.0194   21604842.2864   21604837.9264
        54.0004         50.0004
 -17294625.23649 -13160130.89248  21898301.2974   21898305.4154   21898301.3734
        54.0004         49.0004
 -19404229.51848 -15053636.54347  21703375.9464   21703381.0364   21703376.3624
        52.0004         47.0004
  -5871905.87847  -4525274.56647  23701012.1024   23701015.5004   23701012.2474
        47.0004         42.0004
  -6195759.31347  -4655241.86646  24122195.0164   24122200.0034   24122195.9044
        44.0004         39.0004
  -7559283.11447  -5829662.75046  24083861.7754   24083868.3474   24083863.5524
        43.0004         38.0004
  -2889032.03746  -2238462.42946  24892851.3814   24892855.3784   24892853.7654
        40.0004         36.0004
 -13842553.98648 -10752141.54648  21781782.9474   21781785.2024   21781783.3744
        53.0004         48.0004
 -19316657.88649 -15018218.94648  21437791.3894   21437795.1094   21437790.9724
        54.0004         50.0004
 12  1  5  1 37  0.0000000  0 11G09G04G15G26G27G29G08G10G28G02G05
 -13500018.46448 -10460380.46647  22275082.3054   22275086.8264   22275082.4574
        50.0004         45.0004
  -4179191.45247  -3239339.43846  24355797.3924   24355801.7584   24355798.7394
        42.0004         37.0004
 -20026781.17349 -15540824.91048  21602440.2344   21602443.8924   21602440.2764
        54.0004         50.0004
 -17248164.36949 -13123927.62848  21907142.0414   21907146.1924   21907142.1914
        54.0004         49.0004
 -19491585.20448 -15121705.89547  21686753.1764   21686758.4954   21686753.3424
        52.0004         47.0004
  -5850522.24647  -4508611.99247  23705081.0824   23705086.2244   23705081.0404
        47.0004         43.0004
  -6097729.28447  -4578854.94346  24140849.4504   24140855.2334   24140849.4384
        44.0004         39.0004
  -7513506.05847  -5793992.37846  24092573.4244   24092579.7274   24092575.2284
        43.0004         38.0004
  -2929242.68946  -2269795.47746  24885201.7864   24885206.6914   24885200.5304
        41.0004         37.0004
 -13765399.13448 -10692020.89548  21796464.9154   21796467.2444   21796465.3574
        53.0004         48.0004
 -19325442.62849 -15025064.21748  21436119.7554   21436123.6534   21436119.3854
        54.0004         50.0004
 12  1  5  1 37 30.0000000  0 11G09G04G15G26G27G29G08G10G28G02G05
 -13592216.00548 -10532222.66947  22257537.7384   22257541.9664   22257537.4724
        50.0004         45.0004
  -4070208.29647  -3154417.57946  24376537.0574   24376540.6004   24376536.7584
        42.0004         37.0004
 -20039151.97949 -15550464.48648  21600086.0314   21600090.1344   21600085.6094
        54.0004         50.0004
 -17201632.09149 -13087668.71248  21915997.4634   21916001.3584   21915997.4334
        54.0004         49.0004
 -19578629.02648 -15189532.24448  21670189.3924   21670193.9524   21670189.3264
        52.0004         48.0004
  -5828798.74847  -4491684.56647  23709215.0284   23709219.5704   23709214.9634
        47.0004         43.0004
  -5999399.85147  -4502234.71946  24159559.9554   24159564.6204   24159560.9524
        43.0004         38.0004
  -7467537.48447  -5758172.76446  24101321.1674   24101328.0264   24101321.1424
        43.0004         38.0004
  -2969242.19146  -2300963.98546  24877589.7914   24877596.8644   24877591.3684
        41.0004         37.0004
 -13687930.84248 -10631656.00048  21811206.1524   21811209.0684   21811206.0554
        53.0004         48.0004
 -19334083.53549 -15031797.40348  21434475.5564   21434479.2324   21434475.1464
        54.0004         50.0004
 12  1  5  1 38  0.0000000  0 11G09G04G15G26G27G29G08G10G28G02G05
 -13684120.71248 -10603836.69447  22240049.3994   22240053.6274   22240049.9074
        50.0004         45.0004
  -3961116.24547  -3069410.82746  24397296.5414   24397302.5204   24397295.8434
        42.0004         37.0004
 -20051287.56349 -15559920.76148  21597776.7684   21597780.9864   21597776.3374
        54.0004         49.0004
 -17155024.80448 -13051351.34648  21924866.0744   21924869.8464   21924866.1564
        53.0004         49.0004
 -19665352.85748 -15257109.24148  21653686.0964   21653691.1484   21653686.2144
        52.0004         48.0004
  -5806731.96247  -4474489.65047  23713413.9494   23713418.2224   23713414.3454
        47.0004         42.0004
  -5900768.31447  -4425379.08046  24178329.5064   24178335.3984   24178330.3274
        43.0004         39.0004
  -7421371.00447  -5722198.95946  24110104.0634   24110112.8694   24110106.9164
        42.0004         38.0004
  -3009022.16346  -2331961.43346  24870018.3744   24870024.5904   24870017.1574
        41.0004         37.0004
 -13610145.66048 -10571044.19048  21826008.3894   21826011.0104   21826008.8044
        53.0004         48.0004
 -19342573.56649 -15038413.01748  21432859.6794   21432863.4094   21432859.6714
        54.0004         50.0004
 12  1  5  1 38 30.0000000  0 11G09G04G15G26G27G29G08G10G28G02G05
 -13775724.99448 -10675216.63747  22222617.5824   22222621.3434   22222617.1944
        50.0004         45.0004
  -3851912.85147  -2984317.32246  24418077.2514   24418081.2114   24418075.5404
        42.0004         37.0004
 -20063184.71849 -15569191.26448  21595512.7114   21595516.3804   21595512.4634
        54.0004         49.0004
 -17108339.38948 -13014973.11548  21933750.4294   21933754.1924   21933750.5994
        53.0004         49.0004
 -19751749.31948 -15324431.14748  21637245.8134   21637249.9734   21637246.3084
        52.0004         48.0004
  -5784319.58647  -4457025.47347  23717679.0504   23717683.5364   23717678.8014
        46.0004         42.0004
  -5801832.56747  -4348286.41246  24197156.8784   24197162.8854   24197157.7124
        43.0004         39.0004
  -7375001.03547  -5686066.57846  24118930.0154   24118937.5784   24118929.0954
        42.0004         38.0004
  -3048575.39546  -2362782.20046  24862491.4914   24862498.8364   24862493.9994
        41.0004         37.0004
 -13532040.93248 -10510183.38148  21840871.3674   21840874.3084   21840871.2134
        53.0004         48.0004
 -19350906.18849 -15044905.98148  21431274.2674   21431277.8424   21431274.1734
        54.0004         50.0004
 12  1  5  1 39  0.0000000  0 11G09G04G15G26G27G29G08G10G28G02G05
 -13867041.41048 -10746372.25447  22205241.2554   22205245.6484   22205241.4714
        50.0004         45.0004
  -3742615.91647  -2899150.93346  24438875.1634   24438879.1954   24438875.1634
        42.0004         37.0004
 -20074859.85749 -15578288.74548  21593291.0384   21593295.0664   21593290.9164
        54.0004         49.0004
 -17061593.33748 -12978547.63148  21942645.4554   21942649.8904   21942645.4034
        53.0004         49.0004
 -19837831.18948 -15391507.91348  21620865.3514   21620869.5704   21620865.7034
        53.0004         48.0004
  -5761578.63847  -4439305.26547  23722007.2204   23722011.8514   23722006.3284
        46.0004         42.0004
  -5702611.13847  -4270971.12746  24216037.2254   24216042.0494   24216038.2834
        43.0004         38.0004
  -7328442.01147  -5649786.91046  24127790.1364   24127797.4654   24127791.7704
        43.0004         38.0004
  -3087913.67646  -2393435.49546  24855010.2434   24855011.6124   24855007.5124
        41.0004         37.0004
 -13453633.94348 -10449087.04648  21855791.9974   21855794.3754   21855792.3814
        53.0004         48.0004
 -19359095.49449 -15051287.26748  21429715.9664   21429719.3804   21429715.4484
        54.0004         50.0004
 12  1  5  1 39 30.0000000  0 11G09G04G15G26G27G29G08G10G28G02G05
 -13958055.73048 -10817292.46347  22187920.8624   22187924.4634   22187921.6114
        50.0004         45.0004
  -3633216.28547  -2813904.51446  24459693.8504   24459700.4074   24459694.0674
        42.0004         37.0004
 -20086302.39849 -15587204.97148  21591113.2774   21591117.4044   21591112.8974
        54.0004         49.0004
 -17014776.85448 -12942067.27248  21951554.5324   21951558.9054   21951554.6884
        53.0004         49.0004
 -19923584.32048 -15458328.52548  21604546.5054   21604552.1394   21604546.8794
        53.0004         48.0004
  -5738499.66147  -4421321.65447  23726397.6494   23726403.3534   23726397.9944
        46.0004         42.0004
  -5603095.17647  -4193426.34646  24234975.7834   24234980.5914   24234975.2904
        43.0004         38.0004
  -7281681.51547  -5613350.20646  24136689.2994   24136694.0734   24136688.8874
        43.0004         39.0004
  -3127022.37346  -2423909.88346  24847564.2214   24847569.5084   24847566.8704
        41.0004         37.0004
 -13374915.09548 -10387747.70948  21870771.2624   21870773.7404   21870771.9514
        53.0004         48.0004
 -19367128.00649 -15057546.38248  21428187.4784   21428190.8004   21428187.0714
        54.0004         50.0004
 12  1  5  1 40  0.0000000  0 11G09G04G15G26G27G29G08G10G28G02G05
 -14048771.81748 -10887980.29847  22170658.4964   22170663.3014   22170658.2364
        50.0004         45.0004
  -3523723.11647  -2728585.21146  24480528.6304   24480536.8604   24480530.2364
        42.0004         37.0004
 -20097520.75149 -15595946.50848  21588978.6294   21588982.7804   21588978.2424
        54.0004         49.0004
 -16967898.15848 -12905538.42948  21960475.5374   21960479.6624   21960475.7394
        53.0004         49.0004
 -20009012.61748 -15524896.01848  21588290.0704   21588295.3484   21588290.2084
        53.0004         48.0004
  -5715091.62947  -4403081.64747  23730852.5074   23730858.4184   23730852.8054
        47.0004         42.0004
  -5503294.37647  -4115659.61146  24253967.0244   24253973.1184   24253966.7844
        43.0004         38.0004
  -7234725.47747  -5576761.21646  24145626.1584   24145630.4904   24145625.9754
        43.0004         39.0004
  -3165905.49146  -2454208.48146  24840167.0634   24840171.3144   24840166.1294
        41.0004         37.0004
 -13295892.79048 -10326171.90148  21885808.4604   21885811.2404   21885808.3934
        53.0004         48.0004
 -19375008.85849 -15063687.32148  21426687.8504   21426691.2104   21426687.5224
        54.0004         50.0004
 12  1  5  1 40 30.0000000  0 11G09G04G15G26G27G29G08G10G28G02G05
 -14139180.05048 -10958428.23847  22153454.2014   22153459.1734   22153453.9754
        50.0004         45.0004
  -3414131.92447  -2643189.52546  24501383.4574   24501389.6524   24501383.4414
        42.0004         37.0004
 -20108508.93649 -15604508.70148  21586887.7894   21586892.0894   21586887.4814
        54.0004         49.0004
 -16920952.33548 -12868957.26548  21969408.8704   21969413.0414   21969408.6014
        53.0004         49.0004
 -20094106.57148 -15591202.98148  21572096.8384   21572101.9554   21572097.4154
        53.0004         48.0004
  -5691350.27747  -4384581.92047  23735371.2604   23735375.7134   23735371.3464
        47.0004         43.0004
  -5403204.46147  -4037667.59846  24273012.4954   24273019.4134   24273013.7524
        43.0004         38.0004
  -7187566.25747  -5540013.85746  24154598.5374   24154605.1124   24154601.3614
        43.0004         38.0004
  -3204553.26046  -2484323.67946  24832810.0544   24832816.2974   24832814.2774
        41.0004         37.0004
 -13216562.43848 -10264356.06548  21900904.7194   21900907.2744   21900904.7754
        53.0004         48.0004
 -19382729.65449 -15069703.53648  21425218.4744   21425222.1344   21425218.0664
        54.0004         50.0004
 12  1  5  1 41  0.0000000  0 11G09G04G15G26G27G29G08G10G28G02G05
 -14229280.96948 -11028636.70847  22136308.5844   22136312.9414   22136308.4094
        50.0004         45.0004
  -3304448.58847  -2557722.04146  24522255.1714   24522262.0394   24522253.1884
        42.0004         37.0004
 -20119271.93149 -15612895.42248  21584839.7304   21584843.5544   21584839.2354
        54.0004         49.0004
 -16873944.82348 -12832328.04348  21978353.9344   21978358.5814   21978354.0934
        53.0004         49.0004
 -20178866.92948 -15657250.00248  21555968.1454   21555973.0974   21555968.4864
        53.0004         48.0004
  -5667281.07048  -4365826.66947  23739951.0904   23739956.4194   23739951.0524
        48.0004         43.0004
  -5302831.90047  -3959455.33446  24292115.3864   24292121.1654   24292115.8634
        43.0004         38.0004
  -7140206.55747  -5503110.29146  24163610.4024   24163616.7494   24163611.2294
        43.0004         38.0004
  -3242966.50646  -2514256.13746  24825501.0364   24825505.6054   24825503.6864
        41.0004         36.0004
 -13136929.55948 -10202304.49048  21916058.3864   21916061.2284   21916058.7334
        52.0004         48.0004
 -19390292.38449 -15075596.57948  21423779.4064   21423782.8644   21423779.2444
        54.0004         50.0004
 12  1  5  1 41 30.0000000  0 11G09G04G15G26G27G29G08G10G28G02G05
 -14319071.25348 -11098603.14547  22119221.4214   22119226.7834   22119221.5684
        50.0004         45.0004
  -3194674.97647  -2472184.20646  24543144.0534   24543150.1494   24543143.5934
        42.0004         37.0004
 -20129810.41249 -15621107.18748  21582833.9944   21582838.3964   21582834.0504
        54.0004         49.0004
 -16826876.74748 -12795651.62148  21987310.7454   21987314.6174   21987310.7014
        53.0004         49.0004
 -20263290.48648 -15723034.58248  21539902.7084   21539907.8584   21539902.5224
        53.0004         48.0004
  -5642885.60848  -4346817.21447  23744593.0164   23744598.3944   23744593.2754
        48.0004         44.0004
  -5202179.10847  -3881024.70546  24311270.3294   24311272.8914   24311269.5874
        43.0004         38.0004
  -7092644.97547  -5466049.42346  24172662.3964   24172667.7724   24172661.9124
        43.0004         38.0004
  -3281141.64946  -2544003.06446  24818237.5974   24818240.1754   24818240.0524
        41.0004         36.0004
 -13056995.46348 -10140018.20448  21931269.4024   21931272.2204   21931270.0384
        52.0004         48.0004
 -19397694.67149 -15081364.60048  21422370.9004   21422374.4584   21422370.6724
        55.0004         50.0004
 12  1  5  1 42  0.0000000  0 11G09G04G15G26G27G29G08G10G28G02G05
 -14408552.36448 -11168328.65047  22102193.2154   22102199.5454   22102193.5814
        50.0004         45.0004
  -3084817.58347  -2386581.10546  24564050.9704   24564058.0104   24564048.6064
        42.0004         37.0004
 -20140129.79149 -15629148.24748  21580870.4084   21580874.1194   21580869.9724
        54.0004         49.0004
 -16779754.05948 -12758932.65048  21996277.7834   21996281.6644   21996277.7404
        53.0004         49.0004
 -20347378.88148 -15788557.99348  21523900.9854   21523905.4354   21523901.4824
        53.0004         48.0004
  -5618170.04148  -4327558.33147  23749295.8144   23749301.1554   23749295.6894
        48.0004         43.0004
  -5101253.00347  -3802381.10946  24330473.3564   24330479.2204   24330474.6294
        43.0004         38.0004
  -7044885.00747  -5428833.93846  24181749.9474   24181755.8204   24181748.1214
        42.0004         38.0004
  -3319079.84446  -2573565.37146  24811015.5554   24811021.0034   24811020.0814
        41.0004         36.0004
 -12976766.34948 -10077502.02548  21946536.3194   21946539.1384   21946536.5684
        52.0004         48.0004
 -19404939.06349 -15087009.58448  21420992.4894   21420995.7614   21420991.9324
        55.0004         50.0004
 12  1  5  1 42 30.0000000  0 11G09G04G15G26G27G29G08G10G28G02G05
 -14497715.01948 -11237806.00947  22085226.7684   22085231.5934   22085227.3234
        50.0004         46.0004
  -2974872.41147  -2300909.57746  24584970.1374   24584979.0014   24584969.5514
        42.0004         37.0004
 -20150225.18549 -15637014.76248  21578949.2494   21578952.8044   21578949.1484
        54.0004         49.0004
 -16732571.92148 -12722167.34448  22005256.7294   22005260.6904   22005256.5604
        53.0004         49.0004
 -20431122.99848 -15853813.13948  21507965.1814   21507970.1224   21507965.5384
        53.0004         48.0004
  -5593130.53148  -4308047.00947  23754061.0394   23754066.0074   23754061.2464
        48.0004         44.0004
  -5000050.08047  -3723521.82546  24349730.4894   24349736.6924   24349732.4734
        43.0004         38.0004
  -6996919.20247  -5391458.07746  24190878.3204   24190884.1564   24190878.9174
        42.0004         38.0004
  -3356771.79846  -2602935.76746  24803843.8264   24803846.2404   24803845.0064
        40.0004         36.0004
 -12896237.87848 -10014752.59348  21961860.5924   21961862.9584   21961860.7434
        52.0004         48.0004
 -19412017.64649 -15092525.37048  21419645.0924   21419648.8374   21419645.1594
        55.0004         50.0004
 12  1  5  1 43  0.0000000  0 11G09G04G15G26G27G29G08G10G28G02G05
 -14586561.04248 -11307036.64947  22068320.3964   22068324.7604   22068320.0634
        50.0004         46.0004
  -2864846.40646  -2215175.09246  24605909.9634   24605916.8514   24605909.5574
        41.0004         37.0004
 -20160101.96249 -15644710.94748  21577070.1794   21577073.2874   21577069.9574
        54.0004         49.0004
 -16685336.77748 -12685360.74448  22014244.6384   22014248.9094   22014245.0974
        53.0004         49.0004
 -20514524.64448 -15918801.42848  21492093.9014   21492099.2854   21492093.9644
        53.0004         48.0004
  -5567773.59548  -4288288.36347  23758887.5954   23758890.8264   23758886.4914
        48.0004         43.0004
  -4898577.95547  -3644452.76646  24369040.6674   24369048.0034   24369042.1244
        43.0004         38.0004
  -6948751.75347  -5353925.09046  24200042.6204   24200048.2444   24200041.6014
        42.0004         37.0004
  -3394219.18646  -2632115.63445  24796717.8304   24796722.0364   24796721.9004
        40.0004         35.0004
 -12815416.63948  -9951775.02748  21977240.6724   21977243.3404   21977241.2294
        52.0004         48.0004
 -19418933.17749 -15097914.11248  21418329.1664   21418333.0164   21418328.9054
        55.0004         50.0004
 12  1  5  1 43 30.0000000  0 11G09G04G15G26G27G29G08G10G28G02G05
 -14675084.74448 -11376016.12647  22051474.6434   22051479.2564   22051474.2224
        50.0004         46.0004
  -2754739.06046  -2129377.21246  24626861.7594   24626869.9674   24626862.7234
        41.0004         37.0004
 -20169758.49449 -15652235.49048  21575232.2444   21575236.0954   21575231.9434
        54.0004         49.0004
 -16638047.25948 -12648511.78248  22023244.0254   22023248.1664   22023243.8724
        53.0004         49.0004
 -20597578.45648 -15983518.66248  21476289.1624   21476294.4894   21476289.4494
        53.0004         48.0004
  -5542098.69948  -4268281.94947  23763772.9914   23763776.8044   23763771.9234
        48.0004         43.0004
  -4796836.29647  -3565173.69746  24388402.5254   24388408.7924   24388403.4294
        42.0004         38.0004
  -6900378.66047  -5316231.85546  24209248.8684   24209255.3924   24209250.2594
        42.0004         37.0004
  -3431416.15246  -2661100.33046  24789640.7774   24789645.1614   24789641.1614
        40.0004         36.0004
 -12734301.78148  -9888568.66348  21992676.0294   21992678.7134   21992676.3494
        52.0004         48.0004
 -19425680.78649 -15103172.00648  21417045.1494   21417048.8814   21417044.9974
        55.0004         50.0004
 12  1  5  1 44  0.0000000  0 11G09G04G15G26G27G29G08G10G28G02G05
 -14763286.74348 -11444744.93047  22034689.8224   22034695.1304   22034690.4094
        50.0004         46.0004
  -2644556.03546  -2043520.35046  24647829.6604   24647836.4504   24647828.5384
        41.0004         37.0004
 -20179199.34949 -15659591.98548  21573435.8084   21573439.1894   21573435.2694
        54.0004         49.0004
 -16590708.55948 -12611624.48448  22032252.1604   22032255.9754   22032252.1354
        53.0004         49.0004
 -20680284.92348 -16047965.25448  21460550.7464   21460555.9824   21460551.1744
        53.0004         48.0004
  -5516111.16548  -4248031.92147  23768717.6294   23768722.2734   23768717.7534
        48.0004         43.0004
  -4694831.38747  -3485689.49546  24407812.8474   24407819.2724   24407814.4244
        42.0004         38.0004
  -6851802.52847  -5278380.44646  24218492.6234   24218498.5074   24218493.2294
        42.0004         38.0004
  -3468363.13346  -2689890.24346  24782610.0684   24782613.0014   24782608.5224
        41.0004         36.0004
 -12652898.46948  -9825137.52848  22008166.7574   22008168.8654   22008166.4724
        52.0004         48.0004
 -19432262.59149 -15108300.70848  21415792.9414   21415796.4094   21415792.8144
        55.0004         50.0004
 12  1  5  1 44 30.0000000  0 11G09G04G15G26G27G29G08G10G28G02G05
 -14851162.37248 -11513219.43247  22017967.9034   22017972.5924   22017968.5154
        50.0004         46.0004
  -2534297.69446  -1957604.80146  24668810.2634   24668817.6544   24668809.6044
        41.0004         37.0004
 -20188423.81649 -15666779.85948  21571680.0854   21571683.8544   21571680.0594
        54.0004         49.0004
 -16543320.39348 -12574698.65348  22041269.7994   22041274.3344   22041269.6754
        53.0004         48.0004
 -20762639.28548 -16112137.47748  21444879.7834   21444884.4374   21444879.8494
        53.0004         48.0004
  -5489811.33748  -4227538.54147  23773722.4724   23773727.2224   23773722.4084
        48.0004         43.0004
  -4592564.20347  -3406000.92246  24427273.2584   24427279.1224   24427275.3304
        42.0004         38.0004
  -6803020.46047  -5240368.52646  24227777.2234   24227782.2384   24227776.4624
        42.0004         38.0004
  -3505055.05746  -2718481.41846  24775627.6124   24775631.8394   24775629.2184
        41.0004         37.0004
 -12571206.69648  -9761481.61947  22023711.5914   22023714.0124   22023712.4864
        52.0004         47.0004
 -19438674.86849 -15113297.30248  21414572.5164   21414576.2394   21414572.1084
        54.0004         50.0004
 12  1  5  1 45  0.0000000  0 11G09G04G15G26G27G29G08G10G28G02G05
 -14938708.31248 -11581437.02147  22001309.2284   22001314.0224   22001308.6014
        50.0004         46.0004
  -2423965.91646  -1871632.03146  24689805.7004   24689812.1664   24689806.8604
        41.0004         36.0004
 -20197433.19649 -15673800.14348  21569966.0654   21569969.7524   21569965.9474
        54.0004         49.0004
 -16495883.80648 -12537735.08948  22050296.5804   22050300.7464   22050296.6904
        53.0004         48.0004
 -20844638.56548 -16176033.00348  21429275.5384   21429280.7244   21429275.6774
        53.0004         48.0004
  -5463201.11447  -4206803.29547  23778785.9174   23778790.0354   23778786.2434
        47.0004         43.0004
  -4490036.85247  -3326109.63146  24446785.6474   24446790.8664   24446785.6634
        42.0004         37.0004
  -6754031.02047  -5202195.07046  24237098.8944   24237104.0674   24237101.3004
        42.0004         38.0004
  -3541488.62146  -2746871.25146  24768695.9804   24768698.3574   24768696.4544
        41.0004         37.0004
 -12489227.97348  -9697602.10547  22039311.6794   22039314.8274   22039311.9884
        52.0004         47.0004
 -19444915.12649 -15118159.85048  21413385.0774   21413388.7624   21413384.8144
        54.0004         50.0004
 12  1  5  1 45 30.0000000  0 11G09G04G15G26G27G29G08G10G28G02G05
 -15025922.73748 -11649396.27247  21984712.4944   21984717.1254   21984713.2764
        51.0004         46.0004
  -2313563.99646  -1785604.60346  24710815.3354   24710821.6684   24710816.1714
        41.0004         37.0004
 -20206228.85349 -15680653.89348  21568292.1544   21568295.9864   21568291.7984
        54.0004         49.0004
 -16448401.52148 -12500735.91448  22059332.1184   22059336.4694   22059331.6954
        53.0004         48.0004
 -20926281.17148 -16239650.60648  21413739.4414   21413744.4824   21413739.9584
        53.0004         48.0004
  -5436283.48647  -4185828.52347  23783908.9714   23783912.5024   23783908.8714
        47.0004         42.0004
  -4387252.93447  -3246018.41746  24466342.0554   24466349.5804   24466344.2914
        42.0004         37.0004
  -6704834.48647  -5163860.21546  24246460.0444   24246465.3174   24246459.5624
        42.0004         38.0004
  -3577661.85547  -2775058.26446  24761812.4044   24761816.4474   24761808.7714
        42.0004         37.0004
 -12406965.52148  -9633501.51347  22054965.7164   22054968.7934   22054966.5974
        52.0004         47.0004
 -19450982.94449 -15122888.03448  21412230.1424   21412234.0034   21412229.9914
        54.0004         50.0004
 12  1  5  1 46  0.0000000  0 11G09G04G15G26G27G29G08G10G28G02G05
 -15112804.55448 -11717096.37647  21968178.9714   21968184.3814   21968179.4344
        51.0004         46.0004
  -2203096.05946  -1699525.73446  24731835.7964   24731843.9484   24731837.5184
        41.0004         37.0004
 -20214814.20349 -15687343.76848  21566658.1344   21566662.2484   21566657.5934
        54.0004         49.0004
 -16400876.99948 -12463703.83048  22068375.5884   22068380.1784   22068375.5914
        53.0004         48.0004
 -21007566.37248 -16302989.71448  21398271.2324   21398276.4504   21398271.6634
        53.0004         49.0004
  -5409062.68847  -4164617.50046  23789086.8694   23789092.5624   23789087.7364
        47.0004         41.0004
  -4284217.12347  -3165730.94246  24485950.3034   24485956.5184   24485951.1344
        42.0004         37.0004
  -6655431.98847  -5125364.87846  24255861.1324   24255868.1634   24255862.5074
        42.0004         38.0004
  -3613573.59146  -2803041.49846  24754975.5084   24754979.4724   24754978.7164
        41.0004         37.0004
 -12324423.10048  -9569182.76047  22070673.4534   22070675.9804   22070673.4924
        52.0004         47.0004
 -19456878.21049 -15127481.75348  21411108.8354   21411112.1564   21411108.3854
        54.0004         50.0004
 12  1  5  1 46 30.0000000  0 11G09G04G15G26G27G29G08G10G28G02G05
 -15199349.52348 -11784533.98947  21951709.6444   21951716.1064   21951710.0374
        51.0004         46.0004
  -2092563.22346  -1613396.31046  24752871.4454   24752876.0334   24752870.9244
        41.0004         36.0004
 -20223188.71449 -15693869.34848  21565064.9774   21565068.4514   21565064.7504
        54.0004         49.0004
 -16353310.55548 -12426639.07348  22077427.6194   22077431.7364   22077427.3864
        53.0004         48.0004
 -21088490.06148 -16366047.11948  21382872.2954   21382877.1554   21382872.1554
        53.0004         49.0004
  -5381539.16647  -4143170.59447  23794325.9424   23794330.7424   23794326.1734
        46.0004         42.0004
  -4180931.20247  -3085248.57646  24505604.1474   24505611.2164   24505605.0054
        42.0004         37.0004
  -6605821.33847  -5086707.35246  24265300.0064   24265308.0734   24265304.7114
        42.0004         37.0004
  -3649219.47046  -2830817.56546  24748193.0604   24748199.6684   24748193.8984
        41.0004         37.0004
 -12241601.19048  -9504646.22947  22086433.5064   22086436.6644   22086434.1744
        52.0004         47.0004
 -19462597.94949 -15131938.69548  21410020.5144   21410023.7764   21410020.0994
        55.0004         50.0004
 12  1  5  1 47  0.0000000  0 11G09G04G15G26G27G29G08G10G28G02G05
 -15285554.81548 -11851706.92847  21935305.8994   21935309.8734   21935305.6144
        51.0004         46.0004
  -1981967.25346  -1527217.65546  24773917.1134   24773923.7834   24773916.0984
        41.0004         36.0004
 -20231353.69249 -15700231.64848  21563511.3264   21563514.1454   21563511.0464
        54.0004         49.0004
 -16305702.96948 -12389542.26648  22086486.5504   22086491.1274   22086486.8804
        53.0004         48.0004
 -21169049.22248 -16428820.47648  21367542.0104   21367547.0144   21367542.5154
        53.0004         48.0004
  -5353714.76547  -4121489.23747  23799619.8834   23799624.9764   23799620.0934
        46.0004         42.0004
  -4077397.33547  -3004573.00046  24525306.8224   24525314.6004   24525306.0124
        42.0004         37.0004
  -6556001.29547  -5047886.64246  24274780.9944   24274789.9294   24274781.6174
        42.0004         38.0004
  -6835436.03146  -5313583.83946  24741457.5064   24741464.8594   24741457.9644
        41.0004         36.0004
 -12158501.88448  -9439893.54647  22102247.3664   22102249.6244   22102247.7734
        52.0004         47.0004
 -19468140.03849 -15136257.22148  21408965.8854   21408969.0904   21408965.3854
        55.0004         50.0004
 12  1  5  1 47 30.0000000  0 11G09G04G15G26G27G29G08G10G28G02G05
 -15371417.21248 -11918612.66847  21918966.7194   21918970.8374   21918967.0164
        51.0004         46.0004
  -1871309.80046  -1440991.10946  24794974.4504   24794981.4214   24794974.4644
        41.0004         36.0004
 -20239310.07249 -15706431.40348  21561996.8974   21562000.4634   21561996.5414
        54.0004         49.0004
 -16258056.03448 -12352414.79248  22095554.0544   22095558.0404   22095553.9554
        53.0004         48.0004
 -21249240.84748 -16491307.44648  21352281.9554   21352287.0214   21352282.2554
        53.0004         49.0004
  -5325591.64747  -4099575.11347  23804972.0844   23804976.9564   23804971.4244
        46.0004         42.0004
  -3973618.34347  -2923706.41246  24545055.8894   24545063.9054   24545054.7404
        42.0004         37.0004
  -6505970.64047  -5008901.82146  24284302.1454   24284310.2344   24284304.3334
        42.0004         38.0004
  -6870540.46646  -5340938.00046  24734781.6804   24734787.4294   24734785.8014
        40.0004         36.0004
 -12075126.14848  -9374925.45947  22118112.8504   22118115.7654   22118113.4914
        52.0004         47.0004
 -19473502.27849 -15140435.59748  21407945.5224   21407948.6504   21407944.7874
        55.0004         50.0004
 12  1  5  1 48  0.0000000  0 11G09G04G15G26G27G29G08G10G28G02G05
 -15456938.20448 -11985252.37747  21902692.7784   21902696.9314   21902693.2414
        51.0004         46.0004
  -1760597.72946  -1354721.99346  24816041.5044   24816046.9234   24816040.5194
        41.0004         36.0004
 -20247062.82249 -15712472.48648  21560521.1124   21560525.1114   21560520.9534
        54.0004         49.0004
 -16210375.30348 -12315260.98148  22104627.5604   22104631.2174   22104627.3834
        53.0004         48.0004
 -21329066.50248 -16553509.23848  21337091.6744   21337096.7754   21337092.3264
        53.0004         49.0004
  -5297176.63747  -4077433.54447  23810378.9094   23810384.4574   23810379.2184
        47.0004         42.0004
  -3869600.99547  -2842654.12346  24564848.2524   24564856.5414   24564849.4674
        42.0004         37.0004
  -6455733.18047  -4969755.83046  24293861.9374   24293870.7034   24293861.9654
        42.0004         38.0004
  -6905373.77346  -5368080.93245  24728152.5694   24728157.3234   24728151.3724
        40.0004         35.0004
 -11991480.29048  -9309746.89147  22134030.2614   22134033.7984   22134030.4824
        52.0004         47.0004
 -19478687.10149 -15144475.73648  21406958.6724   21406962.0294   21406958.5444
        55.0004         50.0004
 12  1  5  1 48 30.0000000  0 11G09G04G15G26G27G29G08G10G28G02G05
 -15542107.87748 -12051618.34647  21886485.2734   21886490.8334   21886485.4484
        51.0004         47.0004
  -1649825.81946  -1268406.23246  24837118.9074   24837127.9044   24837119.4684
        41.0004         36.0004
 -20254605.41249 -15718349.79948  21559085.9074   21559090.1924   21559085.9754
        54.0004         49.0004
 -16162654.91148 -12278076.27248  22113708.0224   22113712.5594   22113708.0944
        53.0004         48.0004
 -21408516.30348 -16615418.15848  21321973.2574   21321978.3354   21321973.3164
        53.0004         49.0004
  -5268464.22947  -4055060.23846  23815842.8114   23815847.8874   23815842.6334
        46.0004         41.0004
  -3765340.80647  -2761412.60146  24584691.9524   24584696.9034   24584690.9834
        42.0004         37.0004
  -6405280.59247  -4930442.24446  24303462.5994   24303472.3664   24303464.3064
        43.0004         38.0004
  -6939925.87546  -5395004.70945  24721580.5874   24721579.6744   24721581.6184
        40.0004         35.0004
 -11907559.35648  -9244353.97547  22149999.6664   22150002.5714   22150000.5694
        52.0004         47.0004
 -19483685.60149 -15148370.68048  21406007.5544   21406010.9064   21406007.1394
        55.0004         50.0004
 12  1  5  1 49  0.0000000  0 11G09G04G15G26G27G29G08G10G28G02G05
 -15626930.74048 -12117714.06547  21870344.5214   21870349.9974   21870344.6934
        51.0004         47.0004
  -1539003.88046  -1182051.49446  24858207.6174   24858217.9204   24858209.9284
        40.0004         36.0004
 -20261947.12949 -15724070.59848  21557689.1624   21557692.6554   21557689.1304
        54.0004         49.0004
 -16114903.87848 -12240867.69148  22122794.8594   22122798.9334   22122794.8494
        53.0004         48.0004
 -21487594.84948 -16677037.79048  21306924.7734   21306929.8274   21306925.3044
        53.0004         49.0004
  -5239463.87047  -4032462.55546  23821362.6634   23821365.8764   23821362.4654
        46.0004         41.0004
  -3660847.82647  -2679989.67146  24604574.5934   24604581.6234   24604575.4834
        42.0004         37.0004
  -6354619.33947  -4890966.02146  24313102.5754   24313113.1334   24313106.8514
        43.0004         38.0004
  -6974201.09646  -5421712.71446  24715054.8634   24715061.1824   24715056.4874
        40.0004         36.0004
 -11823372.59748  -9178753.92047  22166020.6084   22166022.6294   22166020.0984
        52.0004         47.0004
 -19488503.31849 -15152124.74248  21405090.4844   21405094.2894   21405089.8354
        55.0004         50.0004
 12  1  5  1 49 30.0000000  0 11G09G04G15G26G27G29G08G10G28G02G05
 -15711401.28348 -12183535.25347  21854270.0904   21854275.5694   21854270.4864
        51.0004         47.0004
  -1428131.52146  -1095657.46946  24879306.8564   24879315.5684   24879308.2174
        40.0004         36.0004
 -20269087.04249 -15729634.14248  21556330.1624   21556333.9194   21556329.9744
        54.0004         49.0004
 -16067121.32148 -12203634.55248  22131887.0084   22131892.0944   22131887.2004
        53.0004         48.0004
 -21566297.05448 -16738364.16548  21291948.2714   21291953.2024   21291948.6734
        53.0004         49.0004
  -5210175.43947  -4009640.39646  23826935.0954   23826940.1214   23826935.1314
        46.0004         41.0004
  -3556122.07447  -2598385.37546  24624502.6284   24624510.5114   24624504.0024
        42.0004         37.0004
  -6303746.20747  -4851324.73046  24322784.6004   24322793.2254   24322783.4874
        43.0004         38.0004
  -7008194.10346  -5448200.82346  24708588.0584   24708590.6124   24708587.2854
        40.0004         36.0004
 -11738919.52948  -9112946.36347  22182091.1474   22182093.7774   22182091.4814
        52.0004         47.0004
 -19493135.90349 -15155734.55448  21404208.9934   21404212.4294   21404208.9314
        55.0004         50.0004
 12  1  5  1 50  0.0000000  0 11G09G04G15G26G27G29G08G10G28G02G05
 -15795517.58448 -12249080.41047  21838263.3804   21838268.5874   21838263.4004
        52.0004         47.0004
  -1317211.78146  -1009226.51346  24900412.8324   24900422.2324   24900416.6914
        41.0004         36.0004
 -20276025.92249 -15735041.03748  21555010.0104   21555014.1424   21555009.5804
        54.0004         49.0004
 -16019309.13048 -12166378.30948  22140985.4704   22140989.8634   22140985.4074
        53.0004         48.0004
 -21644620.96848 -16799395.77648  21277043.5944   21277048.3834   21277043.9574
        53.0004         49.0004
  -5180602.05247  -3986596.19846  23832562.8934   23832566.9924   23832562.5504
        45.0004         41.0004
  -3451167.23647  -2516602.58046  24644475.6014   24644481.6954   24644476.2014
        42.0004         37.0004
  -6252661.12547  -4811518.27546  24332505.0094   24332514.6874   24332506.1434
        43.0004         38.0004
  -7041902.53346  -5474467.19846  24702172.3694   24702176.7354   24702174.0474
        40.0004         36.0004
 -11654202.94948  -9046933.47747  22198211.6724   22198215.0154   22198212.4214
        52.0004         47.0004
 -19497582.09349 -15159199.12348  21403362.7584   21403366.5564   21403362.6764
        54.0004         50.0004
 12  1  5  1 50 30.0000000  0 11G09G04G15G26G27G29G08G10G28G02G05
 -15879276.46848 -12314347.04747  21822324.5294   21822328.9584   21822324.8424
        51.0004         47.0004
  -1206246.26846   -922759.88546  24921531.3024   24921540.7864   24921533.8094
        40.0004         36.0004
 -20282765.17149 -15740292.38248  21553727.7234   21553731.1924   21553727.5224
        54.0004         49.0004
 -15971468.73448 -12129100.10548  22150090.0334   22150093.3624   22150089.7344
        52.0004         48.0004
 -21722563.80048 -16860130.43448  21262211.8464   21262216.9504   21262212.1184
        53.0004         49.0004
  -5150745.35447  -3963331.25346  23838244.7984   23838249.2004   23838244.9384
        45.0004         41.0004
  -3345985.73247  -2434643.16046  24664490.0774   24664497.4664   24664491.8764
        42.0004         37.0004
  -6201362.89547  -4771545.73546  24342267.3314   24342275.6624   24342269.9434
        43.0004         38.0004
  -7075322.88546  -5500509.08646  24695815.1364   24695818.9744   24695814.0264
        40.0004         36.0004
 -11569224.05048  -8980716.17747  22214383.2444   22214386.4814   22214383.3734
        52.0004         47.0004
 -19501839.93149 -15162516.92148  21402552.7234   21402556.1734   21402552.4054
        54.0004         50.0004
 12  1  5  1 51  0.0000000  0 11G09G04G15G26G27G29G08G10G28G02G05
 -15962675.50248 -12379333.29947  21806453.6334   21806458.9654   21806453.4774
        51.0004         47.0004
  -1095237.62446   -836259.63346  24942653.8824   24942662.9154   24942656.9284
        40.0004         36.0004
 -20289306.00449 -15745389.10948  21552482.9484   21552486.8834   21552482.9084
        54.0004         49.0004
 -15923601.51948 -12091800.99448  22159197.8674   22159202.5394   22159198.4044
        52.0004         48.0004
 -21800122.92148 -16920566.10448  21247452.4974   21247458.1954   21247452.9794
        53.0004         49.0004
  -5120607.95047  -3939847.51446  23843979.0154   23843984.1084   23843978.7274
        45.0004         40.0004
  -3240580.25747  -2352509.22146  24684550.4154   24684555.8174   24684550.6624
        42.0004         37.0004
  -6149850.71447  -4731406.49046  24352070.5654   24352077.0404   24352069.9524
        42.0004         38.0004
  -7108452.65546  -5526324.55146  24689506.0214   24689514.1934   24689508.3684
        40.0004         36.0004
 -11483985.41148  -8914296.48047  22230603.6074   22230606.2864   22230604.2184
        52.0004         47.0004
 -19505907.92949 -15165686.80048  21401778.9104   21401782.0414   21401778.6164
        54.0004         50.0004
 12  1  5  1 51 30.0000000  0 11G09G04G15G26G27G29G08G10G28G02G05
 -16045712.67348 -12444037.57547  21790652.0854   21790657.7734   21790652.5614
        51.0004         47.0004
   -984188.72046   -749728.02446  24963788.7494   24963794.7004   24963787.0774
        40.0004         36.0004
 -20295650.33349 -15750332.72848  21551275.4154   21551279.2244   21551275.3474
        54.0004         49.0004
 -15875709.67048 -12054482.69248  22168311.7614   22168316.3704   22168312.2314
        52.0004         48.0004
 -21877296.56748 -16980701.40148  21232766.8994   21232772.0824   21232767.2424
        53.0004         49.0004
  -5090192.63147  -3916147.25746  23849767.6494   23849772.0364   23849767.4924
        45.0004         40.0004
  -3134954.48147  -2270203.62046  24704648.4694   24704656.8774   24704649.7514
        42.0004         37.0004
  -6098124.63347  -4691100.55546  24361913.2134   24361921.6804   24361913.7734
        42.0004         37.0004
  -7141289.74646  -5551911.98946  24683258.6174   24683264.1464   24683262.2694
        40.0004         36.0004
 -11398489.80548  -8847676.55347  22246872.8514   22246875.2694   22246872.8114
        52.0004         47.0004
 -19509784.57649 -15168707.57748  21401041.0674   21401044.2764   21401040.4214
        54.0004         50.0004
 12  1  5  1 52  0.0000000  0 11G09G04G15G26G27G29G08G10G28G02G05
 -16128384.66548 -12508457.29347  21774920.0954   21774925.8754   21774920.0674
        51.0004         47.0004
   -873101.19846   -663166.27846  24984926.6064   24984935.5804   24984926.2614
        41.0004         36.0004
 -20301798.93449 -15755123.82648  21550105.5294   21550109.1674   21550105.1564
        54.0004         49.0004
 -15827794.38648 -12017146.12948  22177429.8974   22177433.7644   22177430.1004
        52.0004         48.0004
 -21954081.80748 -17040534.04548  21218155.2804   21218160.5334   21218155.3804
        53.0004         49.0004
  -5059501.37647  -3892232.01446  23855606.9734   23855611.8114   23855606.7544
        44.0004         39.0004
  -3029110.97547  -2187728.36146  24724791.1814   24724797.3664   24724791.1794
        42.0004         38.0004
  -6046183.70247  -4650627.21146  24371797.8854   24371805.5314   24371795.9454
        42.0004         38.0004
  -7173830.56156  -5577268.55656  24677065.7624   24677075.0824   24677064.8584
        40.0004         36.0004
 -11312738.61548  -8780857.47747  22263190.8874   22263193.2174   22263191.6494
        51.0004         47.0004
 -19513467.90049 -15171577.71848  21400340.0524   21400343.2164   21400339.9134
        54.0004         50.0004
 12  1  5  1 52 30.0000000  0 11G09G04G15G26G27G29G08G10G28G02G05
 -16210690.51248 -12572591.70547  21759257.7864   21759263.6624   21759258.3434
        52.0004         47.0004
   -761979.40146   -576577.86446  25006070.4694   25006081.8814   25006071.2554
        41.0004         36.0004
 -20307754.61249 -15759764.61048  21548972.4224   21548975.9084   21548972.1774
        54.0004         50.0004
 -15779858.88748 -11979793.81548  22186551.3504   22186556.2084   22186551.6864
        52.0004         48.0004
 -22030477.55548 -17100063.18848  21203617.4194   21203622.6014   21203617.7954
        53.0004         49.0004
  -5028538.27047  -3868104.85946  23861499.6534   23861504.5134   23861500.1424
        44.0004         39.0004
  -2923054.05847  -2105086.80646  24744972.9014   24744980.8264   24744973.4394
        42.0004         38.0004
  -5994028.87147  -4609987.20446  24381723.4374   24381729.8594   24381725.2854
        42.0004         38.0004
  -7206074.18446  -5602393.56746  24670931.3084   24670937.3994   24670932.9834
        40.0004         36.0004
 -11226735.81948  -8713842.34247  22279556.3614   22279559.5804   22279557.5534
        51.0004         47.0004
 -19516958.01249 -15174297.29848  21399676.0654   21399679.5404   21399675.9444
        54.0004         50.0004
 12  1  5  1 53  0.0000000  0 11G09G04G15G26G27G29G08G10G28G02G05
 -16292624.84048 -12636436.62147  21743666.4694   21743671.5484   21743666.6654
        52.0004         47.0004
   -650822.47046   -489962.03046  25027225.3364   25027235.2264   25027224.1674
        41.0004         36.0004
 -20313515.72449 -15764253.76848  21547876.3704   21547879.6354   21547875.9874
        54.0004         50.0004
 -15731901.75348 -11942424.65048  22195677.4064   22195681.5714   22195677.7804
        52.0004         48.0004
 -22106478.53748 -17159284.72048  21189155.1444   21189160.4434   21189155.3674
        53.0004         49.0004
  -4997302.76347  -3843765.49246  23867443.4584   23867448.9334   23867443.0274
        43.0004         38.0004
  -2816783.55447  -2022278.82046  24765195.2574   24765202.8454   24765197.6284
        42.0004         38.0004
  -5941656.55147  -4569177.71146  24391690.5934   24391696.1264   24391692.0484
        42.0004         38.0004
  -7238014.81546  -5627282.45046  24664851.5124   24664857.0154   24664853.9724
        40.0004         36.0004
 -11140480.55148  -8646630.47247  22295969.5344   22295973.1724   22295969.7484
        51.0004         47.0004
 -19520249.94849 -15176862.45648  21399049.5404   21399053.0274   21399049.1994
        54.0004         50.0004
 12  1  5  1 53 30.0000000  0 11G09G04G15G26G27G29G08G10G28G02G05
 -16374189.83948 -12699993.74347  21728145.5234   21728149.9944   21728146.1234
        52.0004         47.0004
   -539637.56746   -403324.42346  25048384.4884   25048391.1174   25048382.6984
        41.0004         36.0004
 -20319088.38649 -15768596.07148  21546815.7694   21546819.1374   21546815.5574
        54.0004         50.0004
 -15683929.32048 -11905043.56548  22204806.4764   22204810.9734   22204806.5624
        52.0004         48.0004
 -22182087.03448 -17218200.41948  21174767.3604   21174772.1964   21174767.5014
        53.0004         49.0004
  -4965801.87147  -3819219.33146  23873438.3814   23873441.8394   23873438.0244
        43.0004         38.0004
  -2710306.92147  -1939310.23146  24785457.1954   24785465.8654   24785459.2314
        42.0004         38.0004
  -5889070.88947  -4528201.99246  24401697.9254   24401703.3594   24401697.4584
        43.0004         38.0004
  -7269654.36646  -5651936.71246  24658831.6114   24658837.7474   24658831.6004
        40.0004         36.0004
 -11053979.54748  -8579227.11447  22312430.8834   22312434.0744   22312431.0644
        51.0004         46.0004
 -19523347.21149 -15179275.91248  21398460.1114   21398463.5954   21398459.6704
        54.0004         50.0004
 12  1  5  1 54  0.0000000  0 11G09G15G26G27G29G08G10G28G02G21G05
 -16455380.51648 -12763259.18147  21712695.5594   21712699.8204   21712696.2824
        52.0004         47.0004
 -20324471.59249 -15772790.76848  21545791.0434   21545794.5154   21545790.7234
        54.0004         49.0004
 -15635940.57548 -11867649.76148  22213938.4804   22213942.7124   22213938.6784
        52.0004         48.0004
 -22257298.22949 -17276806.53648  21160455.0014   21160460.3584   21160455.2714
        54.0004         49.0004
  -4934035.50947  -3794466.34046  23879482.7944   23879487.4464   23879483.1784
        43.0004         39.0004
  -2603624.48447  -1856181.26846  24805759.9344   24805766.8334   24805759.2684
        42.0004         38.0004
  -5836268.62847  -4487057.49046  24411745.6714   24411750.8474   24411746.9964
        43.0004         39.0004
  -7300987.73746  -5676352.38446  24652868.1384   24652877.1484   24652870.0854
        40.0004         36.0004
 -10967232.72448  -8511632.21447  22328938.3314   22328941.1624   22328938.5014
        51.0004         46.0004
  -1443151.66947  -1062525.00546  24209034.2094   24209039.1294   24209035.5324
        45.0004         36.0004
 -19526245.63449 -15181534.44348  21397908.8074   21397912.3474   21397908.6064
        54.0004         50.0004
 12  1  5  1 54 30.0000000  0 11G09G15G26G27G29G08G10G28G02G21G05
 -16536193.42348 -12826230.26347  21697317.2144   21697321.4864   21697317.0884
        52.0004         47.0004
 -20329665.51749 -15776837.96848  21544802.5684   21544806.5054   21544802.3234
        54.0004         49.0004
 -15587936.20748 -11830243.78148  22223073.1124   22223077.7384   22223073.3134
        52.0004         48.0004
 -22332108.73349 -17335100.42148  21146219.5494   21146223.9564   21146219.4904
        54.0004         49.0004
  -4902005.48547  -3769507.87346  23885578.1524   23885581.8464   23885577.7904
        43.0004         38.0004
  -2496738.46247  -1772893.67246  24826099.8544   24826106.0094   24826098.5664
        42.0004         38.0004
  -5783248.66547  -4445743.35146  24421835.9054   24421840.6154   24421835.3874
        43.0004         39.0004
  -7332011.36846  -5700526.70746  24646966.2534   24646972.7564   24646968.0044
        41.0004         36.0004
 -10880241.21448  -8443846.65147  22345492.8514   22345495.7844   22345492.3074
        51.0004         47.0004
  -1533905.77747  -1133242.48946  24191765.5674   24191769.6764   24191766.5664
        42.0004         37.0004
 -19528942.07749 -15183635.58048  21397395.5884   21397399.3254   21397395.2204
        54.0004         50.0004
 12  1  5  1 55  0.0000000  0 11G09G15G26G27G29G08G10G28G02G21G05
 -16616626.66448 -12888905.50647  21682011.1384   21682016.3734   21682011.4804
        52.0004         47.0004
 -20334671.86549 -15780739.00148  21543849.8864   21543853.5984   21543849.8594
        54.0004         49.0004
 -15539918.26848 -11792827.22848  22232211.0314   22232214.8954   22232211.1044
        52.0004         48.0004
 -22406516.58349 -17393080.55648  21132060.0694   21132064.9464   21132060.1174
        54.0004         49.0004
  -4869714.31647  -3744345.92646  23891724.4234   23891726.7424   23891723.6614
        43.0004         38.0004
  -2389652.13147  -1689449.98846  24846476.4024   24846483.9084   24846477.2364
        42.0004         38.0004
  -5730010.52047  -4404259.19546  24431966.5164   24431972.1244   24431968.5604
        43.0004         38.0004
  -7362722.95046  -5724457.88846  24641124.8784   24641128.9094   24641125.1374
        41.0004         36.0004
 -10793007.86248  -8375872.65047  22362092.5834   22362095.5364   22362092.8714
        51.0004         47.0004
  -1624418.96246  -1203772.22346  24174539.9834   24174545.6604   24174541.5244
        41.0004         37.0004
 -19531435.43049 -15185578.46648  21396920.9744   21396924.6424   21396920.8214
        54.0004         50.0004
 12  1  5  1 55 30.0000000  0 11G09G15G26G27G29G08G10G28G02G21G05
 -16696676.88848 -12951282.29747  21666778.2684   21666783.5434   21666778.6804
        52.0004         47.0004
 -20339491.38049 -15784494.45348  21542932.8464   21542936.4774   21542932.7064
        54.0004         49.0004
 -15491887.49248 -11755400.66448  22241351.1344   22241355.1064   22241351.4114
        52.0004         48.0004
 -22480519.07349 -17450744.81848  21117977.1944   21117982.3634   21117977.7054
        54.0004         49.0004
  -4837164.25647  -3718982.19146  23897917.0844   23897922.8164   23897916.1344
        43.0004         38.0004
  -2282367.76747  -1605852.01146  24866892.9854   24866900.1194   24866894.2884
        42.0004         38.0004
  -5676553.30847  -4362604.33246  24442138.1834   24442144.4304   24442136.1994
        43.0004         38.0004
  -7393119.23546  -5748143.38046  24635340.6104   24635344.9984   24635341.6284
        40.0004         36.0004
 -10705534.06048  -8307711.27247  22378737.6474   22378741.5414   22378738.2524
        51.0004         47.0004
  -1714688.17846  -1274111.85846  24157364.9834   24157367.0254   24157363.8404
        41.0004         37.0004
 -19533723.77449 -15187361.61048  21396485.6004   21396488.8944   21396485.1684
        54.0004         50.0004
 12  1  5  1 56  0.0000000  0 11G09G15G26G27G29G08G10G28G02G21G05
 -16776344.30648 -13013360.79447  21651617.2984   21651623.2584   21651617.5284
        52.0004         47.0004
 -20344128.10349 -15788107.47348  21542050.2564   21542054.3574   21542049.9094
        54.0004         50.0004
 -15443847.92748 -11717967.25348  22250492.7704   22250497.3054   22250492.7084
        52.0004         48.0004
 -22554116.38449 -17508093.36648  21103972.7184   21103978.0584   21103972.8404
        54.0004         49.0004
  -4804360.30747  -3693420.68146  23904159.2394   23904162.7434   23904159.9204
        43.0004         39.0004
  -2174890.38247  -1522103.63646  24887346.4594   24887352.1764   24887346.4674
        42.0004         37.0004
  -5622878.88347  -4320780.23746  24452352.3444   24452358.7804   24452351.6494
        43.0004         38.0004
  -7423199.98446  -5771583.01646  24629616.8904   24629619.9424   24629615.3984
        41.0004         36.0004
 -10617824.63448  -8239366.29947  22395428.6554   22395432.2274   22395428.7554
        51.0004         47.0004
  -1804713.50146  -1344261.41546  24140232.0904   24140235.0214   24140233.2484
        41.0004         37.0004
 -19535807.85449 -15188985.59248  21396089.1774   21396092.5404   21396088.5304
        54.0004         50.0004
 12  1  5  1 56 30.0000000  0 11G09G15G26G27G29G08G10G28G02G21G05
 -16855623.78648 -13075137.00447  21636531.9064   21636536.0294   21636531.6224
        52.0004         47.0004
 -20348580.66549 -15791576.99048  21541203.0334   21541206.6694   21541202.6304
        54.0004         49.0004
 -15395798.74548 -11680526.34848  22259636.1114   22259640.2014   22259636.4724
        52.0004         48.0004
 -22627303.43849 -17565122.23048  21090045.6154   21090050.5684   21090045.6564
        54.0004         49.0004
  -4771302.28847  -3667661.19646  23910449.8104   23910455.1284   23910449.1354
        44.0004         40.0004
  -2067220.52047  -1438205.26946  24907834.8684   24907841.4714   24907836.5234
        42.0004         37.0004
  -5568984.11847  -4278784.42746  24462607.8334   24462613.0584   24462609.4604
        43.0004         38.0004
  -7452959.81446  -5794772.57046  24623951.4854   24623957.0204   24623952.7014
        40.0004         36.0004
 -10529879.40348  -8170837.57847  22412164.6794   22412167.8834   22412164.9084
        51.0004         47.0004
  -1894489.89346  -1414217.03346  24123148.0304   24123154.1754   24123148.7804
        41.0004         37.0004
 -19537683.33949 -15190447.02848  21395731.8674   21395735.7634   21395731.6834
        54.0004         50.0004
 12  1  5  1 57  0.0000000  0 11G09G15G26G27G29G08G10G28G02G21G05
 -16934503.99348 -13136602.09547  21621520.4834   21621524.9734   21621520.2644
        52.0004         47.0004
 -20352841.36849 -15794897.01048  21540392.5344   21540396.2154   21540392.4224
        54.0004         50.0004
 -15347732.44848 -11643072.10848  22268783.1014   22268787.4604   22268783.1864
        52.0004         48.0004
 -22700068.92949 -17621822.60648  21076198.6664   21076204.2604   21076198.9254
        54.0004         49.0004
  -4737983.78047  -3641698.66846  23916790.8654   23916795.2974   23916790.5864
        44.0004         40.0004
  -1959352.20847  -1354152.26046  24928362.3894   24928368.0394   24928363.6374
        42.0004         37.0004
  -5514859.65247  -4236609.61946  24472907.5754   24472915.7964   24472906.7174
        43.0004         38.0004
  -7482387.30646  -5817703.14646  24618350.8924   24618354.9474   24618352.2214
        41.0004         36.0004
 -10441691.12348  -8102119.47447  22428946.6854   22428949.1224   22428947.0464
        51.0004         46.0004
  -1984005.41746  -1483969.36946  24106112.5604   24106117.4714   24106114.7224
        41.0004         36.0004
 -19539339.79349 -15191737.79548  21395417.0504   21395420.3614   21395416.6264
        54.0004         50.0004
 12  1  5  1 57 30.0000000  0 11G09G15G26G27G29G08G10G28G02G21G05
 -17013004.53048 -13197771.32947  21606582.8044   21606587.6024   21606583.0584
        52.0004         47.0004
 -20356933.51749 -15798085.67348  21539614.0544   21539617.7784   21539613.6684
        54.0004         50.0004
 -15299672.53648 -11605622.83548  22277928.0814   22277932.8434   22277928.4934
        52.0004         48.0004
 -22772432.75249 -17678209.99348  21062427.7714   21062433.3244   21062428.2764
        54.0004         49.0004
  -4704429.26547  -3615552.31946  23923175.5904   23923180.6304   23923174.7874
        44.0004         39.0004
  -1851310.43947  -1269964.10846  24948920.9234   24948928.3424   24948922.0294
        42.0004         37.0004
  -5460526.88647  -4194272.53746  24483246.4534   24483253.4634   24483246.8304
        42.0004         38.0004
  -7511501.80346  -5840389.84446  24612812.7784   24612817.0824   24612810.0404
        41.0004         36.0004
 -10353284.61148  -8033231.32247  22445768.9394   22445771.6404   22445769.0804
        51.0004         46.0004
  -2073280.01446  -1553533.95846  24089123.8594   24089128.4494   24089125.6044
        41.0004         36.0004
 -19540797.66449 -15192873.82848  21395139.5314   21395142.9444   21395139.2554
        54.0004         50.0004
 12  1  5  1 58  0.0000000  0 11G09G15G26G27G29G08G10G28G02G21G05
 -17091108.70248 -13258631.72047  21591719.9854   21591724.3184   21591720.3064
        52.0004         47.0004
 -20360843.99449 -15801132.77448  21538869.3954   21538873.1964   21538868.8804
        54.0004         49.0004
 -15251605.97348 -11568168.39448  22287075.2734   22287079.3804   22287075.2544
        52.0004         48.0004
 -22844378.09449 -17734271.29448  21048737.5654   21048742.5824   21048737.8084
        54.0004         49.0004
  -4670626.42347  -3589212.43146  23929607.8914   23929612.5374   23929608.3264
        44.0004         40.0004
  -1743083.57347  -1185631.71746  24969516.7044   24969523.1334   24969516.3234
        42.0004         37.0004
  -5405971.08847  -4151761.64546  24493628.6044   24493636.4124   24493628.0994
        42.0004         38.0004
  -7540285.91646  -5862819.10146  24607334.8974   24607338.8134   24607339.1764
        41.0004         36.0004
 -10264647.44448  -7964163.43547  22462636.3254   22462639.4024   22462636.6974
        51.0004         46.0004
  -2162296.71046  -1622897.60246  24072185.2794   24072189.6494   24072184.4734
        41.0004         36.0004
 -19542040.64449 -15193842.41348  21394902.7684   21394906.6374   21394902.4634
        54.0004         50.0004
 12  1  5  1 58 30.0000000  0 11G09G15G26G27G29G08G10G28G02G21G05
 -17168818.68048 -13319184.94447  21576932.7474   21576937.2454   21576933.1024
        52.0004         47.0004
 -20364578.97149 -15804043.13048  21538158.6374   21538162.4894   21538158.2084
        54.0004         50.0004
 -15203538.89448 -11530713.54147  22296222.1134   22296226.2774   22296222.1274
        52.0004         47.0004
 -22915907.11749 -17790008.19448  21035126.2344   21035130.7304   21035126.6484
        54.0004         49.0004
  -4636582.81847  -3562684.92946  23936086.6504   23936089.8844   23936086.1464
        45.0004         40.0004
  -1634679.06947  -1101160.91246  24990144.7254   24990153.3304   24990145.8654
        42.0004         37.0004
  -5351196.39247  -4109080.17446  24504050.1974   24504058.2464   24504053.6704
        43.0004         38.0004
  -7568741.94446  -5884992.69846  24601921.6174   24601926.7804   24601919.2614
        40.0004         36.0004
 -10175786.37648  -7894921.08547  22479546.1994   22479549.0614   22479546.6764
        51.0004         46.0004
  -2251057.62246  -1692061.95446  24055294.8584   24055297.6604   24055296.2544
        41.0004         37.0004
 -19543071.87949 -15194646.00748  21394706.7314   21394710.5544   21394706.7514
        54.0004         50.0004
 12  1  5  1 59  0.0000000  0 11G09G15G26G27G29G08G10G28G02G21G05
 -17246129.62548 -13379427.23348  21562220.3824   21562225.0994   21562220.1494
        52.0004         48.0004
 -20368137.19849 -15806815.75948  21537481.7424   21537485.4774   21537481.6874
        54.0004         49.0004
 -15155470.29548 -11493257.51848  22305369.0494   22305373.6714   22305368.8724
        52.0004         48.0004
 -22987015.15449 -17845417.04548  21021594.6264   21021599.6094   21021594.2664
        54.0004         49.0004
  -4602298.48147  -3535969.86846  23942609.9444   23942615.4614   23942610.2454
        45.0004         41.0004
  -1526097.42146  -1016552.06346  25010805.3174   25010813.6184   25010807.7434
        41.0004         37.0004
  -5296199.87247  -4066225.86446  24514517.8744   24514522.3554   24514517.3654
        43.0004         38.0004
  -7596864.86746  -5906906.74745  24596564.9274   24596571.8854   24596569.4584
        40.0004         35.0004
 -10086701.26448  -7825504.14747  22496499.0434   22496501.1074   22496498.1364
        51.0004         46.0004
  -2339557.63547  -1761022.98046  24038454.0544   24038458.3004   24038454.4034
        42.0004         38.0004
 -19543887.12249 -15195281.29748  21394551.9024   21394555.3694   21394551.8544
        54.0004         50.0004
 12  1  5  1 59 30.0000000  0 11G09G15G26G27G29G08G10G28G02G21G05
 -17323041.13748 -13439358.26548  21547584.8704   21547589.5514   21547585.2014
        52.0004         48.0004
 -20371521.92049 -15809453.19748  21536837.4584   21536841.1514   21536837.5414
        54.0004         49.0004
 -15107403.77348 -11455803.11147  22314516.0474   22314519.8924   22314516.1414
        52.0004         47.0004
 -23057702.06849 -17900497.75448  21008143.4584   21008147.7014   21008144.1724
        54.0004         49.0004
  -4567777.75647  -3509070.62846  23949180.3794   23949183.4324   23949179.6074
        45.0004         40.0004
  -1417343.65146   -931809.11846  25031503.7784   25031510.4714   25031502.5554
        41.0004         36.0004
  -5240983.00147  -4023199.85446  24525025.0734   24525030.3734   24525026.0754
        42.0004         38.0004
  -7624653.96146  -5928560.61345  24591281.2924   24591286.7734   24591278.5444
        40.0004         35.0004
  -9997396.63848  -7755916.16547  22513491.7354   22513494.9244   22513492.5254
        51.0004         46.0004
  -2427796.09247  -1829780.20146  24021662.5804   24021668.2174   24021664.8844
        42.0004         38.0004
 -19544486.78449 -15195748.59348  21394437.5164   21394441.4024   21394437.1564
        54.0004         50.0004
 12  1  5  2  0  0.0000000  0 11G09G15G26G27G29G08G10G28G02G21G05
 -17399550.16848 -13498975.69648  21533025.8954   21533030.6634   21533026.0864
        52.0004         48.0004
 -20374734.01349 -15811956.12448  21536226.2564   21536229.9374   21536225.7514
        54.0004         49.0004
 -15059340.09448 -11418350.91447  22323661.6594   22323666.7894   22323661.7334
        52.0004         47.0004
 -23127965.07849 -17955248.14048  20994772.4594   20994777.4374   20994772.5234
        54.0004         49.0004
  -4533023.10247  -3481989.11446  23955792.4214   23955798.0704   23955792.7934
        45.0004         40.0004
  -1308419.67746   -846933.53546  25052232.0684   25052237.0534   25052230.2584
        41.0004         36.0004
  -5185544.64547  -3980001.25346  24535574.5404   24535579.6424   24535575.0674
        42.0004         38.0004
  -7652106.23646  -5949952.09546  24586055.6234   24586062.7694   24586053.7354
        40.0004         36.0004
  -9907873.85848  -7686158.19647  22530527.9554   22530531.0894   22530528.1094
        51.0004         46.0004
  -2515770.19347  -1898331.43246  24004923.5524   24004927.1964   24004922.9644
        43.0004         39.0004
 -19544868.63749 -15196046.16248  21394364.8844   21394368.7014   21394364.6964
        54.0004         50.0004
 12  1  5  2  0 30.0000000  0 11G09G15G26G27G29G08G10G28G02G21G05
 -17475652.06548 -13558275.87248  21518543.4974   21518548.9634   21518544.0524
        52.0004         48.0004
 -20377772.35649 -15814323.63748  21535647.8104   21535651.5274   21535647.6294
        54.0004         49.0004
 -15011278.60148 -11380900.42547  22332807.7934   22332811.6754   22332808.1644
        52.0004         47.0004
 -23197799.44449 -18009664.52248  20981484.0594   20981488.2854   20981484.2464
        54.0004         49.0004
  -4498034.51647  -3454725.26246  23962451.3114   23962455.2084   23962451.7684
        45.0004         41.0004
  -1199326.12146   -761925.80546  25072990.2604   25072997.7684   25072991.0764
        41.0004         36.0004
  -5129882.16147  -3936628.02246  24546167.0934   24546172.1344   24546166.8174
        42.0004         38.0004
  -7679216.62146  -5971077.15745  24580896.5234   24580903.8954   24580896.0404
        40.0004         35.0004
  -9818132.89348  -7616230.21747  22547604.4154   22547608.2394   22547605.2394
        50.0004         46.0004
  -2603474.98947  -1966672.81046  23988232.3704   23988236.2204   23988233.6324
        43.0004         39.0004
 -19545028.56649 -15196170.81148  21394334.6544   21394338.1524   21394334.5034
        54.0004         50.0004
 12  1  5  2  1  0.0000000  0 11G09G15G26G27G29G08G10G28G02G21G05
 -17551347.06348 -13617258.98048  21504139.9014   21504144.7164   21504139.7154
        52.0004         48.0004
 -20380640.79849 -15816558.77848  21535102.3824   21535105.7814   21535102.2064
        54.0004         49.0004
 -14963222.84048 -11343454.39947  22341952.4084   22341957.0264   22341952.4064
        52.0004         47.0004
 -23267205.66249 -18063747.28948  20968276.2594   20968280.8124   20968276.0904
        54.0004         49.0004
  -4462816.90047  -3427282.96847  23969153.5044   23969157.8914   23969152.9304
        46.0004         42.0004
  -1090068.34146   -676790.11046  25093784.1434   25093789.1244   25093784.0224
        41.0004         37.0004
  -5073997.44947  -3893081.63246  24556799.6404   24556806.6374   24556802.6484
        42.0004         37.0004
  -7705985.06446  -5991935.78545  24575799.8074   24575807.7334   24575801.7364
        40.0004         35.0004
  -9728178.56448  -7546135.97747  22564722.2224   22564725.4044   22564722.1474
        50.0004         45.0004
  -2690910.25647  -2034804.17146  23971594.6674   23971598.1484   23971595.1854
        43.0004         39.0004
 -19544967.58149 -15196123.31548  21394346.2184   21394349.6604   21394345.5404
        54.0004         50.0004
